20181726-14:17:20:114823221 $GNRMC,034250.00,V,,,,,,,260118,,,N*6F
20181726-14:17:20:120512336 $GNVTG,,,,,,,,,N*2E
20181726-14:17:20:215536294 $GNGGA,034250.00,,,,,0,00,99.99,,,,,,*78
20181726-14:17:20:220531919 $GNGSA,A,1,,,,,,,,,,,,,99.99,99.99,99.99*2E
20181726-14:17:20:225641555 $GNGSA,A,1,,,,,,,,,,,,,99.99,99.99,99.99*2E
20181726-14:17:20:317842961 $GPGSV,1,1,04,02,,,28,05,,,34,12,,,33,13,,,36*73
20181726-14:17:20:320693690 $GLGSV,1,1,00*65
20181726-14:17:20:323315148 $GNGLL,,,,,034250.00,V,N*54
20181726-14:17:20:547312232 $GNZDA,034250.00,26,01,2018,00,00*76
20181726-14:17:21:105780252 $GNRMC,034251.00,V,,,,,,,260118,,,N*6E
20181726-14:17:21:110461242 $GNVTG,,,,,,,,,N*2E
20181726-14:17:21:210263742 $GNGGA,034251.00,,,,,0,00,99.99,,,,,,*79
20181726-14:17:21:215724263 $GNGSA,A,1,,,,,,,,,,,,,99.99,99.99,99.99*2E
20181726-14:17:21:221958273 $GNGSA,A,1,,,,,,,,,,,,,99.99,99.99,99.99*2E
20181726-14:17:21:313655669 $GPGSV,1,1,04,02,,,30,05,,,34,12,,,34,13,,,36*7D
20181726-14:17:21:318439054 $GLGSV,1,1,01,,,,33*64
20181726-14:17:21:323299731 $GNGLL,,,,,034251.00,V,N*55
20181726-14:17:21:558928377 $GNZDA,034251.00,26,01,2018,00,00*77
20181726-14:17:22:109152596 $GNRMC,034252.00,V,,,,,,,260118,,,N*6D
20181726-14:17:22:113988846 $GNVTG,,,,,,,,,N*2E
20181726-14:17:22:212755460 $GNGGA,034252.00,,,,,0,00,99.99,,,,,,*7A
20181726-14:17:22:218313846 $GNGSA,A,1,,,,,,,,,,,,,99.99,99.99,99.99*2E
20181726-14:17:22:223884158 $GNGSA,A,1,,,,,,,,,,,,,99.99,99.99,99.99*2E
20181726-14:17:22:317368325 $GPGSV,1,1,04,02,,,32,05,,,34,12,,,37,13,,,35*7F
20181726-14:17:22:322295148 $GLGSV,1,1,01,,,,34*63
20181726-14:17:22:327301971 $GNGLL,,,,,034252.00,V,N*56
20181726-14:17:22:559069002 $GNZDA,034252.00,26,01,2018,00,00*74
20181726-14:17:23:104936918 $GNRMC,034253.00,V,,,,,,,260118,,,N*6C
20181726-14:17:23:109819783 $GNVTG,,,,,,,,,N*2E
20181726-14:17:23:210675981 $GNGGA,034253.00,,,,,0,00,99.99,,,,,,*7B
20181726-14:17:23:215750876 $GNGSA,A,1,,,,,,,,,,,,,99.99,99.99,99.99*2E
20181726-14:17:23:221135668 $GNGSA,A,1,,,,,,,,,,,,,99.99,99.99,99.99*2E
20181726-14:17:23:314402335 $GPGSV,1,1,04,02,,,33,05,,,34,12,,,37,13,,,34*7F
20181726-14:17:23:319362751 $GLGSV,1,1,01,,,,34*63
20181726-14:17:23:324016762 $GNGLL,,,,,034253.00,V,N*57
20181726-14:17:23:549113116 $GNZDA,034253.00,26,01,2018,00,00*75
20181726-14:17:24:108565043 $GNRMC,034254.00,V,,,,,,,260118,,,N*6B
20181726-14:17:24:113415095 $GNVTG,,,,,,,,,N*2E
20181726-14:17:24:213298636 $GNGGA,034254.00,,,,,0,00,99.99,,,,,,*7C
20181726-14:17:24:218767334 $GNGSA,A,1,,,,,,,,,,,,,99.99,99.99,99.99*2E
20181726-14:17:24:223782491 $GNGSA,A,1,,,,,,,,,,,,,99.99,99.99,99.99*2E
20181726-14:17:24:317927126 $GPGSV,1,1,04,02,,,33,05,,,34,12,,,33,13,,,36*79
20181726-14:17:24:322781970 $GLGSV,1,1,01,,,,34*63
20181726-14:17:24:327387751 $GNGLL,,,,,034254.00,V,N*50
20181726-14:17:24:559025355 $GNZDA,034254.00,26,01,2018,00,00*72
20181726-14:17:25:112946084 $GNRMC,034255.00,V,,,,,,,260118,,,N*6A
20181726-14:17:25:117969626 $GNVTG,,,,,,,,,N*2E
20181726-14:17:25:218483584 $GNGGA,034255.00,,,,,0,00,99.99,,,,,,*7D
20181726-14:17:25:223854001 $GNGSA,A,1,,,,,,,,,,,,,99.99,99.99,99.99*2E
20181726-14:17:25:229655928 $GNGSA,A,1,,,,,,,,,,,,,99.99,99.99,99.99*2E
20181726-14:17:25:321000407 $GPGSV,1,1,04,02,,,32,05,,,31,12,,,36,13,,,38*76
20181726-14:17:25:325784001 $GLGSV,1,1,01,,,,34*63
20181726-14:17:25:330705928 $GNGLL,,,,,034255.00,V,N*51
20181726-14:17:25:558930771 $GNZDA,034255.00,26,01,2018,00,00*73
20181726-14:17:26:114923427 $GNRMC,034256.00,V,,,,,,,260118,,,N*69
20181726-14:17:26:119984521 $GNVTG,,,,,,,,,N*2E
20181726-14:17:26:219319834 $GNGGA,034256.00,,,,,0,00,99.99,,,,,,*7E
20181726-14:17:26:224402334 $GNGSA,A,1,,,,,,,,,,,,,99.99,99.99,99.99*2E
20181726-14:17:26:229400042 $GNGSA,A,1,,,,,,,,,,,,,99.99,99.99,99.99*2E
20181726-14:17:26:323063948 $GPGSV,1,1,04,02,,,32,05,,,31,12,,,37,13,,,39*76
20181726-14:17:26:327984157 $GLGSV,1,1,01,,,,35*62
20181726-14:17:26:332764521 $GNGLL,,,,,034256.00,V,N*52
20181726-14:17:26:569153167 $GNZDA,034256.00,26,01,2018,00,00*70
20181726-14:17:27:117367542 $GNRMC,034257.00,V,,,,,,,260118,,,N*68
20181726-14:17:27:122245823 $GNVTG,,,,,,,,,N*2E
20181726-14:17:27:221114521 $GNGGA,034257.00,,,,,0,00,99.99,,,,,,*7F
20181726-14:17:27:226687437 $GNGSA,A,1,,,,,,,,,,,,,99.99,99.99,99.99*2E
20181726-14:17:27:231985562 $GNGSA,A,1,,,,,,,,,,,,,99.99,99.99,99.99*2E
20181726-14:17:27:325548844 $GPGSV,1,1,04,02,,,32,05,,,31,12,,,31,13,,,37*7E
20181726-14:17:27:330382021 $GLGSV,1,1,01,,,,32*65
20181726-14:17:27:335405510 $GNGLL,,,,,034257.00,V,N*53
20181726-14:17:27:569204521 $GNZDA,034257.00,26,01,2018,00,00*71
20181726-14:17:28:098086968 $GNRMC,034258.00,V,,,,,,,260118,,,N*67
20181726-14:17:28:102891968 $GNVTG,,,,,,,,,N*2E
20181726-14:17:28:202039364 $GNGGA,034258.00,,,,,0,00,99.99,,,,,,*70
20181726-14:17:28:207535510 $GNGSA,A,1,,,,,,,,,,,,,99.99,99.99,99.99*2E
20181726-14:17:28:212590302 $GNGSA,A,1,,,,,,,,,,,,,99.99,99.99,99.99*2E
20181726-14:17:28:306699677 $GPGSV,1,1,04,02,,,33,05,,,33,12,,,36,13,,,29*75
20181726-14:17:28:311714572 $GLGSV,1,1,01,,,,35*62
20181726-14:17:28:316950770 $GNGLL,,,,,034258.00,V,N*5C
20181726-14:17:28:549036395 $GNZDA,034258.00,26,01,2018,00,00*7E
20181726-14:17:29:116458843 $GNRMC,034259.00,V,,,,,,,260118,,,N*66
20181726-14:17:29:121285353 $GNVTG,,,,,,,,,N*2E
20181726-14:17:29:220955093 $GNGGA,034259.00,,,,,0,00,99.99,,,,,,*71
20181726-14:17:29:226667541 $GNGSA,A,1,,,,,,,,,,,,,99.99,99.99,99.99*2E
20181726-14:17:29:231733582 $GNGSA,A,1,,,,,,,,,,,,,99.99,99.99,99.99*2E
20181726-14:17:29:324558635 $GPGSV,1,1,04,02,,,33,05,,,33,12,,,36,13,,,29*75
20181726-14:17:29:329693530 $GLGSV,1,1,01,,,,35*62
20181726-14:17:29:334388530 $GNGLL,,,,,034259.00,V,N*5D
20181726-14:17:29:569111968 $GNZDA,034259.00,26,01,2018,00,00*7F
20181726-14:17:30:107190197 $GNRMC,034300.00,V,,,,,,,260118,,,N*6B
20181726-14:17:30:112053530 $GNVTG,,,,,,,,,N*2E
20181726-14:17:30:213629572 $GNGGA,034300.00,,,,,0,00,99.99,,,,,,*7C
20181726-14:17:30:220052020 $GNGSA,A,1,,,,,,,,,,,,,99.99,99.99,99.99*2E
20181726-14:17:30:225281030 $GNGSA,A,1,,,,,,,,,,,,,99.99,99.99,99.99*2E
20181726-14:17:30:316699676 $GPGSV,2,1,05,02,,,32,05,,,33,12,,,36,13,,,29*76
20181726-14:17:30:321544832 $GPGSV,2,2,05,29,,,34*70
20181726-14:17:30:326275301 $GLGSV,1,1,01,,,,31*66
20181726-14:17:30:578915249 $GNGLL,,,,,034300.00,V,N*50
20181726-14:17:30:583439363 $GNZDA,034300.00,26,01,2018,00,00*72
20181726-14:17:31:103210978 $GNRMC,034301.00,V,,,,,,,260118,,,N*6A
20181726-14:17:31:108222801 $GNVTG,,,,,,,,,N*2E
20181726-14:17:31:206923425 $GNGGA,034301.00,,,,,0,03,3.30,,,,,,*4E
20181726-14:17:31:212545978 $GNGSA,A,1,02,13,05,,,,,,,,,,3.44,3.30,1.00*19
20181726-14:17:31:218711186 $GNGSA,A,1,,,,,,,,,,,,,3.44,3.30,1.00*1C
20181726-14:17:31:311229780 $GPGSV,2,1,05,02,43,117,27,05,78,110,33,12,,,35,13,17,035,31*47
20181726-14:17:31:316352123 $GPGSV,2,2,05,29,,,33*77
20181726-14:17:31:589006811 $GLGSV,1,1,01,,,,35*62
20181726-14:17:31:593722488 $GNGLL,,,,,034301.00,V,N*51
20181726-14:17:31:598447696 $GNZDA,034301.00,26,01,2018,00,00*73
20181726-14:17:31:962981186 $GNRMC,034302.00,V,,,,,,,260118,,,N*69
20181726-14:17:31:968007279 $GNVTG,,,,,,,,,N*2E
20181726-14:17:32:066920300 $GNGGA,034302.00,,,,,0,03,3.30,,,,,,*4D
20181726-14:17:32:071885925 $GNGSA,A,1,02,13,05,,,,,,,,,,3.44,3.30,1.00*19
20181726-14:17:32:076703790 $GNGSA,A,1,,,,,,,,,,,,,3.44,3.30,1.00*1C
20181726-14:17:32:171429467 $GPGSV,2,1,06,02,43,117,31,05,78,110,32,12,,,37,13,17,035,30*41
20181726-14:17:32:176677175 $GPGSV,2,2,06,20,,,30,29,,,37*71
20181726-14:17:32:459088790 $GLGSV,1,1,01,,,,35*62
20181726-14:17:32:463815248 $GNGLL,,,,,034302.00,V,N*52
20181726-14:17:32:468466081 $GNZDA,034302.00,26,01,2018,00,00*70
20181726-14:17:32:966624987 $GNRMC,034303.00,V,,,,,,,260118,,,N*68
20181726-14:17:32:971822800 $GNVTG,,,,,,,,,N*2E
20181726-14:17:33:070043008 $GNGGA,034303.00,,,,,0,03,3.30,,,,,,*4C
20181726-14:17:33:074885925 $GNGSA,A,1,02,13,05,,,,,,,,,,3.44,3.30,1.00*19
20181726-14:17:33:079600769 $GNGSA,A,1,,,,,,,,,,,,,3.44,3.30,1.00*1C
20181726-14:17:33:176660925 $GPGSV,2,1,06,02,43,117,33,05,78,110,27,12,,,36,13,17,035,30*46
20181726-14:17:33:182603841 $GPGSV,2,2,06,20,,,30,29,,,37*71
20181726-14:17:33:468999623 $GLGSV,1,1,02,,,,35,,,,41*64
20181726-14:17:33:473705300 $GNGLL,,,,,034303.00,V,N*53
20181726-14:17:33:478435456 $GNZDA,034303.00,26,01,2018,00,00*71
20181726-14:17:33:968010299 $GNRMC,034304.00,V,,,,,,,260118,,,N*6F
20181726-14:17:33:973244154 $GNVTG,,,,,,,,,N*2E
20181726-14:17:34:071894362 $GNGGA,034304.00,,,,,0,03,3.30,,,,,,*4B
20181726-14:17:34:077097747 $GNGSA,A,1,02,13,05,,,,,,,,,,3.44,3.30,1.00*19
20181726-14:17:34:082071497 $GNGSA,A,1,,,,,,,,,,,,,3.44,3.30,1.00*1C
20181726-14:17:34:176045612 $GPGSV,2,1,06,02,43,117,33,05,78,110,32,12,,,33,13,17,035,30*47
20181726-14:17:34:181513841 $GPGSV,2,2,06,20,,,31,29,,,34*73
20181726-14:17:34:469083424 $GLGSV,1,1,02,,,,35,,,,41*64
20181726-14:17:34:473895091 $GNGLL,,,,,034304.00,V,N*54
20181726-14:17:34:478737278 $GNZDA,034304.00,26,01,2018,00,00*76
20181726-14:17:34:968863684 $GNRMC,034305.00,V,,,,,,,260118,,,N*6E
20181726-14:17:34:973663112 $GNVTG,,,,,,,,,N*2E
20181726-14:17:35:072841445 $GNGGA,034305.00,,,,,0,03,3.30,,,,,,*4A
20181726-14:17:35:077799257 $GNGSA,A,1,02,13,05,,,,,,,,,,3.44,3.30,1.00*19
20181726-14:17:35:082521445 $GNGSA,A,1,,,,,,,,,,,,,3.44,3.30,1.00*1C
20181726-14:17:35:178076549 $GPGSV,2,1,06,02,43,117,32,05,78,110,32,12,,,33,13,17,035,30*46
20181726-14:17:35:183456028 $GPGSV,2,2,06,20,,,31,29,,,37*70
20181726-14:17:35:469185455 $GLGSV,1,1,02,,,,34,,,,41*65
20181726-14:17:35:473927330 $GNGLL,,,,,034305.00,V,N*55
20181726-14:17:35:478758059 $GNZDA,034305.00,26,01,2018,00,00*77
20181726-14:17:35:967114934 $GNRMC,034306.00,V,,,,,,,260118,,,N*6D
20181726-14:17:35:972098840 $GNVTG,,,,,,,,,N*2E
20181726-14:17:36:070819257 $GNGGA,034306.00,,,,,0,03,3.30,,,,,,*49
20181726-14:17:36:075912851 $GNGSA,A,1,02,13,05,,,,,,,,,,3.44,3.30,1.00*19
20181726-14:17:36:080905403 $GNGSA,A,1,,,,,,,,,,,,,3.44,3.30,1.00*1C
20181726-14:17:36:175794726 $GPGSV,2,1,06,02,43,117,32,05,78,110,32,12,,,33,13,17,035,29*4E
20181726-14:17:36:181107590 $GPGSV,2,2,06,20,,,32,29,,,36*72
20181726-14:17:36:468958840 $GLGSV,1,1,02,,,,34,,,,40*64
20181726-14:17:36:473536965 $GNGLL,,,,,034306.00,V,N*56
20181726-14:17:36:478372694 $GNZDA,034306.00,26,01,2018,00,00*74
20181726-14:17:36:968428840 $GNRMC,034307.00,V,,,,,,,260118,,,N*6C
20181726-14:17:36:973294934 $GNVTG,,,,,,,,,N*2E
20181726-14:17:37:072236288 $GNGGA,034307.00,,,,,0,03,3.30,,,,,,*48
20181726-14:17:37:077248892 $GNGSA,A,1,02,13,05,,,,,,,,,,3.44,3.30,1.00*19
20181726-14:17:37:082414517 $GNGSA,A,1,,,,,,,,,,,,,3.44,3.30,1.00*1C
20181726-14:17:37:176852746 $GPGSV,2,1,06,02,43,117,32,05,78,110,32,12,,,34,13,17,035,29*49
20181726-14:17:37:182125923 $GPGSV,2,2,06,20,,,33,29,,,37*72
20181726-14:17:37:469433215 $GLGSV,1,1,02,,,,34,,,,39*6A
20181726-14:17:37:474229256 $GNGLL,,,,,034307.00,V,N*57
20181726-14:17:37:479255559 $GNZDA,034307.00,26,01,2018,00,00*75
20181726-14:17:37:973354100 $GNRMC,034308.00,V,,,,,,,260118,,,N*63
20181726-14:17:37:978397017 $GNVTG,,,,,,,,,N*2E
20181726-14:17:38:077363683 $GNGGA,034308.00,,,,,0,03,3.30,,,,,,*47
20181726-14:17:38:082292069 $GNGSA,A,1,02,13,05,,,,,,,,,,3.44,3.30,1.00*19
20181726-14:17:38:087406756 $GNGSA,A,1,,,,,,,,,,,,,3.44,3.30,1.00*1C
20181726-14:17:38:184216131 $GPGSV,2,1,06,02,43,117,31,05,78,110,33,12,,,35,13,17,035,29*4A
20181726-14:17:38:189947746 $GPGSV,2,2,06,20,,,34,29,,,35*77
20181726-14:17:38:489163110 $GLGSV,1,1,04,,,,34,,,,40,,,,38,,,,30*6A
20181726-14:17:38:493837798 $GNGLL,,,,,034308.00,V,N*58
20181726-14:17:38:498796339 $GNZDA,034308.00,26,01,2018,00,00*7A
20181726-14:17:38:974891652 $GNRMC,034309.00,V,,,,,,,260118,,,N*62
20181726-14:17:38:979885245 $GNVTG,,,,,,,,,N*2E
20181726-14:17:39:078637850 $GNGGA,034309.00,,,,,0,03,3.29,,,,,,*4E
20181726-14:17:39:083590818 $GNGSA,A,1,02,13,05,,,,,,,,,,3.44,3.29,1.00*11
20181726-14:17:39:088251912 $GNGSA,A,1,,,,,,,,,,,,,3.44,3.29,1.00*14
20181726-14:17:39:182595193 $GPGSV,2,1,06,02,43,117,33,05,78,110,33,12,,,34,13,17,035,36*47
20181726-14:17:39:187822954 $GPGSV,2,2,06,20,,,29,29,,,40*79
20181726-14:17:39:286980141 $GLGSV,2,1,06,,,,34,,,,39,,,,33,,,,32*6C
20181726-14:17:39:291997016 $GLGSV,2,2,06,,,,34,,,,39*6E
20181726-14:17:39:296841704 $GNGLL,,,,,034309.00,V,N*59
20181726-14:17:39:518956443 $GNZDA,034309.00,26,01,2018,00,00*7B
20181726-14:17:40:002019464 $GNRMC,034310.00,V,,,,,,,260118,,,N*6A
20181726-14:17:40:007023526 $GNVTG,,,,,,,,,N*2E
20181726-14:17:40:105964828 $GNGGA,034310.00,,,,,0,03,3.29,,,,,,*46
20181726-14:17:40:111039464 $GNGSA,A,1,02,13,05,,,,,,,,,,3.44,3.29,1.00*11
20181726-14:17:40:117880193 $GNGSA,A,1,,,,,,,,,,,,,3.44,3.29,1.00*14
20181726-14:17:40:210052172 $GPGSV,2,1,06,02,43,117,33,05,78,110,27,12,,,34,13,17,035,39*4D
20181726-14:17:40:214938682 $GPGSV,2,2,06,20,,,20,29,,,40*70
20181726-14:17:40:314075297 $GLGSV,2,1,06,70,69,048,37,,,,24,,,,33,,,,35*50
20181726-14:17:40:319332901 $GLGSV,2,2,06,,,,24,,,,33*65
20181726-14:17:40:335952537 $GNGLL,,,,,034310.00,V,N*51
20181726-14:17:40:559123734 $GNZDA,034310.00,26,01,2018,00,00*73
20181726-14:17:40:978459620 $GNRMC,034311.00,V,,,,,,,260118,,,N*6B
20181726-14:17:40:983283890 $GNVTG,,,,,,,,,N*2E
20181726-14:17:41:082321911 $GNGGA,034311.00,,,,,0,03,3.29,,,,,,*47
20181726-14:17:41:087512693 $GNGSA,A,1,02,13,05,,,,,,,,,,3.44,3.29,1.00*11
20181726-14:17:41:092515974 $GNGSA,A,1,,,,,,,,,,,,,3.44,3.29,1.00*14
20181726-14:17:41:187681755 $GPGSV,2,1,06,02,43,117,33,05,78,110,31,12,,,37,13,17,035,38*48
20181726-14:17:41:192492536 $GPGSV,2,2,06,20,,,30,29,,,35*73
20181726-14:17:41:292047432 $GLGSV,2,1,06,70,69,048,35,,,,37,,,,29,,,,37*59
20181726-14:17:41:297179359 $GLGSV,2,2,06,,,,37,,,,29*6C
20181726-14:17:41:302052640 $GNGLL,,,,,034311.00,V,N*50
20181726-14:17:41:539158317 $GNZDA,034311.00,26,01,2018,00,00*72
20181726-14:17:42:012537536 $GNRMC,034311.00,V,,,,,,,260118,,,N*6B
20181726-14:17:42:017697015 $GNVTG,,,,,,,,,N*2E
20181726-14:17:42:117055453 $GNGGA,034311.00,,,,,0,04,9.59,,,,,,*4D
20181726-14:17:42:122220192 $GNGSA,A,1,02,13,05,,,,,,,,,,12.57,9.59,8.13*25
20181726-14:17:42:127580296 $GNGSA,A,1,70,,,,,,,,,,,,12.57,9.59,8.13*27
20181726-14:17:42:220837692 $GPGSV,2,1,06,02,43,117,34,05,78,110,26,12,,,38,13,17,035,33*4D
20181726-14:17:42:225593734 $GPGSV,2,2,06,20,,,31,29,,,38*7F
20181726-14:17:42:324763838 $GLGSV,2,1,06,70,69,048,31,,,,34,,,,34,,,,31*54
20181726-14:17:42:329864307 $GLGSV,2,2,06,,,,34,,,,34*63
20181726-14:17:42:569152848 $GNGLL,,,,,034311.00,V,N*50
20181726-14:17:42:574098265 $GNZDA,034311.00,26,01,2018,00,00*72
20181726-14:17:42:977269358 $GNRMC,034312.00,V,,,,,,,260118,,,N*68
20181726-14:17:42:982027692 $GNVTG,,,,,,,,,N*2E
20181726-14:17:43:080803004 $GNGGA,034312.00,,,,,0,04,9.59,,,,,,*4E
20181726-14:17:43:086135608 $GNGSA,A,1,02,13,05,,,,,,,,,,12.57,9.59,8.13*25
20181726-14:17:43:090915973 $GNGSA,A,1,70,,,,,,,,,,,,12.57,9.59,8.13*27
20181726-14:17:43:185307483 $GPGSV,2,1,07,02,43,117,34,05,78,110,27,12,,,37,13,17,035,31*40
20181726-14:17:43:289092692 $GPGSV,2,2,07,20,,,31,25,,,35,29,,,37*70
20181726-14:17:43:294112900 $GLGSV,2,1,05,70,69,048,30,,,,31,,,,37,,,,42*54
20181726-14:17:43:299173004 $GLGSV,2,2,05,,,,31*62
20181726-14:17:43:539061754 $GNGLL,,,,,034312.00,V,N*53
20181726-14:17:43:543931442 $GNZDA,034312.00,26,01,2018,00,00*71
20181726-14:17:43:995547587 $GNRMC,034313.00,V,,,,,,,260118,,,N*69
20181726-14:17:44:000410087 $GNVTG,,,,,,,,,N*2E
20181726-14:17:44:099349202 $GNGGA,034313.00,,,,,0,04,9.59,,,,,,*4F
20181726-14:17:44:104387379 $GNGSA,A,1,02,13,05,,,,,,,,,,12.58,9.59,8.13*2A
20181726-14:17:44:109770816 $GNGSA,A,1,70,,,,,,,,,,,,12.58,9.59,8.13*28
20181726-14:17:44:203688473 $GPGSV,2,1,08,02,43,117,36,05,78,110,27,06,,,37,12,,,34*7C
20181726-14:17:44:308897170 $GPGSV,2,2,08,13,17,035,29,20,,,31,25,,,35,29,,,38*49
20181726-14:17:44:313971181 $GLGSV,2,1,06,70,69,048,32,,,,20,,,,38,,,,41*59
20181726-14:17:44:319070712 $GLGSV,2,2,06,,,,20,,,,38*6A
20181726-14:17:44:569171389 $GNGLL,,,,,034313.00,V,N*52
20181726-14:17:44:573994045 $GNZDA,034313.00,26,01,2018,00,00*70
20181726-14:17:44:990336441 $GNRMC,034314.00,V,,,,,,,260118,,,N*6E
20181726-14:17:44:995342222 $GNVTG,,,,,,,,,N*2E
20181726-14:17:45:094507014 $GNGGA,034314.00,,,,,0,04,9.59,,,,,,*48
20181726-14:17:45:100209149 $GNGSA,A,1,02,13,05,,,,,,,,,,12.58,9.59,8.14*2D
20181726-14:17:45:105382691 $GNGSA,A,1,70,,,,,,,,,,,,12.58,9.59,8.14*2F
20181726-14:17:45:198118003 $GPGSV,2,1,08,02,43,117,39,05,78,110,26,06,,,38,12,,,37*7E
20181726-14:17:45:302338212 $GPGSV,2,2,08,13,17,035,20,20,,,35,25,,,30,29,,,36*4F
20181726-14:17:45:307568785 $GLGSV,2,1,07,70,69,048,36,,,,33,,,,37,,,,25*53
20181726-14:17:45:312571753 $GLGSV,2,2,07,,,,33,,,,37,,,,25*61
20181726-14:17:45:569017066 $GNGLL,,,,,034314.00,V,N*55
20181726-14:17:45:573870399 $GNZDA,034314.00,26,01,2018,00,00*77
20181726-14:17:45:989308420 $GNRMC,034315.00,V,,,,,,,260118,,,N*6F
20181726-14:17:45:994159982 $GNVTG,,,,,,,,,N*2E
20181726-14:17:46:093679878 $GNGGA,034315.00,,,,,0,04,9.59,,,,,,*49
20181726-14:17:46:100659149 $GNGSA,A,1,02,13,05,,,,,,,,,,12.58,9.59,8.14*2D
20181726-14:17:46:106516076 $GNGSA,A,1,70,,,,,,,,,,,,12.58,9.59,8.14*2F
20181726-14:17:46:197603941 $GPGSV,2,1,08,02,43,117,38,05,78,111,27,06,,,38,12,,,35*7D
20181726-14:17:46:301458107 $GPGSV,2,2,08,13,17,035,22,20,,,35,25,,,34,29,,,36*49
20181726-14:17:46:306352899 $GLGSV,2,1,07,70,69,048,35,,,,28,,,,38,,,,24*54
20181726-14:17:46:311339513 $GLGSV,2,2,07,,,,28,,,,38,,,,24*65
20181726-14:17:46:568912118 $GNGLL,,,,,034315.00,V,N*54
20181726-14:17:46:573483107 $GNZDA,034315.00,26,01,2018,00,00*76
20181726-14:17:46:984757847 $GNRMC,034316.00,V,,,,,,,260118,,,N*6C
20181726-14:17:46:989809930 $GNVTG,,,,,,,,,N*2E
20181726-14:17:47:088985503 $GNGGA,034316.00,,,,,0,04,9.59,,,,,,*4A
20181726-14:17:47:093939721 $GNGSA,A,1,02,13,05,,,,,,,,,,12.58,9.59,8.14*2D
20181726-14:17:47:101683107 $GNGSA,A,1,70,,,,,,,,,,,,12.58,9.59,8.14*2F
20181726-14:17:47:192993524 $GPGSV,2,1,08,02,43,117,34,05,78,111,27,06,,,31,12,,,32*7F
20181726-14:17:47:297234930 $GPGSV,2,2,08,13,17,036,40,20,,,31,25,,,31,29,,,35*4C
20181726-14:17:47:302214096 $GLGSV,2,1,06,70,69,048,35,,,,33,,,,31,,,,35*56
20181726-14:17:47:307153107 $GLGSV,2,2,06,,,,33,,,,31*61
20181726-14:17:47:559149148 $GNGLL,,,,,034316.00,V,N*57
20181726-14:17:47:564124044 $GNZDA,034316.00,26,01,2018,00,00*75
20181726-14:17:47:983022794 $GNRMC,034317.00,V,,,,,,,260118,,,N*6D
20181726-14:17:47:988019304 $GNVTG,,,,,,,,,N*2E
20181726-14:17:48:087983679 $GNGGA,034317.00,,,,,0,04,9.60,,,,,,*41
20181726-14:17:48:093472898 $GNGSA,A,1,02,13,05,,,,,,,,,,12.59,9.60,8.14*26
20181726-14:17:48:099127534 $GNGSA,A,1,70,,,,,,,,,,,,12.59,9.60,8.14*24
20181726-14:17:48:191328523 $GPGSV,2,1,08,02,43,117,33,05,78,111,32,06,,,27,12,,,32*7B
20181726-14:17:48:295563888 $GPGSV,2,2,08,13,17,036,36,20,,,25,25,,,25,29,,,40*4F
20181726-14:17:48:300472117 $GLGSV,2,1,06,70,69,048,33,,,,40,,,,26,,,,32*55
20181726-14:17:48:305216752 $GLGSV,2,2,06,,,,40,,,,26*63
20181726-14:17:48:559017117 $GNGLL,,,,,034317.00,V,N*56
20181726-14:17:48:563703783 $GNZDA,034317.00,26,01,2018,00,00*74
20181726-14:17:48:981944460 $GNRMC,034318.00,V,,,,,,,260118,,,N*62
20181726-14:17:48:986954356 $GNVTG,,,,,,,,,N*2E
20181726-14:17:49:089205867 $GNGGA,034318.00,,,,,0,04,9.60,,,,,,*4E
20181726-14:17:49:095214148 $GNGSA,A,1,02,13,05,,,,,,,,,,12.59,9.60,8.15*27
20181726-14:17:49:100604512 $GNGSA,A,1,70,,,,,,,,,,,,12.59,9.60,8.15*25
20181726-14:17:49:189842064 $GPGSV,2,1,08,02,43,117,33,05,78,111,31,06,,,27,12,,,34*7E
20181726-14:17:49:293780971 $GPGSV,2,2,08,13,17,036,29,20,,,34,25,,,23,29,,,33*43
20181726-14:17:49:298787169 $GLGSV,2,1,06,70,69,048,33,,,,40,,,,38,,,,31*59
20181726-14:17:49:303600033 $GLGSV,2,2,06,,,,40,,,,38*6C
20181726-14:17:49:558970033 $GNGLL,,,,,034318.00,V,N*59
20181726-14:17:49:563655033 $GNZDA,034318.00,26,01,2018,00,00*7B
20181726-14:17:49:994076908 $GNRMC,034319.00,V,,,,,,,260118,,,N*63
20181726-14:17:49:999096335 $GNVTG,,,,,,,,,N*2E
20181726-14:17:50:098848627 $GNGGA,034319.00,,,,,0,05,2.71,,,,,,*45
20181726-14:17:50:104665293 $GNGSA,A,1,02,13,05,12,,,,,,,,,4.09,2.71,3.07*15
20181726-14:17:50:110180397 $GNGSA,A,1,70,,,,,,,,,,,,4.09,2.71,3.07*14
20181726-14:17:50:202106179 $GPGSV,2,1,08,02,43,117,33,05,78,111,33,06,,,28,12,34,334,36*42
20181726-14:17:50:306352168 $GPGSV,2,2,08,13,17,036,36,20,,,29,25,,,22,29,,,40*44
20181726-14:17:50:311388366 $GLGSV,2,1,07,70,69,048,35,71,26,352,,,,,40,,,,27*64
20181726-14:17:50:589332168 $GLGSV,2,2,07,,,,40,,,,27,,,,31*61
20181726-14:17:50:594190866 $GNGLL,,,,,034319.00,V,N*58
20181726-14:17:50:598889147 $GNZDA,034319.00,26,01,2018,00,00*7A
20181726-14:17:51:001789564 $GNRMC,034320.00,A,3651.97541,S,17443.43617,E,0.784,,260118,,,A*7F
20181726-14:17:51:106100137 $GNVTG,,T,,M,0.784,N,1.452,K,A*34
20181726-14:17:51:115042012 $GNGGA,034320.00,3651.97541,S,17443.43617,E,1,05,2.71,29.9,M,28.1,M,,*6C
20181726-14:17:51:209848001 $GNGSA,A,3,02,13,05,12,,,,,,,,,4.09,2.71,3.07*17
20181726-14:17:51:214717532 $GNGSA,A,3,70,,,,,,,,,,,,4.09,2.71,3.07*16
20181726-14:17:51:313941230 $GPGSV,2,1,08,02,43,117,33,05,78,111,33,06,,,33,12,34,334,33*4D
20181726-14:17:51:318888991 $GPGSV,2,2,08,13,17,036,36,20,,,26,25,,,23,29,,,40*4A
20181726-14:17:51:418342689 $GLGSV,2,1,06,70,69,048,34,71,26,352,37,,,,35,,,,27*62
20181726-14:17:51:423222116 $GLGSV,2,2,06,,,,35,,,,27*60
20181726-14:17:51:688936074 $GNGLL,3651.97541,S,17443.43617,E,034320.00,A,A*61
20181726-14:17:51:693621022 $GNZDA,034320.00,26,01,2018,00,00*70
20181726-14:17:51:988066699 $GNRMC,034321.00,A,3651.97491,S,17443.43665,E,0.504,,260118,,,A*7D
20181726-14:17:52:091705293 $GNVTG,,T,,M,0.504,N,0.934,K,A*32
20181726-14:17:52:096894147 $GNGGA,034321.00,3651.97491,S,17443.43665,E,1,05,2.71,31.0,M,28.1,M,,*64
20181726-14:17:52:196105188 $GNGSA,A,3,02,13,05,12,,,,,,,,,4.09,2.71,3.07*17
20181726-14:17:52:201020865 $GNGSA,A,3,70,,,,,,,,,,,,4.09,2.71,3.07*16
20181726-14:17:52:300322324 $GPGSV,2,1,08,02,43,117,32,05,78,111,32,06,,,32,12,34,334,35*4A
20181726-14:17:52:305379563 $GPGSV,2,2,08,13,17,036,37,20,,,24,25,,,21,29,,,40*4B
20181726-14:17:52:404338469 $GLGSV,2,1,06,70,69,048,34,71,26,352,34,,,,27,,,,27*62
20181726-14:17:52:409271022 $GLGSV,2,2,06,,,,27,,,,27*63
20181726-14:17:52:678993678 $GNGLL,3651.97491,S,17443.43665,E,034321.00,A,A*69
20181726-14:17:52:683682584 $GNZDA,034321.00,26,01,2018,00,00*71
20181726-14:17:52:994286855 $GNRMC,034322.00,A,3651.97444,S,17443.43717,E,0.358,,260118,,,A*7D
20181726-14:17:53:098646803 $GNVTG,,T,,M,0.358,N,0.663,K,A*30
20181726-14:17:53:103763730 $GNGGA,034322.00,3651.97444,S,17443.43717,E,1,05,2.71,31.6,M,28.1,M,,*6D
20181726-14:17:53:202130344 $GNGSA,A,3,02,13,05,12,,,,,,,,,4.09,2.71,3.07*17
20181726-14:17:53:207192584 $GNGSA,A,3,70,,,,,,,,,,,,4.09,2.71,3.07*16
20181726-14:17:53:306609980 $GPGSV,2,1,08,02,43,117,32,05,78,111,32,06,,,32,12,34,334,36*49
20181726-14:17:53:311482896 $GPGSV,2,2,08,13,17,036,39,20,,,23,25,,,26,29,,,40*45
20181726-14:17:53:410550709 $GLGSV,2,1,06,70,69,048,35,71,26,352,30,,,,26,,,,28*69
20181726-14:17:53:416084250 $GLGSV,2,2,06,,,,26,,,,28*6D
20181726-14:17:53:689019302 $GNGLL,3651.97444,S,17443.43717,E,034322.00,A,A*66
20181726-14:17:53:693594979 $GNZDA,034322.00,26,01,2018,00,00*72
20181726-14:17:53:981473677 $GNRMC,034323.00,A,3651.97391,S,17443.43784,E,0.924,,260118,,,A*78
20181726-14:17:54:085893885 $GNVTG,,T,,M,0.924,N,1.711,K,A*34
20181726-14:17:54:091223521 $GNGGA,034323.00,3651.97391,S,17443.43784,E,1,05,2.71,32.8,M,28.1,M,,*64
20181726-14:17:54:189790344 $GNGSA,A,3,02,13,05,12,,,,,,,,,4.09,2.71,3.07*17
20181726-14:17:54:194731385 $GNGSA,A,3,70,,,,,,,,,,,,4.09,2.71,3.07*16
20181726-14:17:54:293720188 $GPGSV,2,1,08,02,43,117,31,05,78,111,31,06,,,25,12,34,334,33*4A
20181726-14:17:54:298779771 $GPGSV,2,2,08,13,17,036,40,20,,,21,25,,,32,29,,,39*42
20181726-14:17:54:397939823 $GLGSV,2,1,06,70,69,048,37,71,26,352,34,,,,25,,,,29*6D
20181726-14:17:54:402984979 $GLGSV,2,2,06,,,,25,,,,29*6F
20181726-14:17:54:669002948 $GNGLL,3651.97391,S,17443.43784,E,034323.00,A,A*62
20181726-14:17:54:673694927 $GNZDA,034323.00,26,01,2018,00,00*73
20181726-14:17:54:996640968 $GNRMC,034324.00,A,3651.97332,S,17443.43866,E,0.815,,260118,,,A*76
20181726-14:17:55:101305448 $GNVTG,,T,,M,0.815,N,1.510,K,A*34
20181726-14:17:55:106690812 $GNGGA,034324.00,3651.97332,S,17443.43866,E,1,05,2.71,34.3,M,28.1,M,,*64
20181726-14:17:55:204446958 $GNGSA,A,3,02,13,05,12,,,,,,,,,4.09,2.71,3.07*17
20181726-14:17:55:209460448 $GNGSA,A,3,70,,,,,,,,,,,,4.09,2.71,3.07*16
20181726-14:17:55:308659302 $GPGSV,2,1,08,02,43,117,32,05,78,111,31,06,,,26,12,34,334,33*4A
20181726-14:17:55:313657479 $GPGSV,2,2,08,13,17,036,40,20,,,20,25,,,33,29,,,38*43
20181726-14:17:55:412567583 $GLGSV,2,1,06,70,69,048,36,71,26,352,30,,,,24,,,,31*60
20181726-14:17:55:417782583 $GLGSV,2,2,06,,,,24,,,,31*67
20181726-14:17:55:689070395 $GNGLL,3651.97332,S,17443.43866,E,034324.00,A,A*6F
20181726-14:17:56:386697218 $GNZDA,034324.00,26,01,2018,00,00*74
20181726-14:17:56:391863624 $GNRMC,034325.00,A,3651.97325,S,17443.43897,E,1.262,2.17,260118,,,A*6E
20181726-14:17:56:397470135 $GNVTG,2.17,T,,M,1.262,N,2.337,K,A*25
20181726-14:17:56:402797635 $GNGGA,034325.00,3651.97325,S,17443.43897,E,1,05,2.04,32.7,M,28.1,M,,*6D
20181726-14:17:56:408794405 $GNGSA,A,3,02,13,05,12,,,,,,,,,3.50,2.04,2.84*14
20181726-14:17:56:414052166 $GNGSA,A,3,70,,,,,,,,,,,,3.50,2.04,2.84*15
20181726-14:17:56:420238208 $GPGSV,2,1,08,02,43,117,32,05,78,111,31,06,,,27,12,34,334,32*4A
20181726-14:17:56:425643572 $GPGSV,2,2,08,13,17,036,40,20,,,20,25,,,33,29,,,37*4C
20181726-14:17:56:431087947 $GLGSV,2,1,06,70,69,048,37,71,26,352,34,,,,26,,,,32*64
20181726-14:17:56:436756749 $GLGSV,2,2,06,,,,26,,,,32*66
20181726-14:17:56:678927635 $GNGLL,3651.97325,S,17443.43897,E,034325.00,A,A*66
20181726-14:17:56:683467062 $GNZDA,034325.00,26,01,2018,00,00*75
20181726-14:17:57:007785759 $GNRMC,034326.00,A,3651.97336,S,17443.43902,E,1.305,37.92,260118,,,A*59
20181726-14:17:57:111154405 $GNVTG,37.92,T,,M,1.305,N,2.416,K,A*1A
20181726-14:17:57:116057270 $GNGGA,034326.00,3651.97336,S,17443.43902,E,1,05,2.04,31.4,M,28.1,M,,*61
20181726-14:17:57:215419978 $GNGSA,A,3,02,13,05,12,,,,,,,,,3.50,2.04,2.84*14
20181726-14:17:57:220185447 $GNGSA,A,3,70,,,,,,,,,,,,3.50,2.04,2.84*15
20181726-14:17:57:319787478 $GPGSV,2,1,08,02,43,117,33,05,78,111,31,06,,,29,12,34,334,35*42
20181726-14:17:57:423803520 $GPGSV,2,2,08,13,17,036,40,20,,,25,25,,,32,29,,,36*49
20181726-14:17:57:428853988 $GLGSV,2,1,06,70,69,048,37,71,26,352,38,,,,36,,,,32*69
20181726-14:17:57:433680915 $GLGSV,2,2,06,,,,36,,,,32*67
20181726-14:17:57:709064874 $GNGLL,3651.97336,S,17443.43902,E,034326.00,A,A*6A
20181726-14:17:57:713666280 $GNZDA,034326.00,26,01,2018,00,00*76
20181726-14:17:57:996630447 $GNRMC,034327.00,A,3651.97338,S,17443.43915,E,1.010,45.74,260118,,,A*5A
20181726-14:17:58:099917842 $GNVTG,45.74,T,,M,1.010,N,1.871,K,A*1E
20181726-14:17:58:104706228 $GNGGA,034327.00,3651.97338,S,17443.43915,E,1,05,2.04,30.6,M,28.1,M,,*6B
20181726-14:17:58:204113936 $GNGSA,A,3,02,13,05,12,,,,,,,,,3.50,2.04,2.84*14
20181726-14:17:58:209189874 $GNGSA,A,3,70,,,,,,,,,,,,3.50,2.04,2.84*15
20181726-14:17:58:308263728 $GPGSV,2,1,08,02,43,117,33,05,78,111,30,06,,,29,12,34,334,34*42
20181726-14:17:58:313180551 $GPGSV,2,2,08,13,17,036,40,20,,,25,25,,,34,29,,,38*41
20181726-14:17:58:412226592 $GLGSV,2,1,06,70,69,049,36,71,26,352,32,,,,28,,,,32*6C
20181726-14:17:58:417205446 $GLGSV,2,2,06,,,,28,,,,32*68
20181726-14:17:58:699091696 $GNGLL,3651.97338,S,17443.43915,E,034327.00,A,A*63
20181726-14:17:58:703887738 $GNZDA,034327.00,26,01,2018,00,00*77
20181726-14:17:59:003485967 $GNRMC,034328.00,A,3651.97335,S,17443.43922,E,0.961,43.57,260118,,,A*55
20181726-14:17:59:107682946 $GNVTG,43.57,T,,M,0.961,N,1.779,K,A*10
20181726-14:17:59:112695081 $GNGGA,034328.00,3651.97335,S,17443.43922,E,1,05,2.04,29.8,M,28.1,M,,*6B
20181726-14:17:59:211402217 $GNGSA,A,3,02,13,05,12,,,,,,,,,3.50,2.04,2.84*14
20181726-14:17:59:216257373 $GNGSA,A,3,70,,,,,,,,,,,,3.50,2.04,2.84*15
20181726-14:17:59:315587634 $GPGSV,2,1,08,02,43,117,32,05,78,111,34,06,,,33,12,34,334,34*4C
20181726-14:17:59:421904769 $GPGSV,2,2,08,13,17,036,38,20,,,24,25,,,20,29,,,40*45
20181726-14:17:59:427030811 $GLGSV,2,1,07,70,69,049,35,71,26,352,36,,,,27,,,,27*61
20181726-14:17:59:431584196 $GLGSV,2,2,07,,,,27,,,,27,,,,27*67
20181726-14:17:59:709192946 $GNGLL,3651.97335,S,17443.43922,E,034328.00,A,A*65
20181726-14:17:59:713949508 $GNZDA,034328.00,26,01,2018,00,00*78
20181726-14:17:59:992336487 $GNRMC,034329.00,A,3651.97314,S,17443.43925,E,1.192,24.85,260118,,,A*5B
20181826-14:18:00:096384560 $GNVTG,24.85,T,,M,1.192,N,2.207,K,A*14
20181826-14:18:00:101128258 $GNGGA,034329.00,3651.97314,S,17443.43925,E,1,05,2.04,29.5,M,28.1,M,,*63
20181826-14:18:00:200544248 $GNGSA,A,3,02,13,05,12,,,,,,,,,3.50,2.04,2.84*14
20181826-14:18:00:205562633 $GNGSA,A,3,70,,,,,,,,,,,,3.50,2.04,2.84*15
20181826-14:18:00:304539560 $GPGSV,2,1,08,02,43,117,32,05,78,111,33,06,,,28,12,34,334,33*46
20181826-14:18:00:408574144 $GPGSV,2,2,08,13,17,036,36,20,,,22,25,,,22,29,,,40*4F
20181826-14:18:00:413536019 $GLGSV,2,1,07,70,69,049,34,71,26,352,38,,,,38,,,,25*62
20181826-14:18:00:418271123 $GLGSV,2,2,07,,,,38,,,,25,,,,32*6F
20181826-14:18:00:699096800 $GNGLL,3651.97314,S,17443.43925,E,034329.00,A,A*60
20181826-14:18:01:028254508 $GNZDA,034329.00,26,01,2018,00,00*79
20181826-14:18:01:034228206 $GNRMC,034330.00,A,3651.97320,S,17443.43872,E,1.346,7.96,260118,,,A*6F
20181826-14:18:01:126906070 $GNVTG,7.96,T,,M,1.346,N,2.493,K,A*27
20181826-14:18:01:131892737 $GNGGA,034330.00,3651.97320,S,17443.43872,E,1,05,2.04,27.4,M,28.1,M,,*60
20181826-14:18:01:230593362 $GNGSA,A,3,02,13,05,12,,,,,,,,,3.50,2.04,2.84*14
20181826-14:18:01:235543831 $GNGSA,A,3,70,,,,,,,,,,,,3.50,2.04,2.84*15
20181826-14:18:01:334807268 $GPGSV,2,1,08,02,43,117,32,05,78,111,33,06,,,29,12,34,334,38*4C
20181826-14:18:01:339771383 $GPGSV,2,2,08,13,17,036,35,20,,,25,25,,,22,29,,,39*45
20181826-14:18:01:438790810 $GLGSV,2,1,07,70,69,049,35,71,26,352,38,,,,40,,,,28*61
20181826-14:18:01:443571539 $GLGSV,2,2,07,,,,40,,,,28,,,,28*66
20181826-14:18:01:729098206 $GNGLL,3651.97320,S,17443.43872,E,034330.00,A,A*6C
20181826-14:18:01:733936330 $GNZDA,034330.00,26,01,2018,00,00*71
20181826-14:18:01:999167372 $GNRMC,034331.00,A,3651.97342,S,17443.43809,E,1.220,355.72,260118,,,A*69
20181826-14:18:02:103061799 $GNVTG,355.72,T,,M,1.220,N,2.260,K,A*22
20181826-14:18:02:108213466 $GNGGA,034331.00,3651.97342,S,17443.43809,E,1,07,1.20,25.5,M,28.1,M,,*6D
20181826-14:18:02:207434455 $GNGSA,A,3,02,13,05,12,29,06,,,,,,,2.02,1.20,1.63*10
20181826-14:18:02:212300757 $GNGSA,A,3,70,,,,,,,,,,,,2.02,1.20,1.63*1C
20181826-14:18:02:311356487 $GPGSV,2,1,08,02,43,117,32,05,78,111,33,06,11,104,29,12,34,334,36*77
20181826-14:18:02:415408257 $GPGSV,2,2,08,13,17,036,31,20,,,32,25,,,20,29,47,222,34*79
20181826-14:18:02:420530445 $GLGSV,2,1,07,70,69,049,35,71,26,352,40,76,,,40,,,,37*61
20181826-14:18:02:520016539 $GLGSV,2,2,07,,,,37,,,,28,,,,34*6B
20181826-14:18:02:525748518 $GNGLL,3651.97342,S,17443.43809,E,034331.00,A,A*65
20181826-14:18:02:729077841 $GNZDA,034331.00,26,01,2018,00,00*70
20181826-14:18:03:026912893 $GNRMC,034332.00,A,3651.97394,S,17443.43728,E,1.134,348.74,260118,,,A*61
20181826-14:18:03:130307736 $GNVTG,348.74,T,,M,1.134,N,2.099,K,A*2A
20181826-14:18:03:135416226 $GNGGA,034332.00,3651.97394,S,17443.43728,E,1,07,1.20,22.5,M,28.1,M,,*6E
20181826-14:18:03:234457997 $GNGSA,A,3,02,13,05,12,29,06,,,,,,,2.02,1.20,1.63*10
20181826-14:18:03:239363153 $GNGSA,A,3,70,,,,,,,,,,,,2.02,1.20,1.63*1C
20181826-14:18:03:338715809 $GPGSV,2,1,08,02,43,117,33,05,78,111,33,06,11,104,29,12,34,334,36*76
20181826-14:18:03:442714819 $GPGSV,2,2,08,13,17,036,31,20,,,30,25,,,17,29,47,222,37*7C
20181826-14:18:03:447889559 $GLGSV,2,1,07,70,69,049,35,71,26,352,40,76,,,40,,,,34*62
20181826-14:18:03:547599976 $GLGSV,2,2,07,,,,34,,,,29,,,,34*69
20181826-14:18:03:553473882 $GNGLL,3651.97394,S,17443.43728,E,034332.00,A,A*61
20181826-14:18:03:748906226 $GNZDA,034332.00,26,01,2018,00,00*73
20181826-14:18:03:997408465 $GNRMC,034333.00,A,3651.97427,S,17443.43664,E,1.192,350.08,260118,,,A*68
20181826-14:18:04:101018725 $GNVTG,350.08,T,,M,1.192,N,2.208,K,A*2E
20181826-14:18:04:105981746 $GNGGA,034333.00,3651.97427,S,17443.43664,E,1,07,1.20,20.1,M,28.1,M,,*6F
20181826-14:18:04:205337527 $GNGSA,A,3,02,13,05,12,29,06,,,,,,,2.02,1.20,1.63*10
20181826-14:18:04:210387736 $GNGSA,A,3,70,,,,,,,,,,,,2.02,1.20,1.63*1C
20181826-14:18:04:309329715 $GPGSV,2,1,08,02,43,117,33,05,78,111,32,06,11,104,29,12,34,334,34*75
20181826-14:18:04:413394975 $GPGSV,2,2,08,13,17,036,35,20,,,29,25,,,21,29,47,222,40*75
20181826-14:18:04:418552944 $GLGSV,2,1,07,70,69,049,34,71,26,352,38,76,,,39,,,,29*6E
20181826-14:18:04:517351642 $GLGSV,2,2,07,,,,29,,,,31,,,,34*6C
20181826-14:18:04:523034975 $GNGLL,3651.97427,S,17443.43664,E,034333.00,A,A*66
20181826-14:18:04:718992527 $GNZDA,034333.00,26,01,2018,00,00*72
20181826-14:18:05:020844767 $GNRMC,034334.00,A,3651.97404,S,17443.43653,E,1.314,359.02,260118,,,A*65
20181826-14:18:05:124782267 $GNVTG,359.02,T,,M,1.314,N,2.434,K,A*28
20181826-14:18:05:129850860 $GNGGA,034334.00,3651.97404,S,17443.43653,E,1,07,1.20,19.6,M,28.1,M,,*60
20181826-14:18:05:228812267 $GNGSA,A,3,02,13,05,12,29,06,,,,,,,2.02,1.20,1.63*10
20181826-14:18:05:233759715 $GNGSA,A,3,70,,,,,,,,,,,,2.02,1.20,1.63*1C
20181826-14:18:05:333008100 $GPGSV,2,1,08,02,43,117,32,05,78,111,33,06,11,104,34,12,34,334,33*7E
20181826-14:18:05:437350287 $GPGSV,2,2,08,13,17,036,36,20,,,25,25,,,22,29,47,222,40*79
20181826-14:18:05:442279715 $GLGSV,2,1,07,70,69,049,34,71,26,352,37,76,,,34,,,,18*6E
20181826-14:18:05:541313308 $GLGSV,2,2,07,,,,18,,,,30,,,,38*63
20181826-14:18:05:546989610 $GNGLL,3651.97404,S,17443.43653,E,034334.00,A,A*64
20181826-14:18:05:748926433 $GNZDA,034334.00,26,01,2018,00,00*75
20181826-14:18:05:994060548 $GNRMC,034335.00,A,3651.97379,S,17443.43675,E,1.283,12.03,260118,,,A*5F
20181826-14:18:06:098296068 $GNVTG,12.03,T,,M,1.283,N,2.376,K,A*1B
20181826-14:18:06:103304506 $GNGGA,034335.00,3651.97379,S,17443.43675,E,1,07,1.20,19.3,M,28.1,M,,*6D
20181826-14:18:06:202259714 $GNGSA,A,3,02,13,05,12,29,06,,,,,,,2.02,1.20,1.63*10
20181826-14:18:06:206971850 $GNGSA,A,3,70,,,,,,,,,,,,2.02,1.20,1.63*1C
20181826-14:18:06:306470495 $GPGSV,2,1,08,02,43,117,32,05,78,111,33,06,11,104,32,12,34,334,34*7F
20181826-14:18:06:410308308 $GPGSV,2,2,08,13,17,036,37,20,,,23,25,,,21,29,47,222,40*7D
20181826-14:18:06:415324922 $GLGSV,2,1,07,70,69,049,36,71,26,352,33,76,,,29,,,,30*6E
20181826-14:18:06:718964610 $GLGSV,2,2,07,,,,30,,,,31,,,,38*68
20181826-14:18:06:723946849 $GNGLL,3651.97379,S,17443.43675,E,034335.00,A,A*6C
20181826-14:18:06:728883516 $GNZDA,034335.00,26,01,2018,00,00*74
20181826-14:18:07:030330547 $GNRMC,034336.00,A,3651.97351,S,17443.43711,E,1.266,29.67,260118,,,A*54
20181826-14:18:07:134180808 $GNVTG,29.67,T,,M,1.266,N,2.345,K,A*1A
20181826-14:18:07:139216901 $GNGGA,034336.00,3651.97351,S,17443.43711,E,1,07,1.20,19.5,M,28.1,M,,*61
20181826-14:18:07:238441693 $GNGSA,A,3,02,13,05,12,29,06,,,,,,,2.02,1.20,1.63*10
20181826-14:18:07:243237995 $GNGSA,A,3,70,,,,,,,,,,,,2.02,1.20,1.63*1C
20181826-14:18:07:342336589 $GPGSV,2,1,08,02,43,117,32,05,78,111,32,06,11,104,32,12,34,334,35*7F
20181826-14:18:07:446226224 $GPGSV,2,2,08,13,17,036,39,20,,,20,25,,,31,29,47,222,40*71
20181826-14:18:07:450931589 $GLGSV,2,1,07,70,69,049,36,71,26,352,32,76,,,21,,,,30*67
20181826-14:18:07:758986172 $GLGSV,2,2,07,,,,30,,,,35,,,,28*6D
20181826-14:18:07:763661537 $GNGLL,3651.97351,S,17443.43711,E,034336.00,A,A*66
20181826-14:18:07:768336380 $GNZDA,034336.00,26,01,2018,00,00*77
20181826-14:18:07:990269818 $GNRMC,034337.00,A,3651.97328,S,17443.43743,E,1.041,37.01,260118,,,A*54
20181826-14:18:08:095025182 $GNVTG,37.01,T,,M,1.041,N,1.928,K,A*10
20181826-14:18:08:100070443 $GNGGA,034337.00,3651.97328,S,17443.43743,E,1,07,1.20,19.5,M,28.1,M,,*69
20181826-14:18:08:199198932 $GNGSA,A,3,02,13,05,12,29,06,,,,,,,2.02,1.20,1.63*10
20181826-14:18:08:204104401 $GNGSA,A,3,70,,,,,,,,,,,,2.02,1.20,1.63*1C
20181826-14:18:08:303127630 $GPGSV,2,1,08,02,43,117,32,05,78,111,28,06,11,104,28,12,34,334,30*7A
20181826-14:18:08:407181068 $GPGSV,2,2,08,13,17,036,40,20,,,23,25,,,32,29,47,222,37*7F
20181826-14:18:08:411863099 $GLGSV,2,1,07,70,69,049,36,71,26,352,37,76,,,30,,,,32*60
20181826-14:18:08:718897526 $GLGSV,2,2,07,,,,32,,,,37,,,,36*62
20181826-14:18:08:723416744 $GNGLL,3651.97328,S,17443.43743,E,034337.00,A,A*6E
20181826-14:18:08:728336901 $GNZDA,034337.00,26,01,2018,00,00*76
20181826-14:18:09:002982994 $GNRMC,034338.00,A,3651.97307,S,17443.43781,E,1.005,42.79,260118,,,A*55
20181826-14:18:09:107099609 $GNVTG,42.79,T,,M,1.005,N,1.862,K,A*12
20181826-14:18:09:112150807 $GNGGA,034338.00,3651.97307,S,17443.43781,E,1,07,1.20,19.7,M,28.1,M,,*67
20181826-14:18:09:211123255 $GNGSA,A,3,02,13,05,12,29,06,,,,,,,2.02,1.20,1.63*10
20181826-14:18:09:216157630 $GNGSA,A,3,70,,,,,,,,,,,,2.02,1.20,1.63*1C
20181826-14:18:09:315356119 $GPGSV,2,1,08,02,43,117,32,05,78,111,30,06,11,104,32,12,34,334,37*7F
20181826-14:18:09:419310442 $GPGSV,2,2,08,13,17,036,40,20,,,22,25,,,31,29,47,222,41*7C
20181826-14:18:09:424336692 $GLGSV,2,1,07,70,69,049,36,71,26,352,29,76,,,23,,,,31*6E
20181826-14:18:09:728852109 $GLGSV,2,2,07,,,,31,,,,34,,,,26*63
20181826-14:18:09:733513202 $GNGLL,3651.97307,S,17443.43781,E,034338.00,A,A*62
20181826-14:18:09:738237734 $GNZDA,034338.00,26,01,2018,00,00*79
20181826-14:18:10:016167161 $GNRMC,034339.00,A,3651.97280,S,17443.43811,E,1.174,39.49,260118,,,A*54
20181826-14:18:10:118911223 $GNVTG,39.49,T,,M,1.174,N,2.174,K,A*17
20181826-14:18:10:123599452 $GNGGA,034339.00,3651.97280,S,17443.43811,E,1,09,1.09,19.9,M,28.1,M,,*65
20181826-14:18:10:223280494 $GNGSA,A,3,02,13,05,12,29,06,,,,,,,1.92,1.09,1.59*18
20181826-14:18:10:228292942 $GNGSA,A,3,70,71,84,,,,,,,,,,1.92,1.09,1.59*1E
20181826-14:18:10:327331431 $GPGSV,2,1,08,02,43,117,32,05,78,111,32,06,11,104,32,12,34,334,34*7E
20181826-14:18:10:431288983 $GPGSV,2,2,08,13,17,036,38,20,,,22,25,,,23,29,47,222,40*71
20181826-14:18:10:436457317 $GLGSV,2,1,07,69,,,30,70,69,049,34,71,26,352,33,75,,,39*61
20181826-14:18:10:535853410 $GLGSV,2,2,07,76,,,26,84,34,089,29,,,,37*52
20181826-14:18:10:541523098 $GNGLL,3651.97280,S,17443.43811,E,034339.00,A,A*6B
20181826-14:18:10:759028306 $GNZDA,034339.00,26,01,2018,00,00*78
20181826-14:18:11:036496848 $GNRMC,034340.00,A,3651.97242,S,17443.43833,E,1.302,30.67,260118,,,A*52
20181826-14:18:11:140034452 $GNVTG,30.67,T,,M,1.302,N,2.411,K,A*17
20181826-14:18:11:144960598 $GNGGA,034340.00,3651.97242,S,17443.43833,E,1,09,1.09,20.2,M,28.1,M,,*64
20181826-14:18:11:244096379 $GNGSA,A,3,02,13,05,12,29,06,,,,,,,1.92,1.09,1.59*18
20181826-14:18:11:248924191 $GNGSA,A,3,70,71,84,,,,,,,,,,1.92,1.09,1.59*1E
20181826-14:18:11:348403671 $GPGSV,2,1,08,02,43,117,32,05,78,111,32,06,11,104,32,12,34,334,34*7E
20181826-14:18:11:452421796 $GPGSV,2,2,08,13,17,036,37,20,,,20,25,,,21,29,47,222,40*7E
20181826-14:18:11:457493358 $GLGSV,2,1,07,69,,,29,70,69,049,34,71,26,352,39,75,,,39*63
20181826-14:18:11:556445702 $GLGSV,2,2,07,76,,,32,84,34,089,27,,,,39*57
20181826-14:18:11:561318670 $GNGLL,3651.97242,S,17443.43833,E,034340.00,A,A*6B
20181826-14:18:11:778881900 $GNZDA,034340.00,26,01,2018,00,00*76
20181826-14:18:11:998475233 $GNRMC,034341.00,A,3651.97210,S,17443.43857,E,1.335,26.21,260118,,,A*57
20181826-14:18:12:102340962 $GNVTG,26.21,T,,M,1.335,N,2.473,K,A*12
20181826-14:18:12:107238254 $GNGGA,034341.00,3651.97210,S,17443.43857,E,1,09,1.09,20.2,M,28.1,M,,*60
20181826-14:18:12:206593983 $GNGSA,A,3,02,13,05,12,29,06,,,,,,,1.92,1.09,1.59*18
20181826-14:18:12:211581899 $GNGSA,A,3,70,71,84,,,,,,,,,,1.92,1.09,1.59*1E
20181826-14:18:12:310836535 $GPGSV,2,1,08,02,43,117,31,05,78,111,34,06,11,104,33,12,34,334,34*7A
20181826-14:18:12:414714087 $GPGSV,2,2,08,13,17,036,36,20,,,20,25,,,19,29,47,222,40*74
20181826-14:18:12:419638983 $GLGSV,2,1,07,69,,,17,70,69,049,34,71,26,352,37,75,,,38*61
20181826-14:18:12:519279868 $GLGSV,2,2,07,76,,,32,84,34,089,28,,,,39*58
20181826-14:18:12:524630024 $GNGLL,3651.97210,S,17443.43857,E,034341.00,A,A*6F
20181826-14:18:12:739047524 $GNZDA,034341.00,26,01,2018,00,00*77
20181826-14:18:13:041593357 $GNRMC,034342.00,A,3651.97181,S,17443.43884,E,1.279,27.85,260118,,,A*57
20181826-14:18:13:145843097 $GNVTG,27.85,T,,M,1.279,N,2.369,K,A*18
20181826-14:18:13:150625441 $GNGGA,034342.00,3651.97181,S,17443.43884,E,1,09,1.09,20.2,M,28.1,M,,*66
20181826-14:18:13:249992264 $GNGSA,A,3,02,13,05,12,29,06,,,,,,,1.92,1.09,1.59*18
20181826-14:18:13:254981639 $GNGSA,A,3,70,71,84,,,,,,,,,,1.92,1.09,1.59*1E
20181826-14:18:13:354076586 $GPGSV,2,1,08,02,43,117,32,05,78,111,33,06,11,104,32,12,34,334,34*7F
20181826-14:18:13:458095857 $GPGSV,2,2,08,13,17,036,39,20,,,20,25,,,20,29,47,222,41*70
20181826-14:18:13:463704399 $GLGSV,2,1,07,69,,,29,70,69,049,34,71,26,352,33,75,,,40*67
20181826-14:18:13:562248045 $GLGSV,2,2,07,76,,,31,84,34,089,29,,,,37*54
20181826-14:18:13:567370232 $GNGLL,3651.97181,S,17443.43884,E,034342.00,A,A*69
20181826-14:18:13:778950545 $GNZDA,034342.00,26,01,2018,00,00*74
20181826-14:18:13:995412732 $GNRMC,034343.00,A,3651.97160,S,17443.43915,E,1.157,31.53,260118,,,A*53
20181826-14:18:14:099259138 $GNVTG,31.53,T,,M,1.157,N,2.143,K,A*11
20181826-14:18:14:104236899 $GNGGA,034343.00,3651.97160,S,17443.43915,E,1,09,1.09,20.3,M,28.1,M,,*60
20181826-14:18:14:203544086 $GNGSA,A,3,02,13,05,12,29,06,,,,,,,1.92,1.09,1.59*18
20181826-14:18:14:208666378 $GNGSA,A,3,70,71,84,,,,,,,,,,1.92,1.09,1.59*1E
20181826-14:18:14:307755336 $GPGSV,2,1,08,02,43,117,32,05,78,111,32,06,11,104,33,12,34,334,37*7C
20181826-14:18:14:411527836 $GPGSV,2,2,08,13,17,036,39,20,,,19,25,,,29,29,47,222,40*72
20181826-14:18:14:416447576 $GLGSV,2,1,07,69,,,29,70,69,049,35,71,26,352,30,75,,,38*6A
20181826-14:18:14:516455909 $GLGSV,2,2,07,76,,,29,84,34,089,34,,,,33*55
20181826-14:18:14:521869138 $GNGLL,3651.97160,S,17443.43915,E,034343.00,A,A*6E
20181826-14:18:14:738887315 $GNZDA,034343.00,26,01,2018,00,00*75
20181826-14:18:15:029049242 $GNRMC,034344.00,A,3651.97131,S,17443.43943,E,1.352,32.33,260118,,,A*51
20181826-14:18:15:132857784 $GNVTG,32.33,T,,M,1.352,N,2.503,K,A*13
20181826-14:18:15:137759190 $GNGGA,034344.00,3651.97131,S,17443.43943,E,1,09,1.09,20.3,M,28.1,M,,*60
20181826-14:18:15:237217367 $GNGSA,A,3,02,13,05,12,29,06,,,,,,,1.92,1.09,1.59*18
20181826-14:18:15:241941430 $GNGSA,A,3,70,71,84,,,,,,,,,,1.92,1.09,1.59*1E
20181826-14:18:15:341181273 $GPGSV,2,1,08,02,43,117,32,05,78,111,32,06,11,104,32,12,34,334,35*7F
20181826-14:18:15:445346794 $GPGSV,2,2,08,13,17,036,38,20,,,21,25,,,27,29,47,222,41*77
20181826-14:18:15:450327992 $GLGSV,2,1,07,69,,,29,70,69,049,35,71,26,352,34,75,,,38*6E
20181826-14:18:15:549410700 $GLGSV,2,2,07,76,,,28,84,34,089,31,,,,37*55
20181826-14:18:15:554326481 $GNGLL,3651.97131,S,17443.43943,E,034344.00,A,A*6E
20181826-14:18:15:768914086 $GNZDA,034344.00,26,01,2018,00,00*72
20181826-14:18:16:003584450 $GNRMC,034345.00,A,3651.97098,S,17443.43975,E,1.486,31.97,260118,,,A*54
20181826-14:18:16:106887783 $GNVTG,31.97,T,,M,1.486,N,2.752,K,A*16
20181826-14:18:16:111650335 $GNGGA,034345.00,3651.97098,S,17443.43975,E,1,09,1.09,20.3,M,28.1,M,,*66
20181826-14:18:16:210879606 $GNGSA,A,3,02,13,05,12,29,06,,,,,,,1.92,1.09,1.59*18
20181826-14:18:16:215848304 $GNGSA,A,3,70,71,84,,,,,,,,,,1.92,1.09,1.59*1E
20181826-14:18:16:314964033 $GPGSV,2,1,08,02,43,117,32,05,78,111,33,06,11,104,32,12,34,334,35*7E
20181826-14:18:16:418990492 $GPGSV,2,2,08,13,17,036,38,20,,,21,25,,,26,29,47,222,40*77
20181826-14:18:16:423704450 $GLGSV,2,1,07,69,,,30,70,69,049,34,71,26,352,34,75,10,290,38*5D
20181826-14:18:16:523196429 $GLGSV,2,2,07,76,,,28,84,34,089,29,,,,37*5C
20181826-14:18:16:528015648 $GNGLL,3651.97098,S,17443.43975,E,034345.00,A,A*68
20181826-14:18:16:748908929 $GNZDA,034345.00,26,01,2018,00,00*73
20181826-14:18:17:031830179 $GNRMC,034346.00,A,3651.97063,S,17443.44001,E,1.441,29.25,260118,,,A*55
20181826-14:18:17:135860908 $GNVTG,29.25,T,,M,1.441,N,2.668,K,A*15
20181826-14:18:17:140629970 $GNGGA,034346.00,3651.97063,S,17443.44001,E,1,09,1.09,20.3,M,28.1,M,,*6C
20181826-14:18:17:240118877 $GNGSA,A,3,02,13,05,12,29,06,,,,,,,1.92,1.09,1.59*18
20181826-14:18:17:245164710 $GNGSA,A,3,70,71,84,,,,,,,,,,1.92,1.09,1.59*1E
20181826-14:18:17:344078616 $GPGSV,2,1,08,02,43,117,31,05,78,111,33,06,11,104,32,12,34,334,34*7C
20181826-14:18:17:448444762 $GPGSV,2,2,08,13,17,036,37,20,,,21,25,,,24,29,47,222,40*7A
20181826-14:18:17:453655335 $GLGSV,2,1,07,69,,,29,70,69,049,34,71,26,352,35,75,10,290,38*54
20181826-14:18:17:552340960 $GLGSV,2,2,07,76,,,28,84,34,089,28,,,,37*5D
20181826-14:18:17:557473824 $GNGLL,3651.97063,S,17443.44001,E,034346.00,A,A*62
20181826-14:18:17:778931012 $GNZDA,034346.00,26,01,2018,00,00*70
20181826-14:18:18:004049449 $GNRMC,034347.00,A,3651.97025,S,17443.44022,E,1.490,25.96,260118,,,A*5F
20181826-14:18:18:107635647 $GNVTG,25.96,T,,M,1.490,N,2.760,K,A*14
20181826-14:18:18:112546064 $GNGGA,034347.00,3651.97025,S,17443.44022,E,1,09,1.09,20.2,M,28.1,M,,*6F
20181826-14:18:18:212781689 $GNGSA,A,3,02,13,05,12,29,06,,,,,,,1.92,1.09,1.59*18
20181826-14:18:18:217608980 $GNGSA,A,3,70,71,84,,,,,,,,,,1.92,1.09,1.59*1E
20181826-14:18:18:317006272 $GPGSV,2,1,08,02,43,117,31,05,78,111,33,06,11,104,32,12,34,334,32*7A
20181826-14:18:18:421311272 $GPGSV,2,2,08,13,17,036,37,20,,,21,25,,,21,29,47,222,40*7F
20181826-14:18:18:426507470 $GLGSV,2,1,07,69,,,29,70,69,049,34,71,26,352,35,75,10,290,39*55
20181826-14:18:18:525330699 $GLGSV,2,2,07,76,,,28,84,34,089,28,,,,38*52
20181826-14:18:18:530281272 $GNGLL,3651.97025,S,17443.44022,E,034347.00,A,A*60
20181826-14:18:18:748864709 $GNZDA,034347.00,26,01,2018,00,00*71
20181826-14:18:19:048919293 $GNRMC,034348.00,A,3651.96988,S,17443.44051,E,1.481,28.81,260118,,,A*50
20181826-14:18:19:152748876 $GNVTG,28.81,T,,M,1.481,N,2.743,K,A*1E
20181826-14:18:19:157610126 $GNGGA,034348.00,3651.96988,S,17443.44051,E,1,09,1.09,20.2,M,28.1,M,,*6B
20181826-14:18:19:257060230 $GNGSA,A,3,02,13,05,12,29,06,,,,,,,1.92,1.09,1.59*18
20181826-14:18:19:262055438 $GNGSA,A,3,70,71,84,,,,,,,,,,1.92,1.09,1.59*1E
20181826-14:18:19:361133772 $GPGSV,2,1,08,02,43,117,31,05,78,111,33,06,11,104,32,12,34,334,36*7E
20181826-14:18:19:465413824 $GPGSV,2,2,08,13,17,036,39,20,,,21,25,,,23,29,47,222,40*73
20181826-14:18:19:470485907 $GLGSV,2,1,07,69,,,29,70,69,049,34,71,26,352,31,75,10,290,39*51
20181826-14:18:19:569451324 $GLGSV,2,2,07,76,,,28,84,34,089,29,,,,35*5E
20181826-14:18:19:574225595 $GNGLL,3651.96988,S,17443.44051,E,034348.00,A,A*64
20181826-14:18:19:798981063 $GNZDA,034348.00,26,01,2018,00,00*7E
20181826-14:18:20:007392469 $GNRMC,034349.00,A,3651.96956,S,17443.44084,E,1.394,35.52,260118,,,A*5B
20181826-14:18:20:111006323 $GNVTG,35.52,T,,M,1.394,N,2.582,K,A*10
20181826-14:18:20:115781480 $GNGGA,034349.00,3651.96956,S,17443.44084,E,1,09,1.09,20.0,M,28.1,M,,*63
20181826-14:18:20:215374136 $GNGSA,A,3,02,13,05,12,29,06,,,,,,,1.92,1.09,1.59*18
20181826-14:18:20:220135698 $GNGSA,A,3,70,71,84,,,,,,,,,,1.92,1.09,1.59*1E
20181826-14:18:20:319425594 $GPGSV,2,1,08,02,43,117,31,05,78,111,32,06,11,104,32,12,34,334,36*7F
20181826-14:18:20:423448250 $GPGSV,2,2,08,13,17,036,40,20,,,19,25,,,32,29,47,222,40*76
20181826-14:18:20:428459240 $GLGSV,2,1,07,69,,,29,70,69,049,36,71,26,352,34,75,10,290,34*5B
20181826-14:18:20:527622730 $GLGSV,2,2,07,76,14,244,26,84,34,089,36,,,,30*6C
20181826-14:18:20:532442469 $GNGLL,3651.96956,S,17443.44084,E,034349.00,A,A*6E
20181826-14:18:20:758958667 $GNZDA,034349.00,26,01,2018,00,00*7F
20181826-14:18:21:050374865 $GNRMC,034350.00,A,3651.96934,S,17443.44117,E,1.299,46.16,260118,,,A*54
20181826-14:18:21:154186219 $GNVTG,46.16,T,,M,1.299,N,2.406,K,A*15
20181826-14:18:21:159087104 $GNGGA,034350.00,3651.96934,S,17443.44117,E,1,09,1.09,19.6,M,28.1,M,,*68
20181826-14:18:21:258497156 $GNGSA,A,3,02,13,05,12,29,06,,,,,,,1.92,1.09,1.59*18
20181826-14:18:21:263354969 $GNGSA,A,3,70,71,84,,,,,,,,,,1.92,1.09,1.59*1E
20181826-14:18:21:362493250 $GPGSV,2,1,08,02,43,117,32,05,78,111,31,06,11,104,26,12,34,334,33*7F
20181826-14:18:21:467013823 $GPGSV,2,2,08,13,17,036,41,20,,,23,25,,,33,29,47,222,36*7E
20181826-14:18:21:472227990 $GLGSV,2,1,07,69,,,34,70,69,049,37,71,26,352,36,75,10,290,21*50
20181826-14:18:21:570826167 $GLGSV,2,2,07,76,14,244,32,84,34,089,36,,,,37*6E
20181826-14:18:21:575541896 $GNGLL,3651.96934,S,17443.44117,E,034350.00,A,A*69
20181826-14:18:21:798912573 $GNZDA,034350.00,26,01,2018,00,00*77
20181826-14:18:22:003967260 $GNRMC,034351.00,A,3651.96918,S,17443.44149,E,1.167,55.63,260118,,,A*52
20181826-14:18:22:108060646 $GNVTG,55.63,T,,M,1.167,N,2.162,K,A*10
20181826-14:18:22:112954812 $GNGGA,034351.00,3651.96918,S,17443.44149,E,1,09,1.09,19.4,M,28.1,M,,*6E
20181826-14:18:22:212231896 $GNGSA,A,3,02,13,05,12,29,06,,,,,,,1.92,1.09,1.59*18
20181826-14:18:22:217119760 $GNGSA,A,3,70,71,84,,,,,,,,,,1.92,1.09,1.59*1E
20181826-14:18:22:316377156 $GPGSV,2,1,08,02,43,117,33,05,78,111,30,06,11,104,32,12,34,334,37*7E
20181826-14:18:22:420150385 $GPGSV,2,2,08,13,17,036,39,20,,,26,25,,,32,29,47,222,36*75
20181826-14:18:22:425814812 $GLGSV,2,1,07,69,,,32,70,69,049,36,71,26,352,39,75,10,290,18*52
20181826-14:18:22:524498823 $GLGSV,2,2,07,76,14,244,36,84,34,089,36,,,,37*6A
20181826-14:18:22:529481739 $GNGLL,3651.96918,S,17443.44149,E,034351.00,A,A*6D
20181826-14:18:22:758998250 $GNZDA,034351.00,26,01,2018,00,00*76
20181826-14:18:23:038740541 $GNRMC,034352.00,A,3651.96904,S,17443.44176,E,0.956,56.39,260118,,,A*57
20181826-14:18:23:142605801 $GNVTG,56.39,T,,M,0.956,N,1.771,K,A*10
20181826-14:18:23:147532885 $GNGGA,034352.00,3651.96904,S,17443.44176,E,1,09,1.09,19.3,M,28.1,M,,*6B
20181826-14:18:23:246777989 $GNGSA,A,3,02,13,05,12,29,06,,,,,,,1.92,1.09,1.59*18
20181826-14:18:23:251474083 $GNGSA,A,3,70,71,84,,,,,,,,,,1.92,1.09,1.59*1E
20181826-14:18:23:350954447 $GPGSV,2,1,08,02,43,117,32,05,78,111,30,06,11,104,31,12,34,334,34*7F
20181826-14:18:23:454786374 $GPGSV,2,2,08,13,17,036,41,20,,,25,25,,,32,29,47,222,39*76
20181826-14:18:23:460061062 $GLGSV,2,1,07,69,,,32,70,69,049,36,71,26,352,31,75,10,290,33*53
20181826-14:18:23:559164395 $GLGSV,2,2,07,76,14,244,26,84,34,089,36,,,,31*6D
20181826-14:18:23:563965749 $GNGLL,3651.96904,S,17443.44176,E,034352.00,A,A*6F
20181826-14:18:23:788963458 $GNZDA,034352.00,26,01,2018,00,00*75
20181826-14:18:24:012226322 $GNRMC,034353.00,A,3651.96889,S,17443.44187,E,0.557,,260118,,,A*76
20181826-14:18:24:116316270 $GNVTG,,T,,M,0.557,N,1.031,K,A*39
20181826-14:18:24:121354551 $GNGGA,034353.00,3651.96889,S,17443.44187,E,1,09,1.09,19.1,M,28.1,M,,*62
20181826-14:18:24:220399707 $GNGSA,A,3,02,13,05,12,29,06,,,,,,,1.92,1.09,1.59*18
20181826-14:18:24:225443353 $GNGSA,A,3,70,71,84,,,,,,,,,,1.92,1.09,1.59*1E
20181826-14:18:24:324363614 $GPGSV,2,1,08,02,43,117,32,05,78,111,31,06,11,104,32,12,34,334,35*7C
20181826-14:18:24:428890593 $GPGSV,2,2,08,13,17,036,36,20,,,22,25,,,22,29,47,222,40*7E
20181826-14:18:24:433852311 $GLGSV,2,1,08,69,,,25,70,69,049,33,71,26,352,38,75,10,290,34*51
20181826-14:18:24:532581426 $GLGSV,2,2,08,76,14,244,32,77,00,192,,84,34,089,29,,,,39*5B
20181826-14:18:24:537454811 $GNGLL,3651.96889,S,17443.44187,E,034353.00,A,A*64
20181826-14:18:24:758963874 $GNZDA,034353.00,26,01,2018,00,00*74
20181826-14:18:25:063292155 $GNRMC,034354.00,A,3651.96867,S,17443.44185,E,0.838,35.34,260118,,,A*58
20181826-14:18:25:167456009 $GNVTG,35.34,T,,M,0.838,N,1.551,K,A*11
20181826-14:18:25:172307624 $GNGGA,034354.00,3651.96867,S,17443.44185,E,1,09,1.09,18.9,M,28.1,M,,*6E
20181826-14:18:25:271149290 $GNGSA,A,3,02,13,05,12,29,06,,,,,,,1.92,1.09,1.59*18
20181826-14:18:25:275914082 $GNGSA,A,3,70,71,84,,,,,,,,,,1.92,1.09,1.59*1E
20181826-14:18:25:375676946 $GPGSV,2,1,08,02,43,117,33,05,78,111,32,06,11,104,29,12,34,334,35*74
20181826-14:18:25:480438353 $GPGSV,2,2,08,13,17,036,32,20,,,30,25,,,21,29,47,222,39*74
20181826-14:18:25:485599707 $GLGSV,3,1,09,69,,,32,70,69,049,34,71,26,352,38,75,10,290,30*54
20181826-14:18:25:583788717 $GLGSV,3,2,09,76,14,244,40,77,00,192,,84,34,089,30,,,,34*5B
20181826-14:18:25:588799030 $GLGSV,3,3,09,,,,34*6B
20181826-14:18:25:848945957 $GNGLL,3651.96867,S,17443.44185,E,034354.00,A,A*61
20181826-14:18:25:853521217 $GNZDA,034354.00,26,01,2018,00,00*73
20181826-14:18:26:022853925 $GNRMC,034355.00,A,3651.96841,S,17443.44187,E,0.871,18.26,260118,,,A*5E
20181826-14:18:26:126776321 $GNVTG,18.26,T,,M,0.871,N,1.612,K,A*14
20181826-14:18:26:131592363 $GNGGA,034355.00,3651.96841,S,17443.44187,E,1,09,1.00,18.9,M,28.1,M,,*60
20181826-14:18:26:230939238 $GNGSA,A,3,02,13,05,12,29,06,,,,,,,1.64,1.00,1.30*17
20181826-14:18:26:236075696 $GNGSA,A,3,70,71,84,,,,,,,,,,1.64,1.00,1.30*11
20181826-14:18:26:334992675 $GPGSV,2,1,08,02,43,117,33,05,78,111,32,06,11,104,30,12,34,334,35*7C
20181826-14:18:26:440264081 $GPGSV,2,2,08,13,17,036,32,20,,,30,25,,,19,29,47,222,39*7F
20181826-14:18:26:446482936 $GLGSV,3,1,09,69,,,32,70,69,049,34,71,26,352,40,75,10,290,29*53
20181826-14:18:26:543104186 $GLGSV,3,2,09,76,14,244,39,77,00,192,,84,34,089,27,,,,34*53
20181826-14:18:26:547926477 $GLGSV,3,3,09,,,,34*6B
20181826-14:18:26:808947154 $GNGLL,3651.96841,S,17443.44187,E,034355.00,A,A*66
20181826-14:18:26:813467311 $GNZDA,034355.00,26,01,2018,00,00*72
20181826-14:18:27:058539967 $GNRMC,034356.00,A,3651.96819,S,17443.44181,E,0.770,8.78,260118,,,A*62
20181826-14:18:27:162362935 $GNVTG,8.78,T,,M,0.770,N,1.427,K,A*24
20181826-14:18:27:167208404 $GNGGA,034356.00,3651.96819,S,17443.44181,E,1,09,1.00,18.8,M,28.1,M,,*69
20181826-14:18:27:266713769 $GNGSA,A,3,02,13,05,12,29,06,,,,,,,1.64,1.00,1.30*17
20181826-14:18:27:271720331 $GNGSA,A,3,70,71,84,,,,,,,,,,1.64,1.00,1.30*11
20181826-14:18:27:370769758 $GPGSV,2,1,08,02,43,117,33,05,78,111,32,06,11,104,29,12,34,334,34*75
20181826-14:18:27:474736633 $GPGSV,2,2,08,13,17,036,35,20,,,29,25,,,20,29,47,222,40*74
20181826-14:18:27:479585487 $GLGSV,3,1,09,69,,,30,70,69,049,35,71,26,352,38,75,10,290,32*55
20181826-14:18:27:578815644 $GLGSV,3,2,09,76,14,244,39,77,00,192,,84,34,089,29,,,,31*58
20181826-14:18:27:583518769 $GLGSV,3,3,09,,,,31*6E
20181826-14:18:27:838833821 $GNGLL,3651.96819,S,17443.44181,E,034356.00,A,A*6E
20181826-14:18:27:843448404 $GNZDA,034356.00,26,01,2018,00,00*71
20181826-14:18:28:020743560 $GNRMC,034357.00,A,3651.96794,S,17443.44175,E,0.956,1.27,260118,,,A*6B
20181826-14:18:28:124662987 $GNVTG,1.27,T,,M,0.956,N,1.770,K,A*2C
20181826-14:18:28:129845070 $GNGGA,034357.00,3651.96794,S,17443.44175,E,1,09,1.00,18.6,M,28.1,M,,*67
20181826-14:18:28:228974654 $GNGSA,A,3,02,13,05,12,29,06,,,,,,,1.64,1.00,1.30*17
20181826-14:18:28:234044914 $GNGSA,A,3,70,71,84,,,,,,,,,,1.64,1.00,1.30*11
20181826-14:18:28:332816945 $GPGSV,2,1,08,02,43,117,33,05,78,111,32,06,11,104,28,12,34,334,34*74
20181826-14:18:28:436801060 $GPGSV,2,2,08,13,17,036,36,20,,,29,25,,,22,29,47,222,40*75
20181826-14:18:28:442566997 $GLGSV,3,1,09,69,,,29,70,69,049,34,71,26,352,36,75,10,290,34*54
20181826-14:18:28:540919341 $GLGSV,3,2,09,76,14,244,38,77,00,192,,84,34,089,31,,,,32*53
20181826-14:18:28:545619289 $GLGSV,3,3,09,,,,32*6D
20181826-14:18:28:808831893 $GNGLL,3651.96794,S,17443.44175,E,034357.00,A,A*6E
20181826-14:18:28:813651789 $GNZDA,034357.00,26,01,2018,00,00*70
20181826-14:18:29:064808247 $GNRMC,034358.00,A,3651.96762,S,17443.44168,E,1.092,359.29,260118,,,A*61
20181826-14:18:29:168721216 $GNVTG,359.29,T,,M,1.092,N,2.023,K,A*2E
20181826-14:18:29:173744080 $GNGGA,034358.00,3651.96762,S,17443.44168,E,1,09,1.00,18.5,M,28.1,M,,*6E
20181826-14:18:29:272847570 $GNGSA,A,3,02,13,05,12,29,06,,,,,,,1.64,1.00,1.30*17
20181826-14:18:29:277638716 $GNGSA,A,3,70,71,84,,,,,,,,,,1.64,1.00,1.30*11
20181826-14:18:29:377074757 $GPGSV,2,1,08,02,42,117,33,05,78,111,33,06,11,104,28,12,34,334,35*75
20181826-14:18:29:481607362 $GPGSV,2,2,08,13,17,036,36,20,,,27,25,,,22,29,47,222,40*7B
20181826-14:18:29:486660799 $GLGSV,3,1,09,69,,,29,70,69,049,34,71,26,352,37,75,10,290,34*55
20181826-14:18:29:585619237 $GLGSV,3,2,09,76,14,244,37,77,00,192,,84,34,089,32,,,,32*5F
20181826-14:18:29:590547622 $GLGSV,3,3,09,,,,32*6D
20181826-14:18:29:858904236 $GNGLL,3651.96762,S,17443.44168,E,034358.00,A,A*64
20181826-14:18:29:863541528 $GNZDA,034358.00,26,01,2018,00,00*7F
20181826-14:18:30:016050226 $GNRMC,034359.00,A,3651.96737,S,17443.44165,E,0.835,1.91,260118,,,A*64
20181826-14:18:30:119830538 $GNVTG,1.91,T,,M,0.835,N,1.547,K,A*23
20181826-14:18:30:124627049 $GNGGA,034359.00,3651.96737,S,17443.44165,E,1,09,1.00,18.4,M,28.1,M,,*63
20181826-14:18:30:223993820 $GNGSA,A,3,02,13,05,12,29,06,,,,,,,1.64,1.00,1.30*17
20181826-14:18:30:228803768 $GNGSA,A,3,70,71,84,,,,,,,,,,1.64,1.00,1.30*11
20181826-14:18:30:328298299 $GPGSV,2,1,08,02,42,117,33,05,78,112,33,06,11,104,34,12,34,334,34*7A
20181826-14:18:30:433645851 $GPGSV,2,2,08,13,17,036,36,20,,,25,25,,,21,29,47,222,40*7A
20181826-14:18:30:439607986 $GLGSV,3,1,09,69,,,20,70,69,049,35,71,26,352,37,75,10,290,35*5C
20181826-14:18:30:536786320 $GLGSV,3,2,09,76,14,244,30,77,00,192,,84,34,089,31,,,,38*51
20181826-14:18:30:541603507 $GLGSV,3,3,09,,,,38*67
20181826-14:18:30:798943924 $GNGLL,3651.96737,S,17443.44165,E,034359.00,A,A*68
20181826-14:18:30:803755121 $GNZDA,034359.00,26,01,2018,00,00*7E
20181826-14:18:31:027849080 $GNRMC,034400.00,A,3651.96716,S,17443.44171,E,0.686,8.98,260118,,,A*6F
20181826-14:18:31:131630330 $GNVTG,8.98,T,,M,0.686,N,1.271,K,A*27
20181826-14:18:31:136407309 $GNGGA,034400.00,3651.96716,S,17443.44171,E,1,09,1.00,18.3,M,28.1,M,,*69
20181826-14:18:31:235854653 $GNGSA,A,3,02,13,05,12,29,06,,,,,,,1.64,1.00,1.30*17
20181826-14:18:31:240806007 $GNGSA,A,3,70,71,84,,,,,,,,,,1.64,1.00,1.30*11
20181826-14:18:31:339913403 $GPGSV,2,1,08,02,42,117,32,05,78,112,32,06,11,104,33,12,34,334,37*7E
20181826-14:18:31:445014965 $GPGSV,2,2,08,13,17,036,39,20,,,22,25,,,23,29,47,222,40*70
20181826-14:18:31:450526944 $GLGSV,3,1,09,69,,,30,70,69,049,34,71,26,352,33,75,10,290,36*5B
20181826-14:18:31:548308455 $GLGSV,3,2,09,76,14,244,28,77,00,192,,84,34,089,34,,,,36*53
20181826-14:18:31:553331684 $GLGSV,3,3,09,,,,36*69
20181826-14:18:31:808852465 $GNGLL,3651.96716,S,17443.44171,E,034400.00,A,A*65
20181826-14:18:31:813389965 $GNZDA,034400.00,26,01,2018,00,00*75
20181826-14:18:32:023236840 $GNRMC,034401.00,A,3651.96704,S,17443.44178,E,0.462,,260118,,,A*7B
20181826-14:18:32:127196163 $GNVTG,,T,,M,0.462,N,0.856,K,A*36
20181826-14:18:32:131914704 $GNGGA,034401.00,3651.96704,S,17443.44178,E,1,09,1.00,18.2,M,28.1,M,,*63
20181826-14:18:32:231144965 $GNGSA,A,3,02,13,05,12,29,06,,,,,,,1.64,1.00,1.30*17
20181826-14:18:32:236203194 $GNGSA,A,3,70,71,84,,,,,,,,,,1.64,1.00,1.30*11
20181826-14:18:32:335464183 $GPGSV,2,1,08,02,42,117,31,05,78,112,30,06,11,104,31,12,34,334,34*7E
20181826-14:18:32:440904808 $GPGSV,2,2,08,13,17,036,41,20,,,21,25,,,30,29,47,222,40*7E
20181826-14:18:32:446337360 $GLGSV,3,1,09,69,,,30,70,69,049,35,71,26,352,29,75,10,290,36*51
20181826-14:18:32:543584496 $GLGSV,3,2,09,76,14,244,26,77,00,192,,84,34,089,35,,,,29*52
20181826-14:18:32:548314444 $GLGSV,3,3,09,,,,29*67
20181826-14:18:32:798808662 $GNGLL,3651.96704,S,17443.44178,E,034401.00,A,A*6E
20181826-14:18:32:803403037 $GNZDA,034401.00,26,01,2018,00,00*74
20181826-14:18:33:019260746 $GNRMC,034402.00,A,3651.96700,S,17443.44185,E,0.277,,260118,,,A*7C
20181826-14:18:33:123215225 $GNVTG,,T,,M,0.277,N,0.512,K,A*39
