20181930-20:19:08:723059731 $GNRMC,040504.00,A,3651.88341,S,17443.42280,E,0.132,,310118,,,A*72
20181930-20:19:08:828254158 $GNVTG,,T,,M,0.132,N,0.245,K,A*3E
20181930-20:19:08:833165252 $GNGGA,040504.00,3651.88341,S,17443.42280,E,1,05,1.88,13.0,M,28.1,M,,*69
20181930-20:19:08:932607908 $GNGSA,A,3,02,05,26,29,13,,,,,,,,2.45,1.88,1.58*18
20181930-20:19:08:939200617 $GNGSA,A,3,,,,,,,,,,,,,2.45,1.88,1.58*12
20181930-20:19:09:036453012 $GPGSV,2,1,08,02,30,099,36,04,,,36,05,60,136,43,13,32,049,29*42
20181930-20:19:09:041247908 $GPGSV,2,2,08,15,,,22,20,,,35,26,06,217,36,29,66,225,42*7A
20181930-20:19:09:140781866 $GLGSV,1,1,03,,,,36,,,,35,,,,32*64
20181930-20:19:09:145509939 $GNGLL,3651.88341,S,17443.42280,E,040504.00,A,A*61
20181930-20:19:09:370908533 $GNZDA,040504.00,31,01,2018,00,00*75
20181930-20:19:09:722248064 $GNRMC,040505.00,A,3651.88315,S,17443.42279,E,0.189,,310118,,,A*74
20181930-20:19:09:826170408 $GNVTG,,T,,M,0.189,N,0.350,K,A*3B
20181930-20:19:09:831249158 $GNGGA,040505.00,3651.88315,S,17443.42279,E,1,05,1.88,12.7,M,28.1,M,,*69
20181930-20:19:09:931022127 $GNGSA,A,3,02,05,26,29,13,,,,,,,,2.46,1.88,1.58*1B
20181930-20:19:09:936278324 $GNGSA,A,3,,,,,,,,,,,,,2.46,1.88,1.58*11
20181930-20:19:10:034426449 $GPGSV,2,1,08,02,30,099,36,04,,,36,05,60,136,43,13,32,049,28*43
20181930-20:19:10:039504106 $GPGSV,2,2,08,15,,,21,20,,,35,26,06,217,36,29,66,226,42*7A
20181930-20:19:10:138689887 $GLGSV,1,1,03,,,,35,,,,35,,,,32*67
20181930-20:19:10:143637179 $GNGLL,3651.88315,S,17443.42279,E,040505.00,A,A*67
20181930-20:19:10:370839835 $GNZDA,040505.00,31,01,2018,00,00*74
20181930-20:19:10:721499053 $GNRMC,040506.00,A,3651.88286,S,17443.42275,E,0.113,,310118,,,A*73
20181930-20:19:10:825314574 $GNVTG,,T,,M,0.113,N,0.209,K,A*35
20181930-20:19:10:830402282 $GNGGA,040506.00,3651.88286,S,17443.42275,E,1,05,1.88,12.3,M,28.1,M,,*69
20181930-20:19:10:930801189 $GNGSA,A,3,02,05,26,29,13,,,,,,,,2.46,1.88,1.58*1B
20181930-20:19:10:936049730 $GNGSA,A,3,,,,,,,,,,,,,2.46,1.88,1.58*11
20181930-20:19:11:033600720 $GPGSV,2,1,08,02,30,099,35,04,,,35,05,60,136,43,13,32,049,31*4B
20181930-20:19:11:038379001 $GPGSV,2,2,08,15,,,21,20,,,35,26,06,217,36,29,66,226,41*79
20181930-20:19:11:137838637 $GLGSV,1,1,03,,,,36,,,,36,,,,32*67
20181930-20:19:11:142785303 $GNGLL,3651.88286,S,17443.42275,E,040506.00,A,A*63
20181930-20:19:11:370887855 $GNZDA,040506.00,31,01,2018,00,00*77
20181930-20:19:11:722901761 $GNRMC,040507.00,A,3651.88256,S,17443.42269,E,0.165,,310118,,,A*73
20181930-20:19:11:827100251 $GNVTG,,T,,M,0.165,N,0.306,K,A*3A
20181930-20:19:11:832091136 $GNGGA,040507.00,3651.88256,S,17443.42269,E,1,05,1.88,11.9,M,28.1,M,,*61
20181930-20:19:11:931505303 $GNGSA,A,3,02,05,26,29,13,,,,,,,,2.46,1.88,1.58*1B
20181930-20:19:11:936882959 $GNGSA,A,3,,,,,,,,,,,,,2.46,1.88,1.58*11
20181930-20:19:12:035070147 $GPGSV,2,1,08,02,30,099,36,04,,,35,05,60,136,42,13,32,049,33*4B
20181930-20:19:12:039795459 $GPGSV,2,2,08,15,,,20,20,,,34,26,06,217,36,29,66,226,42*7A
20181930-20:19:12:139510355 $GLGSV,1,1,03,,,,37,,,,35,,,,31*66
20181930-20:19:12:144306761 $GNGLL,3651.88256,S,17443.42269,E,040507.00,A,A*62
20181930-20:19:12:371132334 $GNZDA,040507.00,31,01,2018,00,00*76
20181930-20:19:12:724521657 $GNRMC,040508.00,A,3651.88258,S,17443.42267,E,0.055,,310118,,,A*7E
20181930-20:19:12:828516396 $GNVTG,,T,,M,0.055,N,0.102,K,A*3E
20181930-20:19:12:833417750 $GNGGA,040508.00,3651.88258,S,17443.42267,E,1,05,1.88,11.9,M,28.1,M,,*6E
20181930-20:19:12:932575250 $GNGSA,A,3,02,05,26,29,13,,,,,,,,2.46,1.88,1.58*1B
20181930-20:19:12:937762646 $GNGSA,A,3,,,,,,,,,,,,,2.46,1.88,1.58*11
20181930-20:19:13:036749938 $GPGSV,2,1,08,02,30,099,36,04,,,35,05,60,136,40,13,32,049,32*48
20181930-20:19:13:041569261 $GPGSV,2,2,08,15,,,21,20,,,34,26,06,217,36,29,66,226,41*78
20181930-20:19:13:140807698 $GLGSV,1,1,03,,,,37,,,,35,,,,30*67
20181930-20:19:13:145712698 $GNGLL,3651.88258,S,17443.42267,E,040508.00,A,A*6D
20181930-20:19:13:370926240 $GNZDA,040508.00,31,01,2018,00,00*79
20181930-20:19:13:724798063 $GNRMC,040509.00,A,3651.88256,S,17443.42265,E,0.052,,310118,,,A*74
20181930-20:19:13:828651292 $GNVTG,,T,,M,0.052,N,0.097,K,A*34
20181930-20:19:13:833716135 $GNGGA,040509.00,3651.88256,S,17443.42265,E,1,05,1.88,12.0,M,28.1,M,,*69
20181930-20:19:13:933172854 $GNGSA,A,3,02,05,26,29,13,,,,,,,,2.46,1.88,1.58*1B
20181930-20:19:13:938425510 $GNGSA,A,3,,,,,,,,,,,,,2.46,1.88,1.58*11
20181930-20:19:14:036855979 $GPGSV,2,1,08,02,30,099,37,04,,,34,05,60,136,39,13,32,049,31*45
20181930-20:19:14:041855562 $GPGSV,2,2,08,15,,,19,20,,,34,26,06,217,36,29,66,226,41*73
20181930-20:19:14:141132646 $GLGSV,1,1,04,,,,37,,,,33,,,,30,,,,36*63
20181930-20:19:14:145973531 $GNGLL,3651.88256,S,17443.42265,E,040509.00,A,A*60
20181930-20:19:14:370898375 $GNZDA,040509.00,31,01,2018,00,00*78
20181930-20:19:14:749578479 $GNRMC,040510.00,A,3651.88277,S,17443.42264,E,0.092,,310118,,,A*72
20181930-20:19:14:853554312 $GNVTG,,T,,M,0.092,N,0.171,K,A*31
20181930-20:19:14:858439052 $GNGGA,040510.00,3651.88277,S,17443.42264,E,1,05,1.88,12.3,M,28.1,M,,*60
20181930-20:19:14:957650041 $GNGSA,A,3,02,05,26,29,13,,,,,,,,2.46,1.88,1.58*1B
20181930-20:19:14:962486968 $GNGSA,A,3,,,,,,,,,,,,,2.46,1.88,1.58*11
20181930-20:19:15:061670927 $GPGSV,2,1,08,02,30,099,38,04,,,35,05,60,136,39,13,32,049,32*48
20181930-20:19:15:066553010 $GPGSV,2,2,08,15,,,19,20,,,34,26,06,217,37,29,66,226,41*72
20181930-20:19:15:166022229 $GLGSV,1,1,04,66,15,150,37,74,05,212,34,82,,,31,,,,36*68
20181930-20:19:15:421194833 $GNGLL,3651.88277,S,17443.42264,E,040510.00,A,A*6A
20181930-20:19:15:425929624 $GNZDA,040510.00,31,01,2018,00,00*70
20181930-20:19:15:738440979 $GNRMC,040511.00,A,3651.88284,S,17443.42263,E,0.067,,310118,,,A*72
20181930-20:19:15:842233426 $GNVTG,,T,,M,0.067,N,0.125,K,A*3A
20181930-20:19:15:847218426 $GNGGA,040511.00,3651.88284,S,17443.42263,E,1,05,1.88,12.4,M,28.1,M,,*6D
20181930-20:19:15:946450301 $GNGSA,A,3,02,05,26,29,13,,,,,,,,2.46,1.88,1.58*1B
20181930-20:19:15:951507437 $GNGSA,A,3,,,,,,,,,,,,,2.46,1.88,1.58*11
20181930-20:19:16:050556135 $GPGSV,2,1,08,02,30,099,37,04,,,36,05,60,136,38,13,32,049,32*45
20181930-20:19:16:055459051 $GPGSV,2,2,08,15,,,21,20,,,34,26,06,217,36,29,66,226,41*78
20181930-20:19:16:154614208 $GLGSV,1,1,04,66,15,150,37,74,05,212,34,82,,,31,,,,35*6B
20181930-20:19:16:401574728 $GNGLL,3651.88284,S,17443.42263,E,040511.00,A,A*60
20181930-20:19:16:407124989 $GNZDA,040511.00,31,01,2018,00,00*71
20181930-20:19:16:737340614 $GNRMC,040511.00,A,3651.88292,S,17443.42258,E,0.051,,310118,,,A*78
20181930-20:19:16:840991811 $GNVTG,,T,,M,0.051,N,0.094,K,A*34
20181930-20:19:16:845881343 $GNGGA,040511.00,3651.88292,S,17443.42258,E,1,06,1.44,12.8,M,28.1,M,,*6D
20181930-20:19:16:945121551 $GNGSA,A,3,02,05,26,29,13,,,,,,,,2.11,1.44,1.53*12
20181930-20:19:16:950093947 $GNGSA,A,3,66,,,,,,,,,,,,2.11,1.44,1.53*18
20181930-20:19:17:049337801 $GPGSV,2,1,08,02,30,099,38,04,,,37,05,60,136,38,13,32,049,34*4D
20181930-20:19:17:054186343 $GPGSV,2,2,08,15,,,20,20,,,34,26,06,217,36,29,66,226,41*79
20181930-20:19:17:153532645 $GLGSV,1,1,04,66,15,150,37,74,05,212,35,82,,,32,,,,34*68
20181930-20:19:17:411980457 $GNGLL,3651.88292,S,17443.42258,E,040511.00,A,A*6F
20181930-20:19:17:417224415 $GNZDA,040511.00,31,01,2018,00,00*71
20181930-20:19:17:732953530 $GNRMC,040512.00,A,3651.88284,S,17443.42253,E,0.066,,310118,,,A*73
20181930-20:19:17:836587853 $GNVTG,,T,,M,0.066,N,0.122,K,A*3C
20181930-20:19:17:841473530 $GNGGA,040512.00,3651.88284,S,17443.42253,E,1,06,1.44,13.0,M,28.1,M,,*6B
20181930-20:19:17:940858478 $GNGSA,A,3,02,05,26,29,13,,,,,,,,2.11,1.44,1.53*12
20181930-20:19:17:945775613 $GNGSA,A,3,66,,,,,,,,,,,,2.11,1.44,1.53*18
20181930-20:19:18:045217176 $GPGSV,2,1,08,02,30,099,39,04,,,37,05,60,136,38,13,32,049,32*4A
20181930-20:19:18:050420717 $GPGSV,2,2,08,15,,,20,20,,,34,26,06,217,36,29,66,226,40*78
20181930-20:19:18:149518634 $GLGSV,2,1,05,66,15,150,37,74,05,212,36,82,,,32,,,,33*6E
20181930-20:19:18:154188373 $GLGSV,2,2,05,,,,33*60
20181930-20:19:18:430834988 $GNGLL,3651.88284,S,17443.42253,E,040512.00,A,A*60
20181930-20:19:18:435525717 $GNZDA,040512.00,31,01,2018,00,00*72
20181930-20:19:18:761018842 $GNRMC,040513.00,A,3651.88285,S,17443.42249,E,0.064,,310118,,,A*7A
20181930-20:19:18:864464363 $GNVTG,,T,,M,0.064,N,0.119,K,A*36
20181930-20:19:18:869698113 $GNGGA,040513.00,3651.88285,S,17443.42249,E,1,06,1.44,13.2,M,28.1,M,,*62
20181930-20:19:18:968971550 $GNGSA,A,3,02,05,26,29,13,,,,,,,,2.11,1.44,1.53*12
20181930-20:19:18:973881446 $GNGSA,A,3,66,,,,,,,,,,,,2.11,1.44,1.53*18
20181930-20:19:19:072865561 $GPGSV,2,1,08,02,30,099,39,04,,,37,05,60,136,39,13,32,049,31*48
20181930-20:19:19:078152331 $GPGSV,2,2,08,15,,,21,20,,,35,26,06,217,37,29,66,226,40*79
20181930-20:19:19:177193738 $GLGSV,2,1,05,66,15,150,38,74,05,212,36,82,,,32,,,,32*60
20181930-20:19:19:182044154 $GLGSV,2,2,05,,,,32*61
20181930-20:19:19:450829258 $GNGLL,3651.88285,S,17443.42249,E,040513.00,A,A*6B
20181930-20:19:19:455480352 $GNZDA,040513.00,31,01,2018,00,00*73
20181930-20:19:19:741074935 $GNRMC,040514.00,A,3651.88279,S,17443.42245,E,0.083,,310118,,,A*7B
20181930-20:19:19:844827696 $GNVTG,,T,,M,0.083,N,0.153,K,A*31
20181930-20:19:19:850023842 $GNGGA,040514.00,3651.88279,S,17443.42245,E,1,06,1.44,13.4,M,28.1,M,,*6C
20181930-20:19:19:948993269 $GNGSA,A,3,02,05,26,29,13,,,,,,,,2.11,1.44,1.53*12
20181930-20:19:19:954019206 $GNGSA,A,3,66,,,,,,,,,,,,2.11,1.44,1.53*18
20181930-20:19:20:052971237 $GPGSV,2,1,08,02,30,099,39,04,,,37,05,60,136,40,13,32,049,29*4F
20181930-20:19:20:058031081 $GPGSV,2,2,08,15,,,22,20,,,35,26,06,217,36,29,66,226,41*7A
20181930-20:19:20:157537279 $GLGSV,2,1,06,66,15,150,38,74,05,212,36,82,,,33,,,,29*68
20181930-20:19:20:162264258 $GLGSV,2,2,06,,,,29,,,,37*6C
20181930-20:19:20:451032748 $GNGLL,3651.88279,S,17443.42245,E,040514.00,A,A*63
20181930-20:19:20:455660456 $GNZDA,040514.00,31,01,2018,00,00*74
20181930-20:19:20:761974206 $GNRMC,040515.00,A,3651.88280,S,17443.42241,E,0.100,,310118,,,A*72
20181930-20:19:20:865849154 $GNVTG,,T,,M,0.100,N,0.185,K,A*30
20181930-20:19:20:871125924 $GNGGA,040515.00,3651.88280,S,17443.42241,E,1,05,2.85,13.5,M,28.1,M,,*63
20181930-20:19:20:970124362 $GNGSA,A,3,02,05,26,29,,,,,,,,,3.57,2.85,2.16*1F
20181930-20:19:20:974932279 $GNGSA,A,3,66,,,,,,,,,,,,3.57,2.85,2.16*17
20181930-20:19:21:074103841 $GPGSV,2,1,08,02,30,099,39,04,,,37,05,60,136,40,13,32,049,23*45
20181930-20:19:21:079172383 $GPGSV,2,2,08,15,,,24,20,,,35,26,06,217,36,29,66,226,40*7D
20181930-20:19:21:178460820 $GLGSV,2,1,06,66,15,150,38,74,05,212,36,82,,,35,,,,33*65
20181930-20:19:21:183229726 $GLGSV,2,2,06,,,,33,,,,37*67
20181930-20:19:21:461025403 $GNGLL,3651.88280,S,17443.42241,E,040515.00,A,A*60
20181930-20:19:21:465729830 $GNZDA,040515.00,31,01,2018,00,00*75
20181930-20:19:21:727876966 $GNRMC,040516.00,A,3651.88283,S,17443.42240,E,0.424,,310118,,,A*70
20181930-20:19:21:832480768 $GNVTG,,T,,M,0.424,N,0.785,K,A*35
20181930-20:19:21:837525299 $GNGGA,040516.00,3651.88283,S,17443.42240,E,1,06,1.44,13.7,M,28.1,M,,*6D
20181930-20:19:21:935933372 $GNGSA,A,3,02,05,26,29,13,,,,,,,,2.11,1.44,1.53*12
20181930-20:19:21:941056862 $GNGSA,A,3,66,,,,,,,,,,,,2.11,1.44,1.53*18
20181930-20:19:22:040005143 $GPGSV,2,1,08,02,30,099,38,04,,,37,05,60,136,39,13,32,049,30*48
20181930-20:19:22:044943216 $GPGSV,2,2,08,15,,,22,20,,,34,26,06,217,36,29,66,226,40*7A
20181930-20:19:22:144125039 $GLGSV,2,1,06,66,15,150,38,74,05,212,35,82,,,34,,,,32*66
20181930-20:19:22:149170820 $GLGSV,2,2,06,,,,32,,,,37*66
20181930-20:19:22:440836028 $GNGLL,3651.88283,S,17443.42240,E,040516.00,A,A*61
20181930-20:19:22:458121757 $GNZDA,040516.00,31,01,2018,00,00*76
20181930-20:19:22:744933320 $GNRMC,040517.00,A,3651.88277,S,17443.42234,E,0.342,,310118,,,A*7E
20181930-20:19:22:848931965 $GNVTG,,T,,M,0.342,N,0.633,K,A*3E
20181930-20:19:22:853818320 $GNGGA,040517.00,3651.88277,S,17443.42234,E,1,06,1.44,13.8,M,28.1,M,,*6B
20181930-20:19:22:952982226 $GNGSA,A,3,02,05,26,29,13,,,,,,,,2.11,1.44,1.53*12
20181930-20:19:22:958163476 $GNGSA,A,3,66,,,,,,,,,,,,2.11,1.44,1.53*18
20181930-20:19:23:057124153 $GPGSV,2,1,08,02,30,099,39,04,,,37,05,60,136,37,13,32,049,32*45
20181930-20:19:23:062032330 $GPGSV,2,2,08,15,,,22,20,,,33,26,06,217,36,29,66,226,40*7D
20181930-20:19:23:161227278 $GLGSV,2,1,06,66,15,150,39,74,05,212,36,82,,,34,,,,30*66
20181930-20:19:23:166277590 $GLGSV,2,2,06,,,,30,,,,37*64
20181930-20:19:23:440876965 $GNGLL,3651.88277,S,17443.42234,E,040517.00,A,A*68
20181930-20:19:23:445699465 $GNZDA,040517.00,31,01,2018,00,00*77
20181930-20:19:23:724454621 $GNRMC,040518.00,A,3651.88280,S,17443.42229,E,0.083,,310118,,,A*7B
20181930-20:19:23:828540819 $GNVTG,,T,,M,0.083,N,0.154,K,A*36
20181930-20:19:23:833321705 $GNGGA,040518.00,3651.88280,S,17443.42229,E,1,06,1.44,14.0,M,28.1,M,,*6F
20181930-20:19:23:932812173 $GNGSA,A,3,02,05,26,29,13,,,,,,,,2.11,1.44,1.53*12
20181930-20:19:23:937815819 $GNGSA,A,3,66,,,,,,,,,,,,2.11,1.44,1.53*18
20181930-20:19:24:036780350 $GPGSV,2,1,08,02,30,099,39,04,,,36,05,60,136,37,13,32,049,31*47
20181930-20:19:24:041896340 $GPGSV,2,2,08,15,,,24,20,,,32,26,06,217,36,29,66,226,40*7A
20181930-20:19:24:143267173 $GLGSV,2,1,06,66,15,150,39,74,05,212,36,82,,,34,,,,30*66
20181930-20:19:24:148277590 $GLGSV,2,2,06,,,,30,,,,37*64
20181930-20:19:24:420840506 $GNGLL,3651.88280,S,17443.42229,E,040518.00,A,A*63
20181930-20:19:24:425583423 $GNZDA,040518.00,31,01,2018,00,00*78
20181930-20:19:24:745302590 $GNRMC,040519.00,A,3651.88295,S,17443.42228,E,0.114,,310118,,,A*70
20181930-20:19:24:849255871 $GNVTG,,T,,M,0.114,N,0.211,K,A*3B
20181930-20:19:24:854151704 $GNGGA,040519.00,3651.88295,S,17443.42228,E,1,06,1.44,14.2,M,28.1,M,,*69
20181930-20:19:24:953604360 $GNGSA,A,3,02,05,26,29,13,,,,,,,,2.11,1.44,1.53*12
20181930-20:19:24:958656704 $GNGSA,A,3,66,,,,,,,,,,,,2.11,1.44,1.53*18
20181930-20:19:25:057746392 $GPGSV,2,1,08,02,30,099,39,04,,,35,05,60,136,38,13,32,049,33*49
20181930-20:19:25:062785350 $GPGSV,2,2,08,15,,,23,20,,,31,26,06,217,37,29,66,226,40*7F
20181930-20:19:25:161949829 $GLGSV,2,1,06,66,15,150,38,74,05,212,37,82,,,34,,,,28*6F
20181930-20:19:25:166897381 $GLGSV,2,2,06,,,,28,,,,36*6C
20181930-20:19:25:441005558 $GNGLL,3651.88295,S,17443.42228,E,040519.00,A,A*67
20181930-20:19:25:445785558 $GNZDA,040519.00,31,01,2018,00,00*79
20181930-20:19:25:726582329 $GNRMC,040520.00,A,3651.88304,S,17443.42231,E,0.124,,310118,,,A*78
20181930-20:19:25:830474204 $GNVTG,,T,,M,0.124,N,0.230,K,A*3B
20181930-20:19:25:835585298 $GNGGA,040520.00,3651.88304,S,17443.42231,E,1,06,1.44,14.4,M,28.1,M,,*64
20181930-20:19:25:934613475 $GNGSA,A,3,02,05,26,29,13,,,,,,,,2.11,1.44,1.53*12
20181930-20:19:25:939800245 $GNGSA,A,3,66,,,,,,,,,,,,2.11,1.44,1.53*18
20181930-20:19:26:044905610 $GPGSV,2,1,08,02,30,099,39,04,,,35,05,60,136,40,13,32,049,33*46
20181930-20:19:26:050535089 $GPGSV,2,2,08,15,,,22,20,,,31,26,06,217,36,29,66,226,39*71
20181930-20:19:26:143207068 $GLGSV,2,1,06,66,15,150,37,74,05,212,38,82,,,34,,,,28*6F
20181930-20:19:26:148489047 $GLGSV,2,2,06,,,,28,,,,36*6C
20181930-20:19:26:421013370 $GNGLL,3651.88304,S,17443.42231,E,040520.00,A,A*6C
20181930-20:19:26:425687120 $GNZDA,040520.00,31,01,2018,00,00*73
20181930-20:19:26:743689308 $GNRMC,040521.00,A,3651.88310,S,17443.42229,E,0.136,,310118,,,A*76
20181930-20:19:26:848163058 $GNVTG,,T,,M,0.136,N,0.253,K,A*3D
20181930-20:19:26:853674881 $GNGGA,040521.00,3651.88310,S,17443.42229,E,1,06,1.44,14.6,M,28.1,M,,*6B
20181930-20:19:26:951699620 $GNGSA,A,3,02,05,26,29,13,,,,,,,,2.11,1.44,1.53*12
20181930-20:19:26:957284724 $GNGSA,A,3,66,,,,,,,,,,,,2.11,1.44,1.53*18
20181930-20:19:27:056003630 $GPGSV,2,1,08,02,30,099,38,04,,,34,05,60,136,38,13,32,049,33*49
20181930-20:19:27:061213995 $GPGSV,2,2,08,15,,,22,20,,,31,26,06,217,36,29,66,226,39*71
20181930-20:19:27:160374828 $GLGSV,2,1,06,66,15,150,37,74,05,212,37,82,,,33,,,,26*69
20181930-20:19:27:165185818 $GLGSV,2,2,06,,,,26,,,,36*62
20181930-20:19:27:440888370 $GNGLL,3651.88310,S,17443.42229,E,040521.00,A,A*61
20181930-20:19:27:445429724 $GNZDA,040521.00,31,01,2018,00,00*72
20181930-20:19:27:724601182 $GNRMC,040522.00,A,3651.88328,S,17443.42229,E,0.115,,310118,,,A*7F
20181930-20:19:27:828743526 $GNVTG,,T,,M,0.115,N,0.213,K,A*38
20181930-20:19:27:833813370 $GNGGA,040522.00,3651.88328,S,17443.42229,E,1,06,1.44,14.8,M,28.1,M,,*6D
20181930-20:19:27:932397797 $GNGSA,A,3,02,05,26,29,13,,,,,,,,2.11,1.44,1.53*12
20181930-20:19:27:937273838 $GNGSA,A,3,66,,,,,,,,,,,,2.11,1.44,1.53*18
20181930-20:19:28:036496651 $GPGSV,2,1,08,02,30,099,39,04,,,35,05,60,136,40,13,32,049,36*43
20181930-20:19:28:041410140 $GPGSV,2,2,08,15,,,22,20,,,32,26,06,217,36,29,66,226,38*73
20181930-20:19:28:140980036 $GLGSV,2,1,06,66,15,150,37,74,05,212,37,82,,,33,,,,27*68
20181930-20:19:28:145944047 $GLGSV,2,2,06,,,,27,,,,36*63
20181930-20:19:28:421056494 $GNGLL,3651.88328,S,17443.42229,E,040522.00,A,A*69
20181930-20:19:28:425809828 $GNZDA,040522.00,31,01,2018,00,00*71
20181930-20:19:28:746931130 $GNRMC,040523.00,A,3651.88332,S,17443.42224,E,0.089,,310118,,,A*7C
20181930-20:19:28:851183473 $GNVTG,,T,,M,0.089,N,0.165,K,A*3E
20181930-20:19:28:857414515 $GNGGA,040523.00,3651.88332,S,17443.42224,E,1,06,1.44,15.0,M,28.1,M,,*63
20181930-20:19:28:954931390 $GNGSA,A,3,02,05,26,29,13,,,,,,,,2.11,1.44,1.53*12
20181930-20:19:28:960182067 $GNGSA,A,3,66,,,,,,,,,,,,2.11,1.44,1.53*18
20181930-20:19:29:059005296 $GPGSV,2,1,08,02,30,099,40,04,,,34,05,60,136,38,13,32,049,36*43
20181930-20:19:29:063991390 $GPGSV,2,2,08,15,,,25,20,,,32,26,06,217,37,29,66,226,40*7A
20181930-20:19:29:163229255 $GLGSV,2,1,07,66,15,150,37,67,67,129,,74,05,212,37,82,,,33*56
20181930-20:19:29:168131442 $GLGSV,2,2,07,,,,24,,,,36,,,,34*66
20181930-20:19:29:461085921 $GNGLL,3651.88332,S,17443.42224,E,040523.00,A,A*6E
20181930-20:19:29:465859046 $GNZDA,040523.00,31,01,2018,00,00*70
20181930-20:19:29:728020556 $GNRMC,040524.00,A,3651.88343,S,17443.42220,E,0.052,,310118,,,A*7F
20181930-20:19:29:831834567 $GNVTG,,T,,M,0.052,N,0.096,K,A*35
20181930-20:19:29:837382484 $GNGGA,040524.00,3651.88343,S,17443.42220,E,1,06,1.44,15.2,M,28.1,M,,*64
20181930-20:19:29:936082015 $GNGSA,A,3,02,05,26,29,13,,,,,,,,2.11,1.44,1.53*12
20181930-20:19:29:941074411 $GNGSA,A,3,66,,,,,,,,,,,,2.11,1.44,1.53*18
20181930-20:19:30:040081025 $GPGSV,2,1,08,02,30,099,40,04,,,35,05,60,136,38,13,32,049,36*42
20181930-20:19:30:045175504 $GPGSV,2,2,08,15,,,27,20,,,33,26,06,217,37,29,66,226,40*79
20181930-20:19:30:144410244 $GLGSV,2,1,07,66,15,150,37,67,67,129,26,74,05,212,37,82,,,33*52
20181930-20:19:30:149915348 $GLGSV,2,2,07,,,,26,,,,36,,,,34*64
20181930-20:19:30:441004358 $GNGLL,3651.88343,S,17443.42220,E,040524.00,A,A*6B
20181930-20:19:30:446036077 $GNZDA,040524.00,31,01,2018,00,00*77
20181930-20:19:30:753483212 $GNRMC,040525.00,A,3651.88351,S,17443.42215,E,0.038,,310118,,,A*77
20181930-20:19:30:858500712 $GNVTG,,T,,M,0.038,N,0.070,K,A*31
20181930-20:19:30:863877327 $GNGGA,040525.00,3651.88351,S,17443.42215,E,1,07,1.23,15.4,M,28.1,M,,*66
20181930-20:19:30:961669827 $GNGSA,A,3,02,05,26,29,13,20,,,,,,,1.96,1.23,1.52*1C
20181930-20:19:30:966369410 $GNGSA,A,3,66,,,,,,,,,,,,1.96,1.23,1.52*14
20181930-20:19:31:065713056 $GPGSV,2,1,08,02,30,099,40,04,,,34,05,60,136,38,13,32,049,35*40
20181930-20:19:31:169833785 $GPGSV,2,2,08,15,,,26,20,59,299,32,26,06,217,37,29,66,226,40*47
20181930-20:19:31:174509775 $GLGSV,2,1,07,66,15,150,36,67,67,129,25,74,05,212,37,82,,,33*50
20181930-20:19:31:470832014 $GLGSV,2,2,07,,,,27,,,,35,,,,34*66
20181930-20:19:31:475512691 $GNGLL,3651.88351,S,17443.42215,E,040525.00,A,A*6F
20181930-20:19:31:480274722 $GNZDA,040525.00,31,01,2018,00,00*76
20181930-20:19:31:734175243 $GNRMC,040526.00,A,3651.88366,S,17443.42218,E,0.068,,310118,,,A*78
20181930-20:19:31:838233368 $GNVTG,,T,,M,0.068,N,0.127,K,A*37
20181930-20:19:31:843770452 $GNGGA,040526.00,3651.88366,S,17443.42218,E,1,07,1.23,15.7,M,28.1,M,,*6F
20181930-20:19:31:942142014 $GNGSA,A,3,02,05,26,29,13,20,,,,,,,1.96,1.23,1.53*1D
20181930-20:19:31:946925347 $GNGSA,A,3,66,,,,,,,,,,,,1.96,1.23,1.53*15
20181930-20:19:32:046342587 $GPGSV,2,1,08,02,30,099,40,04,,,33,05,60,136,40,13,32,049,34*49
20181930-20:19:32:150448316 $GPGSV,2,2,08,15,,,25,20,59,299,33,26,06,217,36,29,66,226,39*4A
20181930-20:19:32:155393056 $GLGSV,2,1,07,66,15,150,36,67,67,129,22,74,05,212,37,82,,,33*57
20181930-20:19:32:451005816 $GLGSV,2,2,07,,,,28,,,,35,,,,35*68
20181930-20:19:32:456127535 $GNGLL,3651.88366,S,17443.42218,E,040526.00,A,A*65
20181930-20:19:32:461409097 $GNZDA,040526.00,31,01,2018,00,00*75
20181930-20:19:32:758591910 $GNRMC,040527.00,A,3651.88377,S,17443.42220,E,0.048,,310118,,,A*70
20181930-20:19:32:862402430 $GNVTG,,T,,M,0.048,N,0.088,K,A*31
20181930-20:19:32:867397795 $GNGGA,040527.00,3651.88377,S,17443.42220,E,1,07,1.23,15.9,M,28.1,M,,*6B
20181930-20:19:32:966591337 $GNGSA,A,3,02,05,26,29,13,20,,,,,,,1.96,1.23,1.53*1D
20181930-20:19:32:971470868 $GNGSA,A,3,66,,,,,,,,,,,,1.96,1.23,1.53*15
20181930-20:19:33:070780139 $GPGSV,2,1,08,02,30,099,40,04,,,33,05,60,136,39,13,32,049,33*40
20181930-20:19:33:174786389 $GPGSV,2,2,08,15,,,26,20,59,299,34,26,06,217,37,29,66,226,41*40
20181930-20:19:33:179763003 $GLGSV,2,1,08,66,15,150,35,67,67,129,20,68,50,347,,74,05,212,36*69
20181930-20:19:33:278921649 $GLGSV,2,2,08,82,,,31,,,,27,,,,35,,,,34*61
20181930-20:19:33:283625034 $GNGLL,3651.88377,S,17443.42220,E,040527.00,A,A*6F
20181930-20:19:33:490746961 $GNZDA,040527.00,31,01,2018,00,00*74
20181930-20:19:33:736303992 $GNRMC,040528.00,A,3651.88387,S,17443.42223,E,0.331,,310118,,,A*7E
20181930-20:19:33:841505763 $GNVTG,,T,,M,0.331,N,0.613,K,A*38
20181930-20:19:33:847969670 $GNGGA,040528.00,3651.88387,S,17443.42223,E,1,07,1.23,16.2,M,28.1,M,,*60
20181930-20:19:33:944570815 $GNGSA,A,3,02,05,26,29,13,20,,,,,,,1.96,1.23,1.53*1D
20181930-20:19:33:949560399 $GNGSA,A,3,66,,,,,,,,,,,,1.96,1.23,1.53*15
20181930-20:19:34:048764774 $GPGSV,2,1,08,02,30,099,39,04,,,33,05,60,136,39,13,32,049,30*4D
20181930-20:19:34:152699930 $GPGSV,2,2,08,15,,,26,20,59,299,33,26,06,217,37,29,66,226,41*47
20181930-20:19:34:157588524 $GLGSV,2,1,07,66,15,150,35,67,67,129,18,68,50,347,34,74,05,212,36*6A
20181930-20:19:34:256813419 $GLGSV,2,2,07,82,,,31,,,,28,,,,36*65
20181930-20:19:34:261600503 $GNGLL,3651.88387,S,17443.42223,E,040528.00,A,A*6C
20181930-20:19:34:460975971 $GNZDA,040528.00,31,01,2018,00,00*7B
20181930-20:19:34:749037430 $GNRMC,040529.00,A,3651.88391,S,17443.42226,E,0.340,,310118,,,A*7B
20181930-20:19:34:852744461 $GNVTG,,T,,M,0.340,N,0.629,K,A*37
20181930-20:19:34:857770086 $GNGGA,040529.00,3651.88391,S,17443.42226,E,1,06,1.81,16.2,M,28.1,M,,*6A
20181930-20:19:34:956916127 $GNGSA,A,3,02,05,26,29,20,,,,,,,,2.64,1.81,1.93*15
20181930-20:19:34:961920398 $GNGSA,A,3,66,,,,,,,,,,,,2.64,1.81,1.93*1F
20181930-20:19:35:060875086 $GPGSV,2,1,08,02,30,099,39,04,,,34,05,60,136,39,13,32,049,*49
20181930-20:19:35:164988732 $GPGSV,2,2,08,15,,,27,20,59,299,34,26,06,217,37,29,66,226,41*41
20181930-20:19:35:169761179 $GLGSV,2,1,07,66,15,150,34,67,67,129,16,68,50,347,34,74,05,212,37*64
20181930-20:19:35:470963263 $GLGSV,2,2,07,82,,,30,,,,29,,,,37*64
20181930-20:19:35:475921440 $GNGLL,3651.88391,S,17443.42226,E,040529.00,A,A*6F
20181930-20:19:35:480837794 $GNZDA,040529.00,31,01,2018,00,00*7A
20181930-20:19:35:749712742 $GNRMC,040530.00,A,3651.88393,S,17443.42225,E,0.535,,310118,,,A*76
20181930-20:19:35:853693679 $GNVTG,,T,,M,0.535,N,0.991,K,A*3F
20181930-20:19:35:858796908 $GNGGA,040530.00,3651.88393,S,17443.42225,E,1,07,1.23,16.3,M,28.1,M,,*6B
20181930-20:19:35:958200502 $GNGSA,A,3,02,05,26,29,13,20,,,,,,,1.96,1.23,1.53*1D
20181930-20:19:35:963248523 $GNGSA,A,3,66,,,,,,,,,,,,1.96,1.23,1.53*15
20181930-20:19:36:061962481 $GPGSV,2,1,08,02,30,099,39,04,,,36,05,60,136,39,13,32,049,29*40
20181930-20:19:36:166125294 $GPGSV,2,2,08,15,,,26,20,59,299,34,26,06,217,37,29,66,226,40*41
20181930-20:19:36:171509460 $GLGSV,2,1,07,66,15,150,34,67,67,129,19,68,50,347,37,74,05,212,37*68
20181930-20:19:36:270037064 $GLGSV,2,2,07,82,,,31,,,,30,,,,37*6D
20181930-20:19:36:274714356 $GNGLL,3651.88393,S,17443.42225,E,040530.00,A,A*66
20181930-20:19:36:480807689 $GNZDA,040530.00,31,01,2018,00,00*72
20181930-20:19:36:778248106 $GNRMC,040531.00,A,3651.88399,S,17443.42226,E,0.438,,310118,,,A*72
20181930-20:19:36:882188158 $GNVTG,,T,,M,0.438,N,0.812,K,A*39
20181930-20:19:36:887133210 $GNGGA,040531.00,3651.88399,S,17443.42226,E,1,07,1.19,16.3,M,28.1,M,,*6A
20181930-20:19:36:986652950 $GNGSA,A,3,02,05,26,29,13,20,,,,,,,1.92,1.19,1.50*13
20181930-20:19:36:991915085 $GNGSA,A,3,66,,,,,,,,,,,,1.92,1.19,1.50*1B
20181930-20:19:37:090388627 $GPGSV,2,1,08,02,30,099,36,04,,,36,05,60,136,40,13,32,049,30*49
20181930-20:19:37:194483627 $GPGSV,2,2,08,15,,,25,20,59,299,35,26,06,217,36,29,66,226,40*42
20181930-20:19:37:199307741 $GLGSV,2,1,08,66,15,150,38,67,67,129,29,68,50,347,38,69,02,335,*6C
20181930-20:19:37:298584772 $GLGSV,2,2,08,74,05,212,37,82,,,33,,,,29,,,,37*5B
20181930-20:19:37:303803210 $GNGLL,3651.88399,S,17443.42226,E,040531.00,A,A*6E
20181930-20:19:37:521014876 $GNZDA,040531.00,31,01,2018,00,00*73
20181930-20:19:37:746853626 $GNRMC,040532.00,A,3651.88411,S,17443.42230,E,0.167,,310118,,,A*7E
20181930-20:19:37:850862012 $GNVTG,,T,,M,0.167,N,0.308,K,A*36
20181930-20:19:37:855902637 $GNGGA,040532.00,3651.88411,S,17443.42230,E,1,07,1.19,16.5,M,28.1,M,,*6F
20181930-20:19:37:954929408 $GNGSA,A,3,02,05,26,29,13,20,,,,,,,1.92,1.19,1.50*13
20181930-20:19:37:959830293 $GNGSA,A,3,66,,,,,,,,,,,,1.92,1.19,1.50*1B
20181930-20:19:38:059115449 $GPGSV,2,1,08,02,30,099,36,04,,,37,05,60,136,40,13,32,049,29*40
20181930-20:19:38:163118574 $GPGSV,2,2,08,15,,,21,20,59,299,35,26,06,217,36,29,66,226,41*47
20181930-20:19:38:167943782 $GLGSV,2,1,08,66,15,150,38,67,67,129,30,68,50,347,38,69,02,335,*64
20181930-20:19:38:267179095 $GLGSV,2,2,08,74,05,212,37,82,,,37,,,,29,,,,38*50
20181930-20:19:38:272046439 $GNGLL,3651.88411,S,17443.42230,E,040532.00,A,A*6D
20181930-20:19:38:490908053 $GNZDA,040532.00,31,01,2018,00,00*70
20181930-20:19:38:784241699 $GNRMC,040533.00,A,3651.88425,S,17443.42235,E,0.164,,310118,,,A*7E
20181930-20:19:38:888331178 $GNVTG,,T,,M,0.164,N,0.304,K,A*39
20181930-20:19:38:893173991 $GNGGA,040533.00,3651.88425,S,17443.42235,E,1,08,1.15,16.7,M,28.1,M,,*6D
20181930-20:19:38:992333678 $GNGSA,A,3,02,05,26,29,13,20,,,,,,,1.79,1.15,1.37*1B
20181930-20:19:38:997298209 $GNGSA,A,3,66,82,,,,,,,,,,,1.79,1.15,1.37*19
20181930-20:19:39:096493157 $GPGSV,2,1,08,02,30,099,35,04,,,39,05,60,136,42,13,32,049,29*4F
20181930-20:19:39:200655032 $GPGSV,2,2,08,15,,,24,20,59,299,35,26,06,217,36,29,66,226,43*40
20181930-20:19:39:205454147 $GLGSV,2,1,08,66,15,150,38,67,67,129,28,68,50,347,38,69,02,335,*6D
20181930-20:19:39:304764563 $GLGSV,2,2,08,74,05,212,36,82,63,112,37,,,,29,,,,38*66
20181930-20:19:39:310319355 $GNGLL,3651.88425,S,17443.42235,E,040533.00,A,A*6E
20181930-20:19:39:530846334 $GNZDA,040533.00,31,01,2018,00,00*71
20181930-20:19:39:758538209 $GNRMC,040534.00,A,3651.88445,S,17443.42248,E,0.168,,310118,,,A*79
20181930-20:19:39:862417636 $GNVTG,,T,,M,0.168,N,0.310,K,A*30
20181930-20:19:39:867423886 $GNGGA,040534.00,3651.88445,S,17443.42248,E,1,08,1.15,16.9,M,28.1,M,,*68
20181930-20:19:39:966672376 $GNGSA,A,3,02,05,26,29,13,20,,,,,,,1.79,1.15,1.37*1B
20181930-20:19:39:971763053 $GNGSA,A,3,66,82,,,,,,,,,,,1.79,1.15,1.37*19
20181930-20:19:40:070820344 $GPGSV,2,1,08,02,30,099,36,04,,,39,05,60,136,42,13,32,049,28*4D
20181930-20:19:40:174827636 $GPGSV,2,2,08,15,,,25,20,59,299,36,26,06,217,32,29,66,226,44*41
20181930-20:19:40:179840657 $GLGSV,2,1,08,66,15,150,36,67,67,129,33,68,50,347,35,69,02,335,*64
20181930-20:19:40:278988730 $GLGSV,2,2,08,74,05,212,33,82,63,112,37,,,,29,,,,37*6C
20181930-20:19:40:283750865 $GNGLL,3651.88445,S,17443.42248,E,040534.00,A,A*65
20181930-20:19:40:510849250 $GNZDA,040534.00,31,01,2018,00,00*76
20181930-20:19:40:778014511 $GNRMC,040535.00,A,3651.88462,S,17443.42261,E,0.027,,310118,,,A*7C
20181930-20:19:40:881747115 $GNVTG,,T,,M,0.027,N,0.050,K,A*3D
20181930-20:19:40:886607583 $GNGGA,040535.00,3651.88462,S,17443.42261,E,1,08,1.15,17.2,M,28.1,M,,*6D
20181930-20:19:40:985937427 $GNGSA,A,3,02,05,26,29,13,20,,,,,,,1.79,1.15,1.37*1B
20181930-20:19:40:990928677 $GNGSA,A,3,66,82,,,,,,,,,,,1.79,1.15,1.37*19
20181930-20:19:41:090197896 $GPGSV,2,1,08,02,30,099,32,04,,,37,05,60,136,42,13,32,049,27*48
20181930-20:19:41:194157167 $GPGSV,2,2,08,15,,,24,20,59,299,37,26,06,217,23,29,66,226,45*40
20181930-20:19:41:199070500 $GLGSV,2,1,08,66,15,150,32,67,67,129,32,68,50,347,35,69,02,335,*61
20181930-20:19:41:299032740 $GLGSV,2,2,08,74,05,212,27,82,63,112,37,,,,28,,,,38*67
20181930-20:19:41:305107375 $GNGLL,3651.88462,S,17443.42261,E,040535.00,A,A*6A
20181930-20:19:41:520969094 $GNZDA,040535.00,31,01,2018,00,00*77
20181930-20:19:41:758346698 $GNRMC,040536.00,A,3651.88469,S,17443.42270,E,0.043,,310118,,,A*76
20181930-20:19:41:862169927 $GNVTG,,T,,M,0.043,N,0.079,K,A*34
20181930-20:19:41:866852062 $GNGGA,040536.00,3651.88469,S,17443.42270,E,1,08,1.15,17.3,M,28.1,M,,*64
20181930-20:19:41:966455396 $GNGSA,A,3,02,05,26,29,13,20,,,,,,,1.79,1.15,1.37*1B
20181930-20:19:41:971358052 $GNGSA,A,3,66,82,,,,,,,,,,,1.79,1.15,1.37*19
20181930-20:19:42:070569302 $GPGSV,2,1,08,02,30,099,37,04,,,31,05,60,136,42,13,32,049,27*4B
20181930-20:19:42:174752583 $GPGSV,2,2,08,15,,,22,20,59,299,38,26,06,217,23,29,66,226,45*49
20181930-20:19:42:179684041 $GLGSV,2,1,08,66,15,150,31,67,67,129,33,68,50,347,33,69,02,335,*65
20181930-20:19:42:279130656 $GLGSV,2,2,08,74,05,212,24,82,63,112,35,,,,28,,,,38*66
20181930-20:19:42:284489510 $GNGLL,3651.88469,S,17443.42270,E,040536.00,A,A*62
20181930-20:19:42:510890864 $GNZDA,040536.00,31,01,2018,00,00*74
20181930-20:19:42:772958416 $GNRMC,040537.00,A,3651.88472,S,17443.42279,E,0.075,,310118,,,A*71
20181930-20:19:42:876855499 $GNVTG,,T,,M,0.075,N,0.139,K,A*34
20181930-20:19:42:881993572 $GNGGA,040537.00,3651.88472,S,17443.42279,E,1,08,1.15,17.3,M,28.1,M,,*66
20181930-20:19:42:980994614 $GNGSA,A,3,02,05,26,29,13,20,,,,,,,1.79,1.15,1.37*1B
20181930-20:19:42:985938156 $GNGSA,A,3,66,82,,,,,,,,,,,1.79,1.15,1.37*19
20181930-20:19:43:085018416 $GPGSV,2,1,08,02,29,099,37,04,,,31,05,60,136,43,13,32,049,28*4D
20181930-20:19:43:189186749 $GPGSV,2,2,08,15,,,20,20,59,299,38,26,06,217,22,29,66,226,45*4A
20181930-20:19:43:194186906 $GLGSV,2,1,08,66,15,150,32,67,67,129,33,68,50,347,33,69,02,335,*66
20181930-20:19:43:294302322 $GLGSV,2,2,08,74,05,212,23,82,63,112,35,,,,27,,,,38*6E
20181930-20:19:43:299922999 $GNGLL,3651.88472,S,17443.42279,E,040537.00,A,A*60
20181930-20:19:43:520957322 $GNZDA,040537.00,31,01,2018,00,00*75
20181930-20:19:43:758508364 $GNRMC,040538.00,A,3651.88469,S,17443.42283,E,0.150,,310118,,,A*77
20181930-20:19:43:862259353 $GNVTG,,T,,M,0.150,N,0.277,K,A*3B
20181930-20:19:43:867452895 $GNGGA,040538.00,3651.88469,S,17443.42283,E,1,08,1.15,17.3,M,28.1,M,,*66
20181930-20:19:43:966410707 $GNGSA,A,3,02,05,26,29,13,20,,,,,,,1.79,1.15,1.37*1B
20181930-20:19:43:971331124 $GNGSA,A,3,66,82,,,,,,,,,,,1.79,1.15,1.37*19
20181930-20:19:44:070788311 $GPGSV,2,1,08,02,29,099,37,04,,,32,05,60,136,43,13,32,049,30*47
20181930-20:19:44:174497791 $GPGSV,2,2,08,15,,,19,20,59,299,38,26,06,217,22,29,66,226,45*40
20181930-20:19:44:179593832 $GLGSV,2,1,08,66,15,150,33,67,67,129,33,68,50,347,33,69,02,335,*67
20181930-20:19:44:279036853 $GLGSV,2,2,08,74,05,212,22,82,63,112,35,,,,26,,,,38*6E
20181930-20:19:44:284318520 $GNGLL,3651.88469,S,17443.42283,E,040538.00,A,A*60
20181930-20:19:44:500885603 $GNZDA,040538.00,31,01,2018,00,00*7A
20181930-20:19:44:806340394 $GNRMC,040539.00,A,3651.88468,S,17443.42287,E,0.079,,310118,,,A*79
20181930-20:19:44:910312634 $GNVTG,,T,,M,0.079,N,0.146,K,A*30
20181930-20:19:44:915352217 $GNGGA,040539.00,3651.88468,S,17443.42287,E,1,10,0.97,17.3,M,28.1,M,,*60
20181930-20:19:45:014503884 $GNGSA,A,3,02,05,26,29,13,20,,,,,,,1.64,0.97,1.32*19
20181930-20:19:45:019593624 $GNGSA,A,3,66,82,68,83,,,,,,,,,1.64,0.97,1.32*1E
20181930-20:19:45:118890603 $GPGSV,2,1,08,02,29,099,38,04,,,32,05,60,136,43,13,32,049,30*48
20181930-20:19:45:222850603 $GPGSV,2,2,08,15,,,22,20,59,299,38,26,06,217,21,29,66,226,45*4B
20181930-20:19:45:227947374 $GLGSV,2,1,08,66,15,150,32,67,67,129,32,68,50,347,33,69,02,335,*67
20181930-20:19:45:326864248 $GLGSV,2,2,08,74,05,212,22,82,63,112,35,83,41,207,38,,,,26*55
20181930-20:19:45:331714821 $GNGLL,3651.88468,S,17443.42287,E,040539.00,A,A*64
20181930-20:19:45:560981905 $GNZDA,040539.00,31,01,2018,00,00*7B
20181930-20:19:45:759210863 $GNRMC,040540.00,A,3651.88469,S,17443.42292,E,0.062,,310118,,,A*78
20181930-20:19:45:863076227 $GNVTG,,T,,M,0.062,N,0.114,K,A*3D
20181930-20:19:45:868204144 $GNGGA,040540.00,3651.88469,S,17443.42292,E,1,10,0.97,17.4,M,28.1,M,,*6C
20181930-20:19:45:967313363 $GNGSA,A,3,02,05,26,29,13,20,,,,,,,1.64,0.97,1.32*19
20181930-20:19:45:972162477 $GNGSA,A,3,66,82,68,83,,,,,,,,,1.64,0.97,1.32*1E
20181930-20:19:46:071404196 $GPGSV,2,1,08,02,29,099,37,04,,,33,05,60,136,43,13,32,049,29*4E
20181930-20:19:46:175518779 $GPGSV,2,2,08,15,,,23,20,59,299,38,26,06,217,19,29,66,226,45*41
20181930-20:19:46:180518623 $GLGSV,2,1,08,66,15,150,33,67,67,129,32,68,50,347,33,69,02,335,*66
20181930-20:19:46:280427738 $GLGSV,2,2,08,74,05,212,25,82,63,112,35,83,41,207,38,,,,27*53
20181930-20:19:46:286036436 $GNGLL,3651.88469,S,17443.42292,E,040540.00,A,A*6F
20181930-20:19:46:520832425 $GNZDA,040540.00,31,01,2018,00,00*75
20181930-20:19:46:786303571 $GNRMC,040541.00,A,3651.88469,S,17443.42298,E,0.104,,310118,,,A*72
20181930-20:19:46:889953467 $GNVTG,,T,,M,0.104,N,0.193,K,A*33
20181930-20:19:46:894662217 $GNGGA,040541.00,3651.88469,S,17443.42298,E,1,10,0.97,17.5,M,28.1,M,,*66
20181930-20:19:46:994051331 $GNGSA,A,3,02,05,26,29,13,20,,,,,,,1.64,0.97,1.32*19
20181930-20:19:46:999191904 $GNGSA,A,3,66,82,68,83,,,,,,,,,1.64,0.97,1.32*1E
20181930-20:19:47:098611539 $GPGSV,2,1,08,02,29,099,37,04,,,34,05,60,136,42,13,32,049,29*48
20181930-20:19:47:202572216 $GPGSV,2,2,08,15,,,22,20,59,299,38,26,06,217,18,29,66,226,45*41
20181930-20:19:47:207816435 $GLGSV,2,1,08,66,15,150,33,67,67,129,32,68,50,347,33,69,02,335,*66
20181930-20:19:47:306788362 $GLGSV,2,2,08,74,05,212,26,82,63,112,35,83,41,207,38,,,,28*5F
20181930-20:19:47:311992894 $GNGLL,3651.88469,S,17443.42298,E,040541.00,A,A*64
20181930-20:19:47:541059560 $GNZDA,040541.00,31,01,2018,00,00*74
20181930-20:19:47:770001539 $GNRMC,040542.00,A,3651.88472,S,17443.42305,E,0.141,,310118,,,A*7F
20181930-20:19:47:872681331 $GNVTG,,T,,M,0.141,N,0.261,K,A*3C
20181930-20:19:47:877782737 $GNGGA,040542.00,3651.88472,S,17443.42305,E,1,10,0.97,17.6,M,28.1,M,,*69
20181930-20:19:47:976872008 $GNGSA,A,3,02,05,26,29,13,20,,,,,,,1.64,0.97,1.32*19
20181930-20:19:47:981702737 $GNGSA,A,3,66,82,68,83,,,,,,,,,1.64,0.97,1.32*1E
20181930-20:19:48:081246695 $GPGSV,2,1,08,02,29,099,36,04,,,35,05,60,136,42,13,32,049,28*49
20181930-20:19:48:185162372 $GPGSV,2,2,08,15,,,22,20,59,299,38,26,06,217,18,29,66,226,45*41
20181930-20:19:48:190335966 $GLGSV,2,1,08,66,15,150,32,67,67,129,33,68,50,347,34,69,02,335,*61
20181930-20:19:48:289479664 $GLGSV,2,2,08,74,05,212,26,82,63,112,35,83,41,207,38,,,,28*5F
20181930-20:19:48:294555549 $GNGLL,3651.88472,S,17443.42305,E,040542.00,A,A*68
20181930-20:19:48:530813987 $GNZDA,040542.00,31,01,2018,00,00*77
20181930-20:19:48:788168310 $GNRMC,040543.00,A,3651.88477,S,17443.42314,E,0.127,,310118,,,A*7B
20181930-20:19:48:892024612 $GNVTG,,T,,M,0.127,N,0.235,K,A*3D
20181930-20:19:48:897197008 $GNGGA,040543.00,3651.88477,S,17443.42314,E,1,10,0.97,17.8,M,28.1,M,,*63
20181930-20:19:48:996465966 $GNGSA,A,3,02,05,26,29,13,20,,,,,,,1.64,0.97,1.32*19
20181930-20:19:49:001615393 $GNGSA,A,3,66,82,68,83,,,,,,,,,1.64,0.97,1.32*1E
20181930-20:19:49:100684612 $GPGSV,2,1,08,02,29,099,36,04,,,38,05,60,136,42,13,32,049,28*44
20181930-20:19:49:204673622 $GPGSV,2,2,08,15,,,22,20,59,299,38,26,06,217,19,29,66,226,44*41
20181930-20:19:49:209655289 $GLGSV,2,1,08,66,15,150,32,67,67,129,35,68,50,347,34,69,02,335,*67
20181930-20:19:49:308825705 $GLGSV,2,2,08,74,05,212,26,82,63,112,36,83,41,207,38,,,,27*53
20181930-20:19:49:313759507 $GNGLL,3651.88477,S,17443.42314,E,040543.00,A,A*6C
20181930-20:19:49:550928622 $GNZDA,040543.00,31,01,2018,00,00*76
20181930-20:19:49:758127059 $GNRMC,040544.00,A,3651.88485,S,17443.42324,E,0.070,,310118,,,A*71
20181930-20:19:49:861563674 $GNVTG,,T,,M,0.070,N,0.130,K,A*38
20181930-20:19:49:866647111 $GNGGA,040544.00,3651.88485,S,17443.42324,E,1,10,0.97,18.1,M,28.1,M,,*6C
20181930-20:19:49:965623153 $GNGSA,A,3,02,05,26,29,13,20,,,,,,,1.64,0.97,1.32*19
20181930-20:19:49:970609924 $GNGSA,A,3,66,82,68,83,,,,,,,,,1.64,0.97,1.32*1E
20181930-20:19:50:069587788 $GPGSV,2,1,08,02,29,099,35,04,,,38,05,60,136,42,13,32,049,28*47
20181930-20:19:50:173603778 $GPGSV,2,2,08,15,,,21,20,59,299,38,26,06,217,23,29,66,226,44*4B
20181930-20:19:50:178489195 $GLGSV,2,1,08,66,15,150,30,67,67,129,35,68,50,347,35,69,02,335,*64
20181930-20:19:50:278039819 $GLGSV,2,2,08,74,05,212,26,82,63,112,36,83,41,207,37,,,,27*5C
20181930-20:19:50:283152736 $GNGLL,3651.88485,S,17443.42324,E,040544.00,A,A*65
20181930-20:19:50:520921746 $GNZDA,040544.00,31,01,2018,00,00*71
20181930-20:19:50:794307371 $GNRMC,040545.00,A,3651.88492,S,17443.42333,E,0.095,,310118,,,A*7B
20181930-20:19:50:898242059 $GNVTG,,T,,M,0.095,N,0.175,K,A*32
20181930-20:19:50:903257111 $GNGGA,040545.00,3651.88492,S,17443.42333,E,1,10,0.97,18.3,M,28.1,M,,*6F
20181930-20:19:51:002285028 $GNGSA,A,3,02,05,26,29,13,20,,,,,,,1.64,0.97,1.32*19
20181930-20:19:51:007447423 $GNGSA,A,3,66,82,68,83,,,,,,,,,1.64,0.97,1.32*1E
20181930-20:19:51:106458100 $GPGSV,2,1,08,02,29,099,34,04,,,39,05,60,136,43,13,32,049,29*47
20181930-20:19:51:210369559 $GPGSV,2,2,08,15,,,23,20,59,299,37,26,06,217,27,29,66,226,44*42
20181930-20:19:51:215288152 $GLGSV,2,1,08,66,15,150,31,67,67,129,36,68,50,347,35,69,02,335,*66
20181930-20:19:51:314712840 $GLGSV,2,2,08,74,05,212,26,82,63,112,37,83,41,207,37,,,,28*52
20181930-20:19:51:319729402 $GNGLL,3651.88492,S,17443.42333,E,040545.00,A,A*64
20181930-20:19:51:550925340 $GNZDA,040545.00,31,01,2018,00,00*70
20181930-20:19:51:761313100 $GNRMC,040546.00,A,3651.88499,S,17443.42340,E,0.043,,310118,,,A*7C
20181930-20:19:51:864822892 $GNVTG,,T,,M,0.043,N,0.080,K,A*32
20181930-20:19:51:869847736 $GNGGA,040546.00,3651.88499,S,17443.42340,E,1,10,0.97,18.4,M,28.1,M,,*64
20181930-20:19:51:969341017 $GNGSA,A,3,02,05,26,29,13,20,,,,,,,1.64,0.97,1.32*19
20181930-20:19:51:974343308 $GNGSA,A,3,66,82,68,83,,,,,,,,,1.64,0.97,1.32*1E
20181930-20:19:52:073149975 $GPGSV,2,1,08,02,29,099,30,04,,,39,05,60,136,42,13,32,049,29*42
20181930-20:19:52:177396590 $GPGSV,2,2,08,15,,,20,20,59,299,36,26,06,217,33,29,66,226,44*45
20181930-20:19:52:182364090 $GLGSV,2,1,08,66,15,150,32,67,67,129,35,68,50,347,36,69,02,335,*65
20181930-20:19:52:281568881 $GLGSV,2,2,08,74,05,212,27,82,63,112,37,83,41,207,37,,,,29*52
20181930-20:19:52:286867996 $GNGLL,3651.88499,S,17443.42340,E,040546.00,A,A*68
20181930-20:19:52:520889975 $GNZDA,040546.00,31,01,2018,00,00*73
20181930-20:19:52:786514402 $GNRMC,040547.00,A,3651.88500,S,17443.42348,E,0.034,,310118,,,A*74
20181930-20:19:52:890588725 $GNVTG,,T,,M,0.034,N,0.063,K,A*3F
20181930-20:19:52:895769975 $GNGGA,040547.00,3651.88500,S,17443.42348,E,1,10,0.97,18.9,M,28.1,M,,*61
20181930-20:19:52:994481485 $GNGSA,A,3,02,05,26,29,13,20,,,,,,,1.64,0.97,1.32*19
20181930-20:19:52:999605287 $GNGSA,A,3,66,82,68,83,,,,,,,,,1.64,0.97,1.32*1E
20181930-20:19:53:098671746 $GPGSV,2,1,08,02,29,099,31,04,,,39,05,60,136,43,13,32,049,29*42
20181930-20:19:53:202597631 $GPGSV,2,2,08,15,,,19,20,59,299,36,26,06,217,35,29,66,226,44*49
20181930-20:19:53:207404245 $GLGSV,2,1,08,66,15,150,36,67,67,129,35,68,50,347,36,69,02,335,*61
20181930-20:19:53:306988985 $GLGSV,2,2,08,74,05,212,30,82,63,112,37,83,41,207,38,,,,30*53
20181930-20:19:53:312018100 $GNGLL,3651.88500,S,17443.42348,E,040547.00,A,A*60
20181930-20:19:53:540769818 $GNZDA,040547.00,31,01,2018,00,00*72
20181930-20:19:53:767903829 $GNRMC,040548.00,A,3651.88504,S,17443.42351,E,0.014,,310118,,,A*75
20181930-20:19:53:872241433 $GNVTG,,T,,M,0.014,N,0.025,K,A*3F
20181930-20:19:53:877480704 $GNGGA,040548.00,3651.88504,S,17443.42351,E,1,10,0.97,19.0,M,28.1,M,,*6A
20181930-20:19:53:976451901 $GNGSA,A,3,02,05,26,29,13,20,,,,,,,1.64,0.97,1.32*19
20181930-20:19:53:981348256 $GNGSA,A,3,66,82,68,83,,,,,,,,,1.64,0.97,1.32*1E
20181930-20:19:54:080221485 $GPGSV,2,1,08,02,29,099,31,04,,,39,05,60,136,43,13,32,049,28*43
20181930-20:19:54:184333256 $GPGSV,2,2,08,15,,,17,20,59,299,35,26,06,217,36,29,66,226,44*47
20181930-20:19:54:189499245 $GLGSV,2,1,08,66,15,150,36,67,67,129,36,68,50,347,36,69,02,335,*62
20181930-20:19:54:288765808 $GLGSV,2,2,08,74,05,212,35,82,63,112,36,83,41,207,38,,,,31*56
20181930-20:19:54:293494245 $GNGLL,3651.88504,S,17443.42351,E,040548.00,A,A*63
20181930-20:19:54:530814193 $GNZDA,040548.00,31,01,2018,00,00*7D
20181930-20:19:54:795718620 $GNRMC,040549.00,A,3651.88507,S,17443.42354,E,0.080,,310118,,,A*7F
20181930-20:19:54:899845443 $GNVTG,,T,,M,0.080,N,0.148,K,A*38
20181930-20:19:54:904938932 $GNGGA,040549.00,3651.88507,S,17443.42354,E,1,10,0.97,19.2,M,28.1,M,,*6F
20181930-20:19:55:003979661 $GNGSA,A,3,02,05,26,29,13,20,,,,,,,1.64,0.97,1.32*19
20181930-20:19:55:009173776 $GNGSA,A,3,66,82,68,83,,,,,,,,,1.64,0.97,1.32*1E
20181930-20:19:55:108272266 $GPGSV,2,1,07,02,29,099,31,04,,,40,05,60,136,43,13,32,049,29*43
20181930-20:19:55:211986588 $GPGSV,2,2,07,20,59,299,35,26,06,217,37,29,66,226,43*4C
20181930-20:19:55:217089141 $GLGSV,2,1,08,66,15,150,37,67,67,129,35,68,50,347,37,69,02,335,*61
20181930-20:19:55:316107213 $GLGSV,2,2,08,74,05,212,34,82,63,112,37,83,41,207,37,,,,31*59
20181930-20:19:55:321219193 $GNGLL,3651.88507,S,17443.42354,E,040549.00,A,A*64
20181930-20:19:55:550833307 $GNZDA,040549.00,31,01,2018,00,00*7C
20181930-20:19:55:764674140 $GNRMC,040550.00,A,3651.88511,S,17443.42358,E,0.033,,310118,,,A*74
20181930-20:19:55:869558307 $GNVTG,,T,,M,0.033,N,0.062,K,A*39
20181930-20:19:55:874572734 $GNGGA,040550.00,3651.88511,S,17443.42358,E,1,10,0.97,19.4,M,28.1,M,,*6A
20181930-20:19:55:973697682 $GNGSA,A,3,02,05,26,29,13,20,,,,,,,1.64,0.97,1.32*19
20181930-20:19:55:978547109 $GNGSA,A,3,66,82,68,83,,,,,,,,,1.64,0.97,1.32*1E
20181930-20:19:56:078217526 $GPGSV,2,1,07,02,29,099,32,04,,,40,05,60,136,44,13,32,049,29*47
20181930-20:19:56:181901796 $GPGSV,2,2,07,20,59,299,35,26,06,217,37,29,66,226,42*4D
20181930-20:19:56:186677005 $GLGSV,2,1,08,66,15,150,37,67,67,129,35,68,50,347,37,69,02,335,*61
20181930-20:19:56:286402109 $GLGSV,2,2,08,74,05,212,35,82,63,112,36,83,41,207,37,,,,32*5A
20181930-20:19:56:291708828 $GNGLL,3651.88511,S,17443.42358,E,040550.00,A,A*67
20181930-20:19:56:510997890 $GNZDA,040550.00,31,01,2018,00,00*74
20181930-20:19:56:807996067 $GNRMC,040551.00,A,3651.88516,S,17443.42359,E,0.017,,310118,,,A*75
20181930-20:19:56:911924661 $GNVTG,,T,,M,0.017,N,0.032,K,A*3A
20181930-20:19:56:917115807 $GNGGA,040551.00,3651.88516,S,17443.42359,E,1,10,0.97,19.4,M,28.1,M,,*6D
20181930-20:19:57:016121015 $GNGSA,A,3,02,05,26,29,13,20,,,,,,,1.64,0.97,1.32*19
20181930-20:19:57:021248150 $GNGSA,A,3,66,82,68,83,,,,,,,,,1.64,0.97,1.32*1E
20181930-20:19:57:120463984 $GPGSV,2,1,07,02,29,099,32,04,,,40,05,60,136,44,13,32,049,29*47
20181930-20:19:57:224191848 $GPGSV,2,2,07,20,59,299,35,26,06,217,38,29,66,226,43*43
20181930-20:19:57:229214973 $GLGSV,2,1,08,66,15,150,36,67,67,129,35,68,50,347,37,69,02,335,*60
20181930-20:19:57:328715806 $GLGSV,2,2,08,74,05,212,36,82,63,112,36,83,41,207,36,,,,32*58
20181930-20:19:57:333738306 $GNGLL,3651.88516,S,17443.42359,E,040551.00,A,A*60
20181930-20:19:57:561074452 $GNZDA,040551.00,31,01,2018,00,00*75
20181930-20:19:57:772706275 $GNRMC,040552.00,A,3651.88522,S,17443.42357,E,0.048,,310118,,,A*75
20181930-20:19:57:876547056 $GNVTG,,T,,M,0.048,N,0.089,K,A*30
20181930-20:19:57:881720546 $GNGGA,040552.00,3651.88522,S,17443.42357,E,1,10,0.97,19.4,M,28.1,M,,*67
20181930-20:19:57:980821014 $GNGSA,A,3,02,05,26,29,13,20,,,,,,,1.64,0.97,1.32*19
20181930-20:19:57:985788879 $GNGSA,A,3,66,82,68,83,,,,,,,,,1.64,0.97,1.32*1E
20181930-20:19:58:084822369 $GPGSV,2,1,07,02,29,099,32,04,,,40,05,60,136,44,13,32,049,29*47
20181930-20:19:58:188793046 $GPGSV,2,2,07,20,59,299,35,26,06,217,38,29,66,226,43*43
20181930-20:19:58:193477369 $GLGSV,2,1,08,66,15,150,36,67,67,129,35,68,50,347,38,69,02,335,*6F
20181930-20:19:58:293364764 $GLGSV,2,2,08,74,05,212,37,82,63,112,36,83,41,207,36,,,,33*58
20181930-20:19:58:298624244 $GNGLL,3651.88522,S,17443.42357,E,040552.00,A,A*6A
20181930-20:19:58:520946848 $GNZDA,040552.00,31,01,2018,00,00*76
20181930-20:19:58:808803879 $GNRMC,040553.00,A,3651.88527,S,17443.42356,E,0.083,,310118,,,A*77
20181930-20:19:58:912430025 $GNVTG,,T,,M,0.083,N,0.153,K,A*31
20181930-20:19:58:917300077 $GNGGA,040553.00,3651.88527,S,17443.42356,E,1,10,0.97,19.4,M,28.1,M,,*62
20181930-20:19:59:016857160 $GNGSA,A,3,02,05,26,29,13,20,,,,,,,1.64,0.97,1.32*19
20181930-20:19:59:022245806 $GNGSA,A,3,66,82,68,83,,,,,,,,,1.64,0.97,1.32*1E
20181930-20:19:59:120649920 $GPGSV,2,1,07,02,29,099,29,04,,,40,05,60,136,44,13,32,049,30*45
20181930-20:19:59:225401431 $GPGSV,2,2,07,20,59,299,35,26,06,217,38,29,66,226,43*43
20181930-20:19:59:231978462 $GLGSV,2,1,08,66,14,150,36,67,67,129,35,68,50,347,37,69,02,335,*61
20181930-20:19:59:329328566 $GLGSV,2,2,08,74,05,212,38,82,63,112,36,83,41,207,36,,,,33*57
20181930-20:19:59:334487472 $GNGLL,3651.88527,S,17443.42356,E,040553.00,A,A*6F
20181930-20:19:59:560813878 $GNZDA,040553.00,31,01,2018,00,00*77
20181930-20:19:59:779896326 $GNRMC,040554.00,A,3651.88531,S,17443.42353,E,0.092,,310118,,,A*72
20181930-20:19:59:883582889 $GNVTG,,T,,M,0.092,N,0.171,K,A*31
20181930-20:19:59:888699295 $GNGGA,040554.00,3651.88531,S,17443.42353,E,1,10,0.97,19.3,M,28.1,M,,*60
20181930-20:19:59:987987576 $GNGSA,A,3,02,05,26,29,13,20,,,,,,,1.64,0.97,1.32*19
20181930-20:19:59:993071639 $GNGSA,A,3,66,82,68,83,,,,,,,,,1.64,0.97,1.32*1E
20182030-20:20:00:091954034 $GPGSV,2,1,07,02,29,099,30,04,,,39,05,60,136,43,13,32,049,32*46
20182030-20:20:00:195804139 $GPGSV,2,2,07,20,59,299,34,26,06,217,38,29,66,226,43*42
20182030-20:20:00:201282628 $GLGSV,2,1,08,66,14,150,33,67,66,129,34,68,50,347,37,69,02,335,*64
20182030-20:20:00:299891951 $GLGSV,2,2,08,74,05,212,38,82,63,112,36,83,41,207,36,,,,33*57
20182030-20:20:00:304518722 $GNGLL,3651.88531,S,17443.42353,E,040554.00,A,A*6A
20182030-20:20:00:530847784 $GNZDA,040554.00,31,01,2018,00,00*70
20182030-20:20:00:764182159 $GNRMC,040555.00,A,3651.88537,S,17443.42351,E,0.081,,310118,,,A*75
20182030-20:20:00:868315649 $GNVTG,,T,,M,0.081,N,0.150,K,A*30
20182030-20:20:00:873433149 $GNGGA,040555.00,3651.88537,S,17443.42351,E,1,10,0.97,19.3,M,28.1,M,,*65
20182030-20:20:00:972491013 $GNGSA,A,3,02,05,26,29,13,20,,,,,,,1.64,0.97,1.32*19
20182030-20:20:00:977629399 $GNGSA,A,3,66,82,68,83,,,,,,,,,1.64,0.97,1.32*1E
20182030-20:20:01:076698097 $GPGSV,2,1,07,02,29,099,31,04,,,39,05,60,136,42,13,32,049,33*47
20182030-20:20:01:180744555 $GPGSV,2,2,07,20,59,299,34,26,06,217,37,29,66,226,43*4D
20182030-20:20:01:185849034 $GLGSV,2,1,08,66,14,150,33,67,66,129,32,68,50,347,37,69,02,335,*62
20182030-20:20:01:284625388 $GLGSV,2,2,08,74,05,212,38,82,63,112,35,83,41,207,37,,,,32*54
20182030-20:20:01:289321378 $GNGLL,3651.88537,S,17443.42351,E,040555.00,A,A*6F
20182030-20:20:01:510883253 $GNZDA,040555.00,31,01,2018,00,00*71
20182030-20:20:01:777571482 $GNRMC,040556.00,A,3651.88543,S,17443.42349,E,0.060,,310118,,,A*73
20182030-20:20:01:881402263 $GNVTG,,T,,M,0.060,N,0.111,K,A*3A
20182030-20:20:01:886175284 $GNGGA,040556.00,3651.88543,S,17443.42349,E,1,10,0.97,19.4,M,28.1,M,,*6B
20182030-20:20:01:985615128 $GNGSA,A,3,02,05,26,29,13,20,,,,,,,1.64,0.97,1.32*19
20182030-20:20:01:990350961 $GNGSA,A,3,66,82,68,83,,,,,,,,,1.64,0.97,1.32*1E
20182030-20:20:02:089741430 $GPGSV,2,1,07,02,29,099,33,04,,,38,05,60,136,42,13,32,049,33*44
20182030-20:20:02:194891273 $GPGSV,2,2,07,20,59,299,35,26,06,217,36,29,66,226,43*4D
20182030-20:20:02:200723357 $GLGSV,2,1,08,66,14,150,34,67,66,129,28,68,50,347,37,69,02,335,*6E
20182030-20:20:02:298591482 $GLGSV,2,2,08,74,05,212,37,82,63,112,35,83,41,207,37,,,,33*5A
20182030-20:20:02:303858513 $GNGLL,3651.88543,S,17443.42349,E,040556.00,A,A*66
20182030-20:20:02:531129867 $GNZDA,040556.00,31,01,2018,00,00*72
20182030-20:20:02:771320544 $GNRMC,040557.00,A,3651.88543,S,17443.42350,E,0.029,,310118,,,A*77
20182030-20:20:02:874648721 $GNVTG,,T,,M,0.029,N,0.053,K,A*30
20182030-20:20:02:879494086 $GNGGA,040557.00,3651.88543,S,17443.42350,E,1,10,0.97,19.3,M,28.1,M,,*65
20182030-20:20:02:979014085 $GNGSA,A,3,02,05,26,29,13,20,,,,,,,1.64,0.97,1.32*19
20182030-20:20:02:983663408 $GNGSA,A,3,66,82,68,83,,,,,,,,,1.64,0.97,1.32*1E
20182030-20:20:03:082991273 $GPGSV,2,1,07,02,29,099,36,04,,,38,05,60,136,44,13,32,049,31*45
20182030-20:20:03:187857783 $GPGSV,2,2,07,20,59,299,35,26,06,217,35,29,66,226,43*4E
20182030-20:20:03:193530648 $GLGSV,3,1,09,66,14,150,34,67,66,129,31,68,50,347,36,69,02,335,*67
20182030-20:20:03:291214710 $GLGSV,3,2,09,73,06,261,,74,05,212,35,82,63,112,35,83,41,207,37*6F
20182030-20:20:03:296058148 $GLGSV,3,3,09,,,,32*6D
20182030-20:20:03:550763356 $GNGLL,3651.88543,S,17443.42350,E,040557.00,A,A*6F
20182030-20:20:03:555425908 $GNZDA,040557.00,31,01,2018,00,00*73
20182030-20:20:03:776121794 $GNRMC,040558.00,A,3651.88544,S,17443.42350,E,0.018,,310118,,,A*7D
20182030-20:20:03:879970908 $GNVTG,,T,,M,0.018,N,0.033,K,A*34
20182030-20:20:03:884760179 $GNGGA,040558.00,3651.88544,S,17443.42350,E,1,10,0.97,19.3,M,28.1,M,,*6D
20182030-20:20:03:984163043 $GNGSA,A,3,02,05,26,29,13,20,,,,,,,1.64,0.97,1.32*19
20182030-20:20:03:988940491 $GNGSA,A,3,66,82,68,83,,,,,,,,,1.64,0.97,1.32*1E
20182030-20:20:04:088360335 $GPGSV,2,1,07,02,29,099,37,04,,,37,05,60,136,43,13,32,049,29*45
20182030-20:20:04:192482106 $GPGSV,2,2,07,20,59,299,36,26,06,217,33,29,66,226,44*4C
20182030-20:20:04:198263564 $GLGSV,3,1,09,66,14,150,35,67,66,129,32,68,50,347,36,69,02,335,*65
20182030-20:20:04:296503043 $GLGSV,3,2,09,73,06,261,,74,05,212,34,82,63,112,36,83,41,207,37*6D
20182030-20:20:04:301253720 $GLGSV,3,3,09,,,,30*6F
20182030-20:20:04:560817574 $GNGLL,3651.88544,S,17443.42350,E,040558.00,A,A*67
20182030-20:20:04:566878199 $GNZDA,040558.00,31,01,2018,00,00*7C
20182030-20:20:04:773984814 $GNRMC,040559.00,A,3651.88545,S,17443.42347,E,0.140,,310118,,,A*77
20182030-20:20:04:877925022 $GNVTG,,T,,M,0.140,N,0.260,K,A*3C
20182030-20:20:04:882639033 $GNGGA,040559.00,3651.88545,S,17443.42347,E,1,10,0.97,19.4,M,28.1,M,,*6C
20182030-20:20:04:982075387 $GNGSA,A,3,02,05,26,29,13,20,,,,,,,1.64,0.97,1.32*19
20182030-20:20:04:986769918 $GNGSA,A,3,66,82,68,83,,,,,,,,,1.64,0.97,1.32*1E
20182030-20:20:05:086189658 $GPGSV,2,1,07,02,29,099,35,04,,,37,05,60,136,43,13,32,049,28*46
20182030-20:20:05:191298668 $GPGSV,2,2,07,20,59,299,36,26,06,217,31,29,66,226,43*49
20182030-20:20:05:197432366 $GLGSV,3,1,09,66,14,150,34,67,66,129,30,68,50,347,35,69,02,335,*65
20182030-20:20:05:294392522 $GLGSV,3,2,09,73,06,261,,74,05,212,29,82,63,112,36,83,41,207,37*61
20182030-20:20:05:299411585 $GLGSV,3,3,09,,,,29*67
20182030-20:20:05:551125439 $GNGLL,3651.88545,S,17443.42347,E,040559.00,A,A*61
20182030-20:20:05:555848980 $GNZDA,040559.00,31,01,2018,00,00*7D
20182030-20:20:05:797813511 $GNRMC,040600.00,A,3651.88555,S,17443.42345,E,0.225,,310118,,,A*7B
20182030-20:20:05:901573043 $GNVTG,,T,,M,0.225,N,0.416,K,A*3B
20182030-20:20:05:906267834 $GNGGA,040600.00,3651.88555,S,17443.42345,E,1,10,0.97,19.4,M,28.1,M,,*60
20182030-20:20:06:006089241 $GNGSA,A,3,02,05,26,29,13,20,,,,,,,1.64,0.97,1.32*19
20182030-20:20:06:011160595 $GNGSA,A,3,66,82,68,83,,,,,,,,,1.64,0.97,1.32*1E
20182030-20:20:06:110306324 $GPGSV,2,1,07,02,29,099,35,04,,,23,05,60,136,40,13,32,049,30*49
20182030-20:20:06:213899240 $GPGSV,2,2,07,20,59,299,40,26,06,217,24,29,66,226,45*4A
20182030-20:20:06:218746897 $GLGSV,3,1,09,66,14,150,35,67,66,129,35,68,50,347,38,69,02,335,*6C
20182030-20:20:06:318236793 $GLGSV,3,2,09,73,06,261,24,74,05,212,33,82,63,112,38,83,41,207,39*6C
20182030-20:20:06:323039345 $GLGSV,3,3,09,,,,28*66
20182030-20:20:06:580804657 $GNGLL,3651.88555,S,17443.42345,E,040600.00,A,A*6D
20182030-20:20:06:585354136 $GNZDA,040600.00,31,01,2018,00,00*72
20182030-20:20:06:768008511 $GNRMC,040601.00,A,3651.88559,S,17443.42346,E,0.143,,310118,,,A*76
20182030-20:20:06:871860386 $GNVTG,,T,,M,0.143,N,0.265,K,A*3A
20182030-20:20:06:876591115 $GNGGA,040601.00,3651.88559,S,17443.42346,E,1,10,0.97,19.4,M,28.1,M,,*6E
20182030-20:20:06:976030751 $GNGSA,A,3,02,05,26,29,13,20,,,,,,,1.64,0.97,1.32*19
20182030-20:20:06:980851271 $GNGSA,A,3,66,82,68,83,,,,,,,,,1.64,0.97,1.32*1E
20182030-20:20:07:080313771 $GPGSV,2,1,07,02,29,099,34,04,,,22,05,60,136,40,13,32,049,34*4D
20182030-20:20:07:184491011 $GPGSV,2,2,07,20,59,299,41,26,06,217,24,29,66,226,41*4F
20182030-20:20:07:189823303 $GLGSV,3,1,09,66,14,150,35,67,66,129,39,68,50,347,36,69,02,335,*6E
20182030-20:20:07:288636271 $GLGSV,3,2,09,73,06,261,20,74,05,212,36,82,63,112,42,83,41,207,38*61
20182030-20:20:07:293847782 $GLGSV,3,3,09,,,,25*6B
20182030-20:20:07:550894292 $GNGLL,3651.88559,S,17443.42346,E,040601.00,A,A*63
20182030-20:20:07:555528459 $GNZDA,040601.00,31,01,2018,00,00*73
20182030-20:20:07:783403927 $GNRMC,040602.00,A,3651.88561,S,17443.42339,E,0.298,,310118,,,A*73
20182030-20:20:07:887324500 $GNVTG,,T,,M,0.298,N,0.551,K,A*3F
20182030-20:20:07:892352209 $GNGGA,040602.00,3651.88561,S,17443.42339,E,1,10,0.97,19.5,M,28.1,M,,*6F
20182030-20:20:07:991476636 $GNGSA,A,3,02,05,26,29,13,20,,,,,,,1.64,0.97,1.32*19
20182030-20:20:07:996315750 $GNGSA,A,3,66,82,68,83,,,,,,,,,1.64,0.97,1.32*1E
20182030-20:20:08:095597052 $GPGSV,2,1,08,02,29,099,30,04,,,29,05,60,136,40,13,32,049,29*41
20182030-20:20:08:199811167 $GPGSV,2,2,08,20,59,299,41,25,,,34,26,06,217,30,29,66,226,41*45
20182030-20:20:08:205195073 $GLGSV,3,1,09,66,14,150,42,67,66,129,39,68,50,347,36,69,02,335,*6E
20182030-20:20:08:303836011 $GLGSV,3,2,09,73,06,261,18,74,05,212,33,82,63,112,42,83,41,207,33*64
20182030-20:20:08:308502729 $GLGSV,3,3,09,,,,24*6A
20182030-20:20:08:570796948 $GNGLL,3651.88561,S,17443.42339,E,040602.00,A,A*63
20182030-20:20:08:575472313 $GNZDA,040602.00,31,01,2018,00,00*70
20182030-20:20:08:762083146 $GNRMC,040603.00,A,3651.88556,S,17443.42335,E,0.640,,310118,,,A*7B
20182030-20:20:08:865969864 $GNVTG,,T,,M,0.640,N,1.185,K,A*32
20182030-20:20:08:870892052 $GNGGA,040603.00,3651.88556,S,17443.42335,E,1,10,0.97,19.7,M,28.1,M,,*64
20182030-20:20:08:970202677 $GNGSA,A,3,02,05,26,29,13,20,,,,,,,1.64,0.97,1.32*19
20182030-20:20:08:974913302 $GNGSA,A,3,66,82,68,83,,,,,,,,,1.64,0.97,1.32*1E
20182030-20:20:09:074255177 $GPGSV,2,1,08,02,29,099,28,04,,,29,05,60,136,40,13,32,049,30*40
20182030-20:20:09:179074239 $GPGSV,2,2,08,20,59,299,40,25,,,38,26,06,217,30,29,66,226,38*46
20182030-20:20:09:184745489 $GLGSV,3,1,09,66,14,150,40,67,66,129,39,68,50,347,36,69,02,335,*6C
20182030-20:20:09:282569135 $GLGSV,3,2,09,73,06,261,16,74,05,212,32,82,63,112,36,83,41,207,28*62
20182030-20:20:09:287388406 $GLGSV,3,3,09,,,,24*6A
20182030-20:20:09:550785802 $GNGLL,3651.88556,S,17443.42335,E,040603.00,A,A*6A
20182030-20:20:09:555359395 $GNZDA,040603.00,31,01,2018,00,00*71
20182030-20:20:09:765632989 $GNRMC,040604.00,A,3651.88547,S,17443.42322,E,0.672,,310118,,,A*7B
20182030-20:20:09:869603354 $GNVTG,,T,,M,0.672,N,1.245,K,A*3C
20182030-20:20:09:874632052 $GNGGA,040604.00,3651.88547,S,17443.42322,E,1,10,0.97,19.8,M,28.1,M,,*6A
20182030-20:20:09:973636374 $GNGSA,A,3,02,05,26,29,13,20,,,,,,,1.64,0.97,1.32*19
20182030-20:20:09:978432104 $GNGSA,A,3,66,82,68,83,,,,,,,,,1.64,0.97,1.32*1E
20182030-20:20:10:077880802 $GPGSV,2,1,08,02,29,099,33,04,,,23,05,60,136,40,13,32,049,24*45
20182030-20:20:10:182481114 $GPGSV,2,2,08,20,59,299,40,25,,,38,26,06,217,29,29,66,226,42*43
20182030-20:20:10:187408874 $GLGSV,3,1,09,66,14,150,41,67,66,129,34,68,50,347,36,69,02,335,*60
20182030-20:20:10:286579708 $GLGSV,3,2,09,73,06,261,14,74,05,212,27,82,63,112,36,83,41,207,27*6B
20182030-20:20:10:291585281 $GLGSV,3,3,09,,,,26*68
20182030-20:20:10:560804499 $GNGLL,3651.88547,S,17443.42322,E,040604.00,A,A*6B
20182030-20:20:10:565401895 $GNZDA,040604.00,31,01,2018,00,00*76
20182030-20:20:10:775526635 $GNRMC,040605.00,A,3651.88552,S,17443.42309,E,0.341,,310118,,,A*72
20182030-20:20:10:879458718 $GNVTG,,T,,M,0.341,N,0.632,K,A*3C
20182030-20:20:10:884581843 $GNGGA,040605.00,3651.88552,S,17443.42309,E,1,11,0.94,19.9,M,28.1,M,,*65
20182030-20:20:10:983436062 $GNGSA,A,3,02,05,26,29,13,20,,,,,,,1.55,0.94,1.23*18
20182030-20:20:10:988237364 $GNGSA,A,3,66,82,67,68,83,,,,,,,,1.55,0.94,1.23*1E
20182030-20:20:11:087658666 $GPGSV,2,1,08,02,29,099,32,04,,,22,05,60,136,36,13,32,049,25*45
20182030-20:20:11:191721530 $GPGSV,2,2,08,20,59,299,41,25,,,40,26,06,217,29,29,66,226,40*4F
20182030-20:20:11:196857520 $GLGSV,3,1,09,66,14,150,40,67,66,129,36,68,50,347,38,69,02,335,*6D
20182030-20:20:11:296036634 $GLGSV,3,2,09,73,06,261,11,74,05,212,27,82,63,112,36,83,41,207,24*6D
20182030-20:20:11:301171791 $GLGSV,3,3,09,,,,31*6E
20182030-20:20:11:570827936 $GNGLL,3651.88552,S,17443.42309,E,040605.00,A,A*67
20182030-20:20:11:575491478 $GNZDA,040605.00,31,01,2018,00,00*77
20182030-20:20:11:765836843 $GNRMC,040606.00,A,3651.88561,S,17443.42291,E,0.615,258.57,310118,,,A*66
20182030-20:20:11:870154603 $GNVTG,258.57,T,,M,0.615,N,1.139,K,A*26
20182030-20:20:11:875100853 $GNGGA,040606.00,3651.88561,S,17443.42291,E,1,11,0.94,19.9,M,28.1,M,,*66
20182030-20:20:11:974218770 $GNGSA,A,3,02,05,26,29,13,20,,,,,,,1.55,0.94,1.23*18
20182030-20:20:11:979246165 $GNGSA,A,3,66,82,67,68,83,,,,,,,,1.55,0.94,1.23*1E
20182030-20:20:12:078350332 $GPGSV,2,1,08,02,29,099,32,04,,,30,05,60,136,35,13,32,049,26*46
20182030-20:20:12:182213665 $GPGSV,2,2,08,20,59,299,38,25,,,40,26,06,217,28,29,66,226,35*42
20182030-20:20:12:187674186 $GLGSV,3,1,09,66,14,150,41,67,66,129,36,68,50,347,38,69,02,335,*6C
20182030-20:20:12:286577259 $GLGSV,3,2,09,73,06,261,10,74,05,212,26,82,63,112,38,83,41,207,24*63
20182030-20:20:12:291613717 $GLGSV,3,3,09,,,,31*6E
20182030-20:20:12:570936217 $GNGLL,3651.88561,S,17443.42291,E,040606.00,A,A*64
20182030-20:20:12:575722207 $GNZDA,040606.00,31,01,2018,00,00*74
20182030-20:20:12:759534759 $GNRMC,040607.00,A,3651.88572,S,17443.42277,E,0.632,250.85,310118,,,A*6F
20182030-20:20:12:863395800 $GNVTG,250.85,T,,M,0.632,N,1.170,K,A*29
20182030-20:20:12:868294550 $GNGGA,040607.00,3651.88572,S,17443.42277,E,1,11,0.94,20.1,M,28.1,M,,*6F
20182030-20:20:12:967574446 $GNGSA,A,3,02,05,26,29,13,20,,,,,,,1.55,0.94,1.23*18
20182030-20:20:12:972660800 $GNGSA,A,3,66,82,67,68,83,,,,,,,,1.55,0.94,1.23*1E
20182030-20:20:13:071645957 $GPGSV,2,1,08,02,29,099,32,04,,,34,05,60,136,37,13,32,049,35*42
20182030-20:20:13:175996894 $GPGSV,2,2,08,20,59,299,40,25,,,40,26,06,217,28,29,66,226,35*4D
20182030-20:20:13:181471425 $GLGSV,3,1,09,66,14,150,43,67,66,129,38,68,50,347,35,69,02,335,*6D
20182030-20:20:13:280009134 $GLGSV,3,2,09,73,06,261,10,74,05,212,26,82,63,112,40,83,41,207,22*6A
20182030-20:20:13:284883457 $GLGSV,3,3,09,,,,26*68
20182030-20:20:13:560874654 $GNGLL,3651.88572,S,17443.42277,E,040607.00,A,A*6F
20182030-20:20:13:565454863 $GNZDA,040607.00,31,01,2018,00,00*75
20182030-20:20:13:773395019 $GNRMC,040608.00,A,3651.88585,S,17443.42271,E,0.573,237.63,310118,,,A*61
20182030-20:20:13:877737050 $GNVTG,237.63,T,,M,0.573,N,1.061,K,A*27
20182030-20:20:13:882763717 $GNGGA,040608.00,3651.88585,S,17443.42271,E,1,11,0.94,20.3,M,28.1,M,,*6C
20182030-20:20:13:981493925 $GNGSA,A,3,02,05,26,29,13,20,,,,,,,1.55,0.94,1.23*18
20182030-20:20:13:986142988 $GNGSA,A,3,66,82,67,68,83,,,,,,,,1.55,0.94,1.23*1E
