$GLGSV,3,3,10,87,18,098,34,88,50,143,29*6C
$GNGLL,3651.88855,S,17443.36766,E,014253.00,A,A*65
$AAMTW,22.4,C*17
$AAXDR,C,22.4,C,ENV_SEA_T*0A
$AAMDA,,I,,B,,C,22.4,C,,,,C,,T,,M,,N,,M*00
$GNZDA,014253.00,07,02,2018,00,00*77
$GNRMC,014254.00,A,3651.88841,S,17443.36800,E,1.218,,070218,,,A*77
$GNVTG,,T,,M,1.218,N,2.255,K,A*37
$GNGGA,014254.00,3651.88841,S,17443.36800,E,1,12,0.80,18.4,M,28.1,M,,*60
$AAMTW,22.4,C*17
$AAXDR,C,22.4,C,ENV_SEA_T*0A
$GNGSA,A,3,19,12,29,,,,,,,,,,1.63,0.80,1.42*17
$GNGSA,A,3,72,66,78,65,79,81,80,88,87,,,,1.63,0.80,1.42*1E
$AAMDA,,I,,B,,C,22.4,C,,,,C,,T,,M,,N,,M*00
$GPGSV,2,1,08,02,66,161,09,05,59,005,08,06,34,126,24,09,10,121,10*72
$GPGSV,2,2,08,12,62,297,20,17,04,066,12,19,25,075,22,29,18,234,10*72
$GLGSV,3,1,10,65,49,104,31,66,31,021,22,72,18,149,30,78,21,313,10*61
$GLGSV,3,2,10,79,31,266,13,80,09,206,11,81,39,220,18,82,00,251,07*6D
$AAMTW,22.4,C*17
$AAXDR,C,22.4,C,ENV_SEA_T*0A
$AAMDA,,I,,B,,C,22.4,C,,,,C,,T,,M,,N,,M*00
$GLGSV,3,3,10,87,18,098,24,88,50,143,27*63
$GNGLL,3651.88841,S,17443.36800,E,014254.00,A,A*68
$GNZDA,014254.00,07,02,2018,00,00*70
$GNRMC,014255.00,A,3651.88807,S,17443.36703,E,1.940,,070218,,,A*7E
$GNVTG,,T,,M,1.940,N,3.594,K,A*3A
$GNGGA,014255.00,3651.88807,S,17443.36703,E,1,12,0.78,18.1,M,28.1,M,,*6D
$AAMTW,22.4,C*17
$AAXDR,C,22.4,C,ENV_SEA_T*0A
$GNGSA,A,3,19,12,29,06,,,,,,,,,1.61,0.78,1.41*17
$AAMDA,,I,,B,,C,22.4,C,,,,C,,T,,M,,N,,M*00
$GNGSA,A,3,72,66,78,65,79,81,80,88,87,,,,1.61,0.78,1.41*18
$GPGSV,2,1,08,02,66,161,10,05,59,005,,06,34,126,24,09,10,121,09*7A
$GPGSV,2,2,08,12,62,297,20,17,04,066,11,19,25,075,21,29,18,234,11*73
$GLGSV,3,1,10,65,49,104,31,66,32,022,23,72,18,149,29,78,21,313,14*6C
$GLGSV,3,2,10,79,31,266,16,80,09,206,10,81,39,220,18,82,00,251,08*66
$AAMTW,22.4,C*17
$AAXDR,C,22.4,C,ENV_SEA_T*0A
$AAMDA,,I,,B,,C,22.4,C,,,,C,,T,,M,,N,,M*00
$GLGSV,3,3,10,87,18,098,36,88,50,143,26*61
$GNGLL,3651.88807,S,17443.36703,E,014255.00,A,A*67
$GNZDA,014255.00,07,02,2018,00,00*71
$GNRMC,014256.00,A,3651.88775,S,17443.36722,E,1.352,,070218,,,A*7D
$GNVTG,,T,,M,1.352,N,2.504,K,A*3B
$GNGGA,014256.00,3651.88775,S,17443.36722,E,1,12,0.75,18.1,M,28.1,M,,*6A
$AAMTW,22.4,C*17
$AAXDR,C,22.4,C,ENV_SEA_T*0A
$GNGSA,A,3,19,12,29,06,,,,,,,,,1.57,0.75,1.39*10
$GNGSA,A,3,72,66,78,65,79,81,80,88,87,,,,1.57,0.75,1.39*1F
$AAMDA,,I,,B,,C,22.4,C,,,,C,,T,,M,,N,,M*00
$GPGSV,2,1,08,02,66,161,13,05,59,005,22,06,34,126,24,09,10,121,23*71
$GPGSV,2,2,08,12,62,297,21,17,04,066,09,19,25,075,22,29,18,234,17*7E
$GLGSV,3,1,10,65,49,104,24,66,32,022,25,72,18,149,31,78,21,313,12*61
$GLGSV,3,2,10,79,31,266,19,80,09,206,10,81,39,220,20,82,00,251,08*62
$GLGSV,3,3,10,87,18,098,35,88,50,143,25*61
$GNGLL,3651.88775,S,17443.36722,E,014256.00,A,A*6D
$AAMTW,22.4,C*17
$AAXDR,C,22.4,C,ENV_SEA_T*0A
$AAMDA,,I,,B,,C,22.4,C,,,,C,,T,,M,,N,,M*00
$GNZDA,014256.00,07,02,2018,00,00*72
$GNRMC,014257.00,A,3651.88757,S,17443.36697,E,1.261,,070218,,,A*72
$GNVTG,,T,,M,1.261,N,2.336,K,A*3D
$GNGGA,014257.00,3651.88757,S,17443.36697,E,1,12,0.78,19.1,M,28.1,M,,*68
$AAMTW,22.4,C*17
$GNGSA,A,3,19,12,29,06,,,,,,,,,1.61,0.78,1.41*17
$GNGSA,A,3,72,66,78,65,79,81,80,88,87,,,,1.61,0.78,1.41*18
$AAXDR,C,22.4,C,ENV_SEA_T*0A
$AAMDA,,I,,B,,C,22.4,C,,,,C,,T,,M,,N,,M*00
$GPGSV,2,1,08,02,66,161,14,05,59,005,21,06,34,126,25,09,10,121,24*73
$GPGSV,2,2,08,12,62,297,31,17,04,066,10,19,25,075,21,29,18,234,14*77
$GLGSV,3,1,10,65,49,104,26,66,32,022,26,72,18,149,31,78,21,313,10*62
$GLGSV,3,2,10,79,31,266,21,80,09,206,12,81,39,220,19,82,00,251,08*61
$GLGSV,3,3,10,87,18,098,30,88,50,143,23*62
$GNGLL,3651.88757,S,17443.36697,E,014257.00,A,A*63
$GNZDA,014257.00,07,02,2018,00,00*73
$AAMTW,22.4,C*17
$AAXDR,C,22.4,C,ENV_SEA_T*0A
$AAMDA,,I,,B,,C,22.4,C,,,,C,,T,,M,,N,,M*00
$GNRMC,014258.00,A,3651.88751,S,17443.36716,E,0.697,,070218,,,A*7F
$GNVTG,,T,,M,0.697,N,1.292,K,A*3D
$GNGGA,014258.00,3651.88751,S,17443.36716,E,1,12,0.71,20.4,M,28.1,M,,*6F
$AAMTW,22.4,C*17
$AAXDR,C,22.4,C,ENV_SEA_T*0A
$GNGSA,A,3,19,09,12,05,29,06,,,,,,,1.41,0.71,1.22*15
$AAMDA,,I,,B,,C,22.4,C,,,,C,,T,,M,,N,,M*00
$GNGSA,A,3,72,66,78,65,79,81,80,88,87,,,,1.41,0.71,1.22*16
$GPGSV,2,1,08,02,66,161,14,05,59,005,21,06,34,126,24,09,10,121,25*73
$GPGSV,2,2,08,12,62,297,31,17,04,066,11,19,25,075,20,29,18,234,11*72
$GLGSV,3,1,10,65,49,104,31,66,32,022,25,72,18,149,25,78,21,313,10*62
$GLGSV,3,2,10,79,31,266,21,80,09,206,13,81,39,220,21,82,00,251,08*6B
$GLGSV,3,3,10,87,18,098,22,88,50,143,24*66
$GNGLL,3651.88751,S,17443.36716,E,014258.00,A,A*62
$AAMTW,22.4,C*17
$AAXDR,C,22.4,C,ENV_SEA_T*0A
$AAMDA,,I,,B,,C,22.4,C,,,,C,,T,,M,,N,,M*00
$GNZDA,014258.00,07,02,2018,00,00*7C
$GNRMC,014259.00,A,3651.88735,S,17443.36697,E,1.169,,070218,,,A*73
$GNVTG,,T,,M,1.169,N,2.166,K,A*31
$GNGGA,014259.00,3651.88735,S,17443.36697,E,1,12,0.73,20.7,M,28.1,M,,*65
$AAMTW,22.4,C*17
$AAXDR,C,22.4,C,ENV_SEA_T*0A
$GNGSA,A,3,19,09,12,05,29,,,,,,,,1.43,0.73,1.23*12
$AAMDA,,I,,B,,C,22.4,C,,,,C,,T,,M,,N,,M*00
$GNGSA,A,3,72,66,78,65,79,81,80,88,87,,,,1.43,0.73,1.23*17
$GPGSV,2,1,08,02,66,161,13,05,59,005,22,06,34,126,25,09,10,121,23*70
$GPGSV,2,2,08,12,62,297,28,17,04,066,13,19,25,075,19,29,18,234,11*72
$GLGSV,3,1,10,65,49,104,22,66,32,022,23,72,18,149,23,78,21,313,14*64
$GLGSV,3,2,10,79,31,266,21,80,09,206,14,81,39,220,19,82,00,251,21*6C
$GLGSV,3,3,10,87,18,098,22,88,50,143,23*61
$GNGLL,3651.88735,S,17443.36697,E,014259.00,A,A*69
$AAMTW,22.4,C*17
$AAXDR,C,22.4,C,ENV_SEA_T*0A
$AAMDA,,I,,B,,C,22.4,C,,,,C,,T,,M,,N,,M*00
$GNZDA,014259.00,07,02,2018,00,00*7D
$GNRMC,014300.00,A,3651.88743,S,17443.36664,E,1.529,,070218,,,A*73
$GNVTG,,T,,M,1.529,N,2.832,K,A*39
$GNGGA,014300.00,3651.88743,S,17443.36664,E,1,12,0.89,21.4,M,28.1,M,,*62
$AAMTW,22.4,C*17
$AAXDR,C,22.4,C,ENV_SEA_T*0A
$GNGSA,A,3,19,09,12,05,29,,,,,,,,1.69,0.89,1.44*1E
$GNGSA,A,3,72,66,65,79,81,80,88,87,,,,,1.69,0.89,1.44*14
$AAMDA,,I,,B,,C,22.4,C,,,,C,,T,,M,,N,,M*00
$GPGSV,2,1,08,02,66,161,14,05,59,005,22,06,34,126,21,09,10,121,21*71
$GPGSV,2,2,08,12,62,297,26,17,04,066,09,19,25,075,18,29,18,234,12*75
$GLGSV,3,1,10,65,49,104,22,66,32,022,21,72,18,149,21,78,21,313,08*69
$GLGSV,3,2,10,79,31,266,21,80,09,206,10,81,39,220,18,82,00,251,*6A
$AAMTW,22.4,C*17
$AAXDR,C,22.4,C,ENV_SEA_T*0A
$AAMDA,,I,,B,,C,22.4,C,,,,C,,T,,M,,N,,M*00
$GLGSV,3,3,10,87,18,098,21,88,50,143,19*6B
$GNGLL,3651.88743,S,17443.36664,E,014300.00,A,A*69
$GNZDA,014300.00,07,02,2018,00,00*70
$GNRMC,014301.00,A,3651.88712,S,17443.36647,E,1.862,,070218,,,A*75
$GNVTG,,T,,M,1.862,N,3.449,K,A*3A
$GNGGA,014301.00,3651.88712,S,17443.36647,E,1,12,0.73,21.9,M,28.1,M,,*6E
$AAMTW,22.4,C*17
$AAXDR,C,22.4,C,ENV_SEA_T*0A
$AAMDA,,I,,B,,C,22.4,C,,,,C,,T,,M,,N,,M*00
$GNGSA,A,3,19,09,12,05,29,,,,,,,,1.43,0.73,1.23*12
$GNGSA,A,3,72,66,78,65,79,81,80,88,87,,,,1.43,0.73,1.23*17
$GPGSV,2,1,08,02,66,161,09,05,59,005,21,06,34,126,15,09,10,121,17*7C
$GPGSV,2,2,08,12,62,297,31,17,04,066,08,19,25,075,16,29,18,234,12*7C
$GLGSV,3,1,10,65,49,104,29,66,32,022,28,72,17,149,21,78,21,313,18*65
$GLGSV,3,2,10,79,31,266,29,80,09,206,20,81,39,220,13,82,00,251,*6A
$GLGSV,3,3,10,87,18,098,24,88,50,143,25*61
$GNGLL,3651.88712,S,17443.36647,E,014301.00,A,A*6D
$AAMTW,22.4,C*17
$AAXDR,C,22.4,C,ENV_SEA_T*0A
$AAMDA,,I,,B,,C,22.4,C,,,,C,,T,,M,,N,,M*00
$GNZDA,014301.00,07,02,2018,00,00*71
$GNRMC,014302.00,A,3651.88711,S,17443.36599,E,0.849,,070218,,,A*7D
$GNVTG,,T,,M,0.849,N,1.572,K,A*39
$GNGGA,014302.00,3651.88711,S,17443.36599,E,1,12,0.73,22.5,M,28.1,M,,*61
$AAMTW,22.4,C*17
$AAXDR,C,22.4,C,ENV_SEA_T*0A
$AAMDA,,I,,B,,C,22.4,C,,,,C,,T,,M,,N,,M*00
$GNGSA,A,3,19,09,12,05,29,,,,,,,,1.43,0.73,1.23*12
$GNGSA,A,3,72,66,78,65,79,81,80,88,87,,,,1.43,0.73,1.23*17
$GPGSV,2,1,08,02,66,161,08,05,59,005,24,06,34,126,13,09,10,121,17*7E
$GPGSV,2,2,08,12,62,297,26,17,04,066,11,19,25,075,19,29,18,234,13*7C
$GLGSV,3,1,10,65,49,104,16,66,32,022,30,72,17,149,23,78,21,313,13*69
$GLGSV,3,2,10,79,31,266,33,80,09,206,22,81,39,220,18,82,00,251,*68
$GLGSV,3,3,10,87,18,098,29,88,50,143,24*6D
$GNGLL,3651.88711,S,17443.36599,E,014302.00,A,A*6D
$AAMTW,22.4,C*17
$AAXDR,C,22.4,C,ENV_SEA_T*0A
$AAMDA,,I,,B,,C,22.4,C,,,,C,,T,,M,,N,,M*00
$GNZDA,014302.00,07,02,2018,00,00*72
$GNRMC,014303.00,A,3651.88721,S,17443.36569,E,0.993,,070218,,,A*76
$GNVTG,,T,,M,0.993,N,1.840,K,A*33
$GNGGA,014303.00,3651.88721,S,17443.36569,E,1,12,0.73,20.6,M,28.1,M,,*6D
$AAMTW,22.4,C*17
$AAXDR,C,22.4,C,ENV_SEA_T*0A
$AAMDA,,I,,B,,C,22.4,C,,,,C,,T,,M,,N,,M*00
$GNGSA,A,3,19,09,12,05,29,,,,,,,,1.43,0.73,1.23*12
$GNGSA,A,3,72,66,78,65,79,81,80,88,87,,,,1.43,0.73,1.23*17
$GPGSV,2,1,08,02,66,161,10,05,59,005,24,06,34,126,10,09,10,121,17*74
$GPGSV,2,2,08,12,62,297,31,17,04,066,06,19,25,075,19,29,18,234,22*7E
$GLGSV,3,1,10,65,49,104,26,66,32,022,27,72,17,149,23,78,21,313,11*6E
$GLGSV,3,2,10,79,31,266,29,80,09,206,21,81,39,220,20,82,00,251,*6B
$GLGSV,3,3,10,87,18,098,21,88,50,143,23*62
$GNGLL,3651.88721,S,17443.36569,E,014303.00,A,A*60
$AAMTW,22.4,C*17
$AAXDR,C,22.4,C,ENV_SEA_T*0A
$AAMDA,,I,,B,,C,22.4,C,,,,C,,T,,M,,N,,M*00
$GNZDA,014303.00,07,02,2018,00,00*73
$GNRMC,014304.00,A,3651.88715,S,17443.36549,E,0.224,,070218,,,A*73
$GNVTG,,T,,M,0.224,N,0.415,K,A*39
$GNGGA,014304.00,3651.88715,S,17443.36549,E,1,12,0.73,19.7,M,28.1,M,,*64
$AAMTW,22.4,C*17
$AAXDR,C,22.4,C,ENV_SEA_T*0A
$AAMDA,,I,,B,,C,22.4,C,,,,C,,T,,M,,N,,M*00
$GNGSA,A,3,19,09,12,05,29,,,,,,,,1.43,0.73,1.23*12
$GNGSA,A,3,72,66,78,65,79,81,80,88,87,,,,1.43,0.73,1.23*17
$GPGSV,2,1,08,02,66,161,09,05,59,005,23,06,34,126,08,09,10,121,15*70
$GPGSV,2,2,08,12,62,297,23,17,04,066,12,19,25,075,13,29,18,234,19*7A
$GLGSV,3,1,10,65,49,104,25,66,32,022,27,72,17,149,22,78,21,313,16*6B
$GLGSV,3,2,10,79,31,266,19,80,09,206,19,81,39,220,24,82,00,251,*67
$GLGSV,3,3,10,87,18,098,31,88,50,143,23*63
$GNGLL,3651.88715,S,17443.36549,E,014304.00,A,A*62
$AAMTW,22.4,C*17
$AAXDR,C,22.4,C,ENV_SEA_T*0A
$AAMDA,,I,,B,,C,22.4,C,,,,C,,T,,M,,N,,M*00
$GNZDA,014304.00,07,02,2018,00,00*74
$GNRMC,014305.00,A,3651.88740,S,17443.36555,E,0.281,,070218,,,A*70
$GNVTG,,T,,M,0.281,N,0.520,K,A*31
$GNGGA,014305.00,3651.88740,S,17443.36555,E,1,12,0.75,19.8,M,28.1,M,,*61
$AAMTW,22.4,C*17
$AAXDR,C,22.4,C,ENV_SEA_T*0A
$AAMDA,,I,,B,,C,22.4,C,,,,C,,T,,M,,N,,M*00
$GNGSA,A,3,19,09,12,05,29,,,,,,,,1.44,0.75,1.23*13
$GNGSA,A,3,72,66,78,65,81,80,88,87,,,,,1.44,0.75,1.23*18
$GPGSV,2,1,08,02,66,161,09,05,59,005,30,06,34,126,07,09,10,121,14*7C
$GPGSV,2,2,08,12,62,297,25,17,04,066,12,19,25,075,14,29,18,234,20*71
$GLGSV,3,1,10,65,49,104,25,66,32,022,32,72,17,149,21,78,21,313,19*63
$GLGSV,3,2,10,79,31,266,,80,09,206,19,81,39,220,24,82,00,251,*6F
$AAMTW,22.4,C*17
$AAXDR,C,22.4,C,ENV_SEA_T*0A
$AAMDA,,I,,B,,C,22.4,C,,,,C,,T,,M,,N,,M*00
$GLGSV,3,3,10,87,18,098,24,88,50,143,23*67
$GNGLL,3651.88740,S,17443.36555,E,014305.00,A,A*6E
$GNZDA,014305.00,07,02,2018,00,00*75
$GNRMC,014306.00,A,3651.88735,S,17443.36544,E,0.163,,070218,,,A*7E
$GNVTG,,T,,M,0.163,N,0.303,K,A*39
$GNGGA,014306.00,3651.88735,S,17443.36544,E,1,12,0.70,18.1,M,28.1,M,,*6D
$AAMTW,22.4,C*17
$AAXDR,C,22.4,C,ENV_SEA_T*0A
$AAMDA,,I,,B,,C,22.4,C,,,,C,,T,,M,,N,,M*00
$GNGSA,A,3,19,09,12,05,29,,,,,,,,1.40,0.70,1.21*10
$GNGSA,A,3,72,66,78,65,79,81,80,88,87,,,,1.40,0.70,1.21*15
$GPGSV,2,1,08,02,66,161,08,05,59,005,28,06,34,126,07,09,10,121,13*73
$GPGSV,2,2,08,12,62,297,24,17,04,066,09,19,25,075,12,29,18,234,18*77
$GLGSV,3,1,10,65,49,104,25,66,32,022,25,72,17,149,22,78,21,313,21*6D
$GLGSV,3,2,10,79,31,266,29,80,09,206,19,81,39,220,26,82,00,251,*66
$GLGSV,3,3,10,87,18,098,24,88,50,143,22*66
$GNGLL,3651.88735,S,17443.36544,E,014306.00,A,A*6F
$AAMTW,22.8,C*1B
$AAXDR,C,22.8,C,ENV_SEA_T*06
$AAMDA,,I,,B,,C,22.8,C,,,,C,,T,,M,,N,,M*0C
$GNZDA,014306.00,07,02,2018,00,00*76
$GNRMC,014307.00,A,3651.88729,S,17443.36558,E,0.394,,070218,,,A*75
$GNVTG,,T,,M,0.394,N,0.730,K,A*37
$GNGGA,014307.00,3651.88729,S,17443.36558,E,1,12,0.71,17.4,M,28.1,M,,*67
$AAMTW,22.8,C*1B
$AAXDR,C,22.8,C,ENV_SEA_T*06
$AAMDA,,I,,B,,C,22.8,C,,,,C,,T,,M,,N,,M*0C
$GNGSA,A,3,19,12,05,29,,,,,,,,,1.46,0.71,1.28*17
$GNGSA,A,3,72,66,78,65,79,81,80,88,87,,,,1.46,0.71,1.28*1B
$GPGSV,2,1,08,02,66,161,08,05,59,005,26,06,34,126,08,09,10,121,10*71
$GPGSV,2,2,08,12,62,297,21,17,04,066,10,19,25,075,18,29,18,234,17*7F
$GLGSV,3,1,10,65,49,104,24,66,32,022,24,72,17,149,22,78,20,314,22*68
$GLGSV,3,2,10,79,31,266,30,80,09,206,19,81,39,220,28,82,00,251,*60
$AAMTW,22.8,C*1B
$AAXDR,C,22.8,C,ENV_SEA_T*06
$AAMDA,,I,,B,,C,22.8,C,,,,C,,T,,M,,N,,M*0C
$GLGSV,3,3,10,87,18,098,24,88,50,143,21*65
$GNGLL,3651.88729,S,17443.36558,E,014307.00,A,A*6E
$GNZDA,014307.00,07,02,2018,00,00*77
$GNRMC,014308.00,A,3651.88727,S,17443.36555,E,0.267,,070218,,,A*74
$GNVTG,,T,,M,0.267,N,0.495,K,A*36
$GNGGA,014308.00,3651.88727,S,17443.36555,E,1,12,0.70,17.8,M,28.1,M,,*66
$AAMTW,22.8,C*1B
$AAXDR,C,22.8,C,ENV_SEA_T*06
$AAMDA,,I,,B,,C,22.8,C,,,,C,,T,,M,,N,,M*0C
$GNGSA,A,3,19,09,12,05,29,,,,,,,,1.40,0.70,1.21*10
$GNGSA,A,3,72,66,78,65,79,81,80,88,87,,,,1.40,0.70,1.21*15
$GPGSV,2,1,08,02,66,161,08,05,59,005,25,06,34,126,08,09,10,121,10*72
$GPGSV,2,2,08,12,62,297,17,17,04,066,09,19,25,075,19,29,18,234,18*7C
$GLGSV,3,1,10,65,49,104,24,66,32,022,21,72,17,149,21,78,20,314,22*6E
$GLGSV,3,2,10,79,31,267,32,80,09,206,17,81,39,220,28,82,00,251,*6D
$GLGSV,3,3,10,87,18,098,26,88,50,143,21*67
$GNGLL,3651.88727,S,17443.36555,E,014308.00,A,A*62
$AAMTW,22.8,C*1B
$AAXDR,C,22.8,C,ENV_SEA_T*06
$AAMDA,,I,,B,,C,22.8,C,,,,C,,T,,M,,N,,M*0C
$GNZDA,014308.00,07,02,2018,00,00*78
$GNRMC,014309.00,A,3651.88732,S,17443.36578,E,0.083,,070218,,,A*76
$GNVTG,,T,,M,0.083,N,0.154,K,A*36
$GNGGA,014309.00,3651.88732,S,17443.36578,E,1,12,0.71,18.1,M,28.1,M,,*6B
$AAMTW,22.8,C*1B
$AAXDR,C,22.8,C,ENV_SEA_T*06
$AAMDA,,I,,B,,C,22.8,C,,,,C,,T,,M,,N,,M*0C
$GNGSA,A,3,19,12,05,29,,,,,,,,,1.46,0.71,1.28*17
$GNGSA,A,3,72,66,78,65,79,81,80,88,87,,,,1.46,0.71,1.28*1B
$GPGSV,2,1,08,02,66,161,07,05,59,005,25,06,34,126,08,09,10,121,07*7B
$GPGSV,2,2,08,12,62,297,16,17,04,066,10,19,25,075,21,29,18,234,17*71
$GLGSV,3,1,10,65,49,104,22,66,32,022,19,72,17,149,21,78,20,314,22*63
$GLGSV,3,2,10,79,31,267,32,80,09,207,14,81,39,220,29,82,00,251,*6E
$AAMTW,22.8,C*1B
$AAXDR,C,22.8,C,ENV_SEA_T*06
$AAMDA,,I,,B,,C,22.8,C,,,,C,,T,,M,,N,,M*0C
$GLGSV,3,3,10,87,18,098,25,88,50,143,20*65
$GNGLL,3651.88732,S,17443.36578,E,014309.00,A,A*68
$GNZDA,014309.00,07,02,2018,00,00*79
$GNRMC,014310.00,A,3651.88723,S,17443.36604,E,0.138,,070218,,,A*77
$GNVTG,,T,,M,0.138,N,0.256,K,A*36
$GNGGA,014310.00,3651.88723,S,17443.36604,E,1,12,0.71,17.7,M,28.1,M,,*62
$AAMTW,22.8,C*1B
$AAXDR,C,22.8,C,ENV_SEA_T*06
$AAMDA,,I,,B,,C,22.8,C,,,,C,,T,,M,,N,,M*0C
$GNGSA,A,3,19,12,05,29,,,,,,,,,1.46,0.71,1.28*17
$GNGSA,A,3,72,66,78,65,79,81,80,88,87,,,,1.46,0.71,1.28*1B
$GPGSV,2,1,08,02,66,161,08,05,59,005,23,06,34,126,08,09,10,121,08*7D
$GPGSV,2,2,08,12,62,297,16,17,04,066,12,19,25,075,21,29,18,234,09*7C
$GLGSV,3,1,10,65,49,104,23,66,32,022,20,72,17,149,21,78,20,314,21*6B
$GLGSV,3,2,10,79,31,267,32,80,09,207,18,81,39,220,30,82,00,251,*6A
$AAMTW,22.8,C*1B
$AAXDR,C,22.8,C,ENV_SEA_T*06
$AAMDA,,I,,B,,C,22.8,C,,,,C,,T,,M,,N,,M*0C
$GLGSV,3,3,10,87,18,098,24,88,50,143,18*6F
$GNGLL,3651.88723,S,17443.36604,E,014310.00,A,A*68
$GNZDA,014310.00,07,02,2018,00,00*71
$GNRMC,014311.00,A,3651.88713,S,17443.36586,E,1.242,,070218,,,A*73
$GNVTG,,T,,M,1.242,N,2.300,K,A*39
$GNGGA,014311.00,3651.88713,S,17443.36586,E,1,12,0.70,16.8,M,28.1,M,,*66
$AAMTW,22.8,C*1B
$AAXDR,C,22.8,C,ENV_SEA_T*06
$AAMDA,,I,,B,,C,22.8,C,,,,C,,T,,M,,N,,M*0C
$GNGSA,A,3,19,09,12,05,29,,,,,,,,1.40,0.70,1.21*10
$GNGSA,A,3,72,66,78,65,79,81,80,88,87,,,,1.40,0.70,1.21*15
$GPGSV,2,1,08,02,66,161,,05,59,005,26,06,34,126,23,09,10,121,09*78
$GPGSV,2,2,08,12,62,297,17,17,04,066,09,19,25,075,21,29,18,234,16*79
$GLGSV,3,1,10,65,49,104,23,66,32,022,24,72,17,149,22,78,20,314,22*6F
$GLGSV,3,2,10,79,31,267,30,80,09,207,23,81,39,220,25,82,01,251,*65
$AAMTW,22.8,C*1B
$AAXDR,C,22.8,C,ENV_SEA_T*06
$AAMDA,,I,,B,,C,22.8,C,,,,C,,T,,M,,N,,M*0C
$GLGSV,3,3,10,87,18,098,24,88,50,143,20*64
$GNGLL,3651.88713,S,17443.36586,E,014311.00,A,A*63
$GNZDA,014311.00,07,02,2018,00,00*70
$GNRMC,014312.00,A,3651.88675,S,17443.36570,E,2.501,357.36,070218,,,A*61
$GNVTG,357.36,T,,M,2.501,N,4.631,K,A*21
$GNGGA,014312.00,3651.88675,S,17443.36570,E,1,12,0.71,17.4,M,28.1,M,,*61
$AAMTW,22.8,C*1B
$AAXDR,C,22.8,C,ENV_SEA_T*06
$AAMDA,,I,,B,,C,22.8,C,,,,C,,T,,M,,N,,M*0C
$GNGSA,A,3,19,09,12,05,29,,,,,,,,1.46,0.71,1.28*1E
$GNGSA,A,3,72,66,78,65,79,81,80,88,87,,,,1.46,0.71,1.28*1B
$GPGSV,2,1,08,02,66,161,26,05,59,005,26,06,34,126,22,09,10,121,17*72
$GPGSV,2,2,08,12,62,297,26,17,04,066,,19,25,075,20,29,18,234,16*73
$GLGSV,3,1,10,65,49,104,24,66,32,022,30,72,17,149,22,78,20,314,21*6E
$GLGSV,3,2,10,79,31,267,26,80,09,207,19,81,39,220,25,82,01,251,*6B
$GLGSV,3,3,10,87,18,098,25,88,50,143,23*66
$AAMTW,22.8,C*1B
$GNGLL,3651.88675,S,17443.36570,E,014312.00,A,A*68
$AAXDR,C,22.8,C,ENV_SEA_T*06
$AAMDA,,I,,B,,C,22.8,C,,,,C,,T,,M,,N,,M*0C
$GNZDA,014312.00,07,02,2018,00,00*73
$GNRMC,014313.00,A,3651.88695,S,17443.36560,E,0.711,,070218,,,A*74
$GNVTG,,T,,M,0.711,N,1.317,K,A*3E
$GNGGA,014313.00,3651.88695,S,17443.36560,E,1,12,0.71,16.7,M,28.1,M,,*6D
$AAMTW,22.8,C*1B
$AAXDR,C,22.8,C,ENV_SEA_T*06
$AAMDA,,I,,B,,C,22.8,C,,,,C,,T,,M,,N,,M*0C
$GNGSA,A,3,19,09,12,05,29,,,,,,,,1.46,0.71,1.28*1E
$GNGSA,A,3,72,66,78,65,79,81,80,88,87,,,,1.46,0.71,1.28*1B
$GPGSV,2,1,08,02,66,161,25,05,59,005,32,06,34,126,20,09,10,121,16*77
$GPGSV,2,2,08,12,62,297,25,17,04,066,,19,25,075,19,29,18,234,10*7C
$GLGSV,3,1,10,65,49,104,23,66,32,022,35,72,17,149,21,78,20,314,20*6E
$GLGSV,3,2,10,79,31,267,32,80,09,207,18,81,39,220,24,82,01,251,*6E
$AAMTW,22.8,C*1B
$AAXDR,C,22.8,C,ENV_SEA_T*06
$AAMDA,,I,,B,,C,22.8,C,,,,C,,T,,M,,N,,M*0C
$GLGSV,3,3,10,87,18,098,25,88,50,143,23*66
$GNGLL,3651.88695,S,17443.36560,E,014313.00,A,A*66
$GNZDA,014313.00,07,02,2018,00,00*72
$GNRMC,014314.00,A,3651.88733,S,17443.36570,E,0.130,,070218,,,A*7A
$GNVTG,,T,,M,0.130,N,0.241,K,A*38
$GNGGA,014314.00,3651.88733,S,17443.36570,E,1,12,0.71,14.4,M,28.1,M,,*67
$AAMTW,22.8,C*1B
$AAXDR,C,22.8,C,ENV_SEA_T*06
$AAMDA,,I,,B,,C,22.8,C,,,,C,,T,,M,,N,,M*0C
$GNGSA,A,3,19,09,12,05,29,,,,,,,,1.46,0.71,1.28*1E
$GNGSA,A,3,72,66,78,65,79,81,80,88,87,,,,1.46,0.71,1.28*1B
$GPGSV,2,1,08,02,66,161,23,05,59,005,37,06,34,126,18,09,10,121,12*7B
$GPGSV,2,2,08,12,62,297,34,17,04,066,,19,25,075,18,29,18,234,14*79
$GLGSV,3,1,10,65,49,104,23,66,32,022,32,72,17,149,20,78,20,314,17*6C
$GLGSV,3,2,10,79,31,267,31,80,09,207,15,81,39,220,21,82,01,251,*65
$AAMTW,22.8,C*1B
$AAXDR,C,22.8,C,ENV_SEA_T*06
$AAMDA,,I,,B,,C,22.8,C,,,,C,,T,,M,,N,,M*0C
$GLGSV,3,3,10,87,18,098,25,88,50,143,21*64
$GNGLL,3651.88733,S,17443.36570,E,014314.00,A,A*6D
$GNZDA,014314.00,07,02,2018,00,00*75
$GNRMC,014315.00,A,3651.88742,S,17443.36604,E,0.104,,070218,,,A*7A
$GNVTG,,T,,M,0.104,N,0.192,K,A*32
$GNGGA,014315.00,3651.88742,S,17443.36604,E,1,12,0.68,13.8,M,28.1,M,,*63
$AAMTW,22.8,C*1B
$AAXDR,C,22.8,C,ENV_SEA_T*06
$AAMDA,,I,,B,,C,22.8,C,,,,C,,T,,M,,N,,M*0C
$GNGSA,A,3,19,09,12,05,29,06,,,,,,,1.38,0.68,1.20*11
$GNGSA,A,3,72,66,78,65,79,81,80,88,87,,,,1.38,0.68,1.20*12
$GPGSV,2,1,08,02,66,161,19,05,59,005,35,06,34,126,17,09,10,121,19*74
$GPGSV,2,2,08,12,62,297,32,17,04,066,,19,25,075,18,29,18,234,19*72
$GLGSV,3,1,10,65,49,104,23,66,32,022,30,72,17,149,17,78,20,314,18*65
$GLGSV,3,2,10,79,31,267,32,80,09,207,14,81,39,220,20,82,01,251,*66
$AAMTW,22.8,C*1B
$GLGSV,3,3,10,87,18,098,23,88,50,143,21*62
$AAXDR,C,22.8,C,ENV_SEA_T*06
$GNGLL,3651.88742,S,17443.36604,E,014315.00,A,A*6A
$GNZDA,014315.00,07,02,2018,00,00*74
$AAMDA,,I,,B,,C,22.8,C,,,,C,,T,,M,,N,,M*0C
$GNRMC,014316.00,A,3651.88763,S,17443.36630,E,0.065,,070218,,,A*7B
$GNVTG,,T,,M,0.065,N,0.121,K,A*3C
$AAMTW,22.8,C*1B
$GNGGA,014316.00,3651.88763,S,17443.36630,E,1,12,0.68,13.3,M,28.1,M,,*6F
$AAXDR,C,22.8,C,ENV_SEA_T*06
$AAMDA,,I,,B,,C,22.8,C,,,,C,,T,,M,,N,,M*0C
$GNGSA,A,3,19,09,12,05,29,06,,,,,,,1.38,0.68,1.20*11
$GNGSA,A,3,72,66,78,65,79,81,80,88,87,,,,1.38,0.68,1.20*12
$GPGSV,2,1,08,02,66,161,18,05,59,005,36,06,34,126,18,09,10,121,20*73
$GPGSV,2,2,08,12,62,297,31,17,04,066,,19,25,075,15,29,18,234,19*7C
$GLGSV,3,1,10,65,49,104,24,66,32,022,31,72,17,149,14,78,20,314,19*61
$GLGSV,3,2,10,79,31,267,32,80,09,207,09,81,39,220,19,82,01,251,*60
$AAMTW,22.8,C*1B
$AAXDR,C,22.8,C,ENV_SEA_T*06
$AAMDA,,I,,B,,C,22.8,C,,,,C,,T,,M,,N,,M*0C
$GLGSV,3,3,10,87,17,097,22,88,50,143,21*63
$GNGLL,3651.88763,S,17443.36630,E,014316.00,A,A*6D
$GNZDA,014316.00,07,02,2018,00,00*77
$GNRMC,014317.00,A,3651.88768,S,17443.36626,E,0.405,,070218,,,A*74
$GNVTG,,T,,M,0.405,N,0.750,K,A*3E
$AAMTW,22.8,C*1B
$GNGGA,014317.00,3651.88768,S,17443.36626,E,1,12,0.76,13.0,M,28.1,M,,*6E
$AAXDR,C,22.8,C,ENV_SEA_T*06
$AAMDA,,I,,B,,C,22.8,C,,,,C,,T,,M,,N,,M*0C
$GNGSA,A,3,19,09,12,05,29,06,,,,,,,1.50,0.76,1.29*19
$GNGSA,A,3,72,66,78,65,79,81,88,87,,,,,1.50,0.76,1.29*12
$GPGSV,2,1,08,02,66,161,17,05,59,005,36,06,34,126,19,09,10,121,22*7F
$GPGSV,2,2,08,12,62,297,30,17,04,066,,19,25,075,15,29,18,234,20*77
$GLGSV,3,1,10,65,49,104,25,66,32,022,31,72,17,149,15,78,20,314,20*6B
$GLGSV,3,2,10,79,31,267,33,80,09,207,08,81,39,220,19,82,01,251,*60
$AAMTW,22.8,C*1B
$AAXDR,C,22.8,C,ENV_SEA_T*06
$AAMDA,,I,,B,,C,22.8,C,,,,C,,T,,M,,N,,M*0C
$GLGSV,3,3,10,87,17,097,20,88,50,142,23*62
$GNGLL,3651.88768,S,17443.36626,E,014317.00,A,A*60
$GNZDA,014317.00,07,02,2018,00,00*76
$GNRMC,014318.00,A,3651.88772,S,17443.36629,E,0.118,,070218,,,A*76
$AAMTW,22.8,C*1B
$GNVTG,,T,,M,0.118,N,0.219,K,A*3F
$AAXDR,C,22.8,C,ENV_SEA_T*06
$GNGGA,014318.00,3651.88772,S,17443.36629,E,1,12,0.80,13.1,M,28.1,M,,*6D
$AAMDA,,I,,B,,C,22.8,C,,,,C,,T,,M,,N,,M*0C
$GNGSA,A,3,19,09,12,05,29,06,,,,,,,1.54,0.80,1.31*1D
$GNGSA,A,3,72,66,78,65,79,81,80,88,87,,,,1.54,0.80,1.31*1E
$GPGSV,2,1,08,02,66,161,18,05,59,005,35,06,34,126,18,09,10,121,22*72
$GPGSV,2,2,08,12,62,297,30,17,04,066,,19,25,075,09,29,18,234,20*7A
$GLGSV,3,1,10,65,49,104,28,66,32,022,31,72,17,149,15,78,20,314,19*6C
$GLGSV,3,2,10,79,31,267,32,80,09,207,12,81,39,220,20,82,01,251,*60
$AAMTW,22.8,C*1B
$AAXDR,C,22.8,C,ENV_SEA_T*06
$AAMDA,,I,,B,,C,22.8,C,,,,C,,T,,M,,N,,M*0C
$GLGSV,3,3,10,87,17,097,20,88,50,142,23*62
$GNGLL,3651.88772,S,17443.36629,E,014318.00,A,A*6B
$GNZDA,014318.00,07,02,2018,00,00*79
$GNRMC,014319.00,A,3651.88771,S,17443.36638,E,0.367,,070218,,,A*7E
$AAMTW,22.8,C*1B
$GNVTG,,T,,M,0.367,N,0.679,K,A*37
$GNGGA,014319.00,3651.88771,S,17443.36638,E,1,12,0.71,12.8,M,28.1,M,,*69
$AAXDR,C,22.8,C,ENV_SEA_T*06
$AAMDA,,I,,B,,C,22.8,C,,,,C,,T,,M,,N,,M*0C
$GNGSA,A,3,19,09,12,05,29,06,,,,,,,1.45,0.71,1.27*14
$GNGSA,A,3,72,66,78,65,79,81,88,87,,,,,1.45,0.71,1.27*1F
$GPGSV,2,1,08,02,65,160,18,05,59,005,35,06,34,126,17,09,10,121,23*7E
$GPGSV,2,2,08,12,62,297,31,17,04,066,,19,25,075,11,29,18,234,20*72
$GLGSV,3,1,10,65,49,104,27,66,32,022,30,72,17,149,15,78,20,314,16*6D
$GLGSV,3,2,10,79,31,267,31,80,09,207,08,81,39,220,22,82,01,251,*6A
$AAMTW,22.8,C*1B
$AAXDR,C,22.8,C,ENV_SEA_T*06
$AAMDA,,I,,B,,C,22.8,C,,,,C,,T,,M,,N,,M*0C
$GLGSV,3,3,10,87,17,097,20,88,50,142,23*62
$GNGLL,3651.88771,S,17443.36638,E,014319.00,A,A*69
$GNZDA,014319.00,07,02,2018,00,00*78
$GNRMC,014320.00,A,3651.88774,S,17443.36647,E,0.247,,070218,,,A*7A
$AAMTW,22.8,C*1B
$AAXDR,C,22.8,C,ENV_SEA_T*06
$AAMDA,,I,,B,,C,22.8,C,,,,C,,T,,M,,N,,M*0C
$GNVTG,,T,,M,0.247,N,0.458,K,A*35
$GNGGA,014320.00,3651.88774,S,17443.36647,E,1,12,0.68,12.9,M,28.1,M,,*67
$GNGSA,A,3,19,09,12,05,29,06,,,,,,,1.38,0.68,1.20*11
$GNGSA,A,3,72,66,78,65,79,81,80,88,87,,,,1.38,0.68,1.20*12
$GPGSV,2,1,08,02,65,160,16,05,59,005,36,06,34,126,19,09,10,121,22*7C
$GPGSV,2,2,08,12,62,297,31,17,04,066,,19,25,075,14,29,18,234,18*7C
$GLGSV,3,1,10,65,49,104,26,66,32,022,30,72,17,149,10,78,20,314,13*6C
$GLGSV,3,2,10,79,31,267,30,80,09,207,16,81,39,220,20,82,01,251,*66
$AAMTW,22.8,C*1B
$AAXDR,C,22.8,C,ENV_SEA_T*06
$AAMDA,,I,,B,,C,22.8,C,,,,C,,T,,M,,N,,M*0C
$GLGSV,3,3,10,87,17,097,21,88,50,142,24*64
$GNGLL,3651.88774,S,17443.36647,E,014320.00,A,A*6E
$GNZDA,014320.00,07,02,2018,00,00*72
$GNRMC,014321.00,A,3651.88774,S,17443.36647,E,0.111,,070218,,,A*7B
$AAMTW,22.8,C*1B
$AAXDR,C,22.8,C,ENV_SEA_T*06
$GNVTG,,T,,M,0.111,N,0.206,K,A*38
$AAMDA,,I,,B,,C,22.8,C,,,,C,,T,,M,,N,,M*0C
$GNGGA,014321.00,3651.88774,S,17443.36647,E,1,12,0.68,13.4,M,28.1,M,,*6A
$GNGSA,A,3,19,09,12,05,29,06,,,,,,,1.38,0.68,1.20*11
$GNGSA,A,3,72,66,78,65,79,81,80,88,87,,,,1.38,0.68,1.20*12
$GPGSV,2,1,08,02,65,160,14,05,60,005,36,06,34,126,19,09,10,121,21*77
$GPGSV,2,2,08,12,62,297,31,17,04,066,,19,25,075,14,29,18,234,18*7C
$GLGSV,3,1,10,65,49,104,25,66,32,022,32,72,17,149,14,78,20,314,13*69
$GLGSV,3,2,10,79,31,267,32,80,09,207,20,81,39,220,21,82,01,251,*60
$AAMTW,22.8,C*1B
$AAXDR,C,22.8,C,ENV_SEA_T*06
$AAMDA,,I,,B,,C,22.8,C,,,,C,,T,,M,,N,,M*0C
$GLGSV,3,3,10,87,17,097,22,88,50,142,24*67
$GNGLL,3651.88774,S,17443.36647,E,014321.00,A,A*6F
$GNZDA,014321.00,07,02,2018,00,00*73
$GNRMC,014322.00,A,3651.88807,S,17443.36670,E,0.884,,070218,,,A*72
$AAMTW,22.8,C*1B
$AAXDR,C,22.8,C,ENV_SEA_T*06
$GNVTG,,T,,M,0.884,N,1.637,K,A*3A
$AAMDA,,I,,B,,C,22.8,C,,,,C,,T,,M,,N,,M*0C
$GNGGA,014322.00,3651.88807,S,17443.36670,E,1,12,0.69,13.7,M,28.1,M,,*64
$GNGSA,A,3,19,09,12,05,29,06,,,,,,,1.40,0.69,1.21*1E
$GNGSA,A,3,72,66,78,65,79,81,80,88,87,,,,1.40,0.69,1.21*1D
$GPGSV,2,1,08,02,65,160,16,05,60,005,37,06,33,126,20,09,10,121,21*79
$GPGSV,2,2,08,12,62,297,32,17,04,066,,19,25,075,14,29,18,234,16*71
$GLGSV,3,1,10,65,49,104,23,66,32,022,32,72,17,149,17,78,20,314,16*69
$GLGSV,3,2,10,79,31,267,31,80,09,207,17,81,39,220,21,82,01,251,*67
$AAMTW,22.8,C*1B
$AAXDR,C,22.8,C,ENV_SEA_T*06
$AAMDA,,I,,B,,C,22.8,C,,,,C,,T,,M,,N,,M*0C
$GLGSV,3,3,10,87,17,097,22,88,50,142,22*61
$GNGLL,3651.88807,S,17443.36670,E,014322.00,A,A*63
$GNZDA,014322.00,07,02,2018,00,00*70
$GNRMC,014323.00,A,3651.88829,S,17443.36691,E,0.575,,070218,,,A*73
$AAMTW,22.8,C*1B
$AAXDR,C,22.8,C,ENV_SEA_T*06
$GNVTG,,T,,M,0.575,N,1.064,K,A*39
$GNGGA,014323.00,3651.88829,S,17443.36691,E,1,12,0.69,14.1,M,28.1,M,,*67
$AAMDA,,I,,B,,C,22.8,C,,,,C,,T,,M,,N,,M*0C
$GNGSA,A,3,19,09,12,05,29,06,,,,,,,1.40,0.69,1.21*1E
$GNGSA,A,3,72,66,78,65,79,81,80,88,87,,,,1.40,0.69,1.21*1D
$GPGSV,2,1,08,02,65,160,17,05,60,005,36,06,33,126,19,09,10,121,20*72
$GPGSV,2,2,08,12,62,297,32,17,04,066,,19,25,075,14,29,18,234,14*73
$GLGSV,3,1,10,65,49,104,21,66,32,022,31,72,17,149,15,78,20,314,10*6C
$GLGSV,3,2,10,79,31,267,32,80,09,207,18,81,39,220,21,82,01,251,*6B
$AAMTW,22.8,C*1B
$AAXDR,C,22.8,C,ENV_SEA_T*06
$AAMDA,,I,,B,,C,22.8,C,,,,C,,T,,M,,N,,M*0C
$GLGSV,3,3,10,87,17,097,22,88,50,142,21*62
$GNGLL,3651.88829,S,17443.36691,E,014323.00,A,A*61
$GNZDA,014323.00,07,02,2018,00,00*71
$GNRMC,014324.00,A,3651.88846,S,17443.36702,E,0.571,,070218,,,A*72
$AAMTW,22.8,C*1B
$AAXDR,C,22.8,C,ENV_SEA_T*06
$GNVTG,,T,,M,0.571,N,1.057,K,A*3D
$AAMDA,,I,,B,,C,22.8,C,,,,C,,T,,M,,N,,M*0C
$GNGGA,014324.00,3651.88846,S,17443.36702,E,1,12,0.69,14.3,M,28.1,M,,*60
$GNGSA,A,3,19,09,12,05,29,06,,,,,,,1.40,0.69,1.21*1E
$GNGSA,A,3,72,66,78,65,79,81,80,88,87,,,,1.40,0.69,1.21*1D
$GPGSV,3,1,09,02,65,160,16,05,60,005,34,06,33,126,18,09,10,121,20*70
$GPGSV,3,2,09,12,62,297,32,17,04,066,,19,25,075,14,21,,,17*44
$GPGSV,3,3,09,29,18,234,13*45
$GLGSV,3,1,10,65,49,104,19,66,32,022,33,72,17,149,10,78,20,314,11*61
$GLGSV,3,2,10,79,31,267,30,80,09,207,17,81,39,220,21,82,01,251,*66
$AAMTW,22.8,C*1B
$AAXDR,C,22.8,C,ENV_SEA_T*06
$AAMDA,,I,,B,,C,22.8,C,,,,C,,T,,M,,N,,M*0C
$GLGSV,3,3,10,87,17,097,22,88,50,142,19*69
$GNGLL,3651.88846,S,17443.36702,E,014324.00,A,A*64
$GNZDA,014324.00,07,02,2018,00,00*76
$GNRMC,014325.00,A,3651.88862,S,17443.36698,E,1.341,,070218,,,A*73
$AAMTW,22.8,C*1B
$AAXDR,C,22.8,C,ENV_SEA_T*06
$AAMDA,,I,,B,,C,22.8,C,,,,C,,T,,M,,N,,M*0C
$GNVTG,,T,,M,1.341,N,2.484,K,A*30
$GNGGA,014325.00,3651.88862,S,17443.36698,E,1,12,0.69,13.9,M,28.1,M,,*68
$GNGSA,A,3,19,09,12,05,29,06,,,,,,,1.40,0.69,1.21*1E
$GNGSA,A,3,72,66,78,65,79,81,80,88,87,,,,1.40,0.69,1.21*1D
$GPGSV,3,1,09,02,65,160,,05,60,005,33,06,33,126,16,09,10,121,19*74
$GPGSV,3,2,09,12,62,297,27,17,04,066,,19,25,075,11,21,,,14*46
$GPGSV,3,3,09,29,18,234,09*4E
$GLGSV,3,1,10,65,49,104,19,66,32,022,33,72,17,149,15,78,20,314,13*66
$GLGSV,3,2,10,79,31,267,30,80,09,207,17,81,39,220,20,82,01,251,*67
$AAMTW,22.8,C*1B
$AAXDR,C,22.8,C,ENV_SEA_T*06
$AAMDA,,I,,B,,C,22.8,C,,,,C,,T,,M,,N,,M*0C
$GLGSV,3,3,10,87,17,097,21,88,50,142,15*66
$GNGLL,3651.88862,S,17443.36698,E,014325.00,A,A*61
$GNZDA,014325.00,07,02,2018,00,00*77
$GNRMC,014326.00,A,3651.88881,S,17443.36715,E,2.200,114.68,070218,,,A*6A
$AAMTW,22.8,C*1B
$AAXDR,C,22.8,C,ENV_SEA_T*06
$AAMDA,,I,,B,,C,22.8,C,,,,C,,T,,M,,N,,M*0C
$GNVTG,114.68,T,,M,2.200,N,4.075,K,A*2F
$GNGGA,014326.00,3651.88881,S,17443.36715,E,1,12,0.69,14.3,M,28.1,M,,*6F
$GNGSA,A,3,19,09,12,05,29,06,,,,,,,1.40,0.69,1.21*1E
$GNGSA,A,3,72,66,78,65,79,81,80,88,87,,,,1.40,0.69,1.21*1D
$GPGSV,3,1,09,02,65,160,,05,60,005,32,06,33,126,16,09,10,121,19*75
$GPGSV,3,2,09,12,62,297,27,17,04,066,,19,25,075,14,21,,,11*46
$GPGSV,3,3,09,29,18,234,15*43
$GLGSV,3,1,10,65,49,104,21,66,32,022,33,72,17,149,12,78,20,314,14*6D
$AAMTW,22.8,C*1B
$AAXDR,C,22.8,C,ENV_SEA_T*06
$AAMDA,,I,,B,,C,22.8,C,,,,C,,T,,M,,N,,M*0C
$GLGSV,3,2,10,79,31,267,31,80,09,207,16,81,39,220,19,82,01,251,*6D
$GLGSV,3,3,10,87,17,097,23,88,50,142,15*64
$GNGLL,3651.88881,S,17443.36715,E,014326.00,A,A*6B
$GNZDA,014326.00,07,02,2018,00,00*74
$GNRMC,014327.00,A,3651.88896,S,17443.36714,E,1.693,128.97,070218,,,A*6E
$AAMTW,22.8,C*1B
$AAXDR,C,22.8,C,ENV_SEA_T*06
$AAMDA,,I,,B,,C,22.8,C,,,,C,,T,,M,,N,,M*0C
$GNVTG,128.97,T,,M,1.693,N,3.136,K,A*2C
$GNGGA,014327.00,3651.88896,S,17443.36714,E,1,12,0.69,14.0,M,28.1,M,,*6A
$GNGSA,A,3,19,09,12,05,29,06,,,,,,,1.40,0.69,1.21*1E
$GNGSA,A,3,72,66,78,65,79,81,80,88,87,,,,1.40,0.69,1.21*1D
$GPGSV,3,1,09,02,65,160,16,05,60,005,26,06,33,126,14,09,10,121,17*7B
$GPGSV,3,2,09,12,62,297,29,17,04,066,,19,25,075,14,21,,,10*49
$GPGSV,3,3,09,29,18,234,16*40
$GLGSV,3,1,10,65,49,104,23,66,32,022,32,72,17,149,12,78,20,314,16*6C
$AAMTW,22.8,C*1B
$AAXDR,C,22.8,C,ENV_SEA_T*06
$AAMDA,,I,,B,,C,22.8,C,,,,C,,T,,M,,N,,M*0C
$GLGSV,3,2,10,79,31,267,31,80,09,207,12,81,39,220,19,82,01,251,*69
$GLGSV,3,3,10,87,17,097,26,88,50,142,16*62
$GNGLL,3651.88896,S,17443.36714,E,014327.00,A,A*6D
$GNZDA,014327.00,07,02,2018,00,00*75
$GNRMC,014328.00,A,3651.88897,S,17443.36738,E,0.569,,070218,,,A*72
$AAMTW,22.8,C*1B
$AAXDR,C,22.8,C,ENV_SEA_T*06
$AAMDA,,I,,B,,C,22.8,C,,,,C,,T,,M,,N,,M*0C
$GNVTG,,T,,M,0.569,N,1.053,K,A*30
$GNGGA,014328.00,3651.88897,S,17443.36738,E,1,12,0.69,13.8,M,28.1,M,,*65
$GNGSA,A,3,19,09,12,05,29,06,,,,,,,1.39,0.69,1.21*10
$GNGSA,A,3,72,66,78,65,79,81,80,88,87,,,,1.39,0.69,1.21*13
$GPGSV,3,1,09,02,65,160,18,05,60,005,27,06,33,126,14,09,10,121,16*75
$GPGSV,3,2,09,12,62,298,28,17,04,066,,19,25,075,14,21,,,08*4E
$GPGSV,3,3,09,29,18,234,15*43
$GLGSV,3,1,10,65,49,104,30,66,32,022,25,72,17,149,14,78,20,314,11*69
$GLGSV,3,2,10,79,31,267,35,80,09,207,14,81,39,220,28,82,01,251,*69
$AAMTW,22.8,C*1B
$AAXDR,C,22.8,C,ENV_SEA_T*06
$AAMDA,,I,,B,,C,22.8,C,,,,C,,T,,M,,N,,M*0C
$GLGSV,3,3,10,87,17,097,27,88,50,142,19*6C
$GNGLL,3651.88897,S,17443.36738,E,014328.00,A,A*6D
$GNZDA,014328.00,07,02,2018,00,00*7A
$GNRMC,014329.00,A,3651.88878,S,17443.36750,E,0.934,92.25,070218,,,A*5A
$AAMTW,22.8,C*1B
$AAXDR,C,22.8,C,ENV_SEA_T*06
$AAMDA,,I,,B,,C,22.8,C,,,,C,,T,,M,,N,,M*0C
$GNVTG,92.25,T,,M,0.934,N,1.729,K,A*1C
$GNGGA,014329.00,3651.88878,S,17443.36750,E,1,12,0.69,13.7,M,28.1,M,,*64
$GNGSA,A,3,19,09,12,05,29,06,,,,,,,1.39,0.69,1.21*10
$GNGSA,A,3,72,66,78,65,79,81,80,88,87,,,,1.39,0.69,1.21*13
$GPGSV,3,1,09,02,65,160,21,05,60,005,27,06,33,126,15,09,10,121,16*7E
$GPGSV,3,2,09,12,62,298,28,17,04,066,,19,25,075,14,21,,,08*4E
$GPGSV,3,3,09,29,18,234,19*4F
$GLGSV,3,1,10,65,49,104,30,66,32,022,25,72,17,149,21,78,20,314,17*69
$AAMTW,22.8,C*1B
$AAXDR,C,22.8,C,ENV_SEA_T*06
$AAMDA,,I,,B,,C,22.8,C,,,,C,,T,,M,,N,,M*0C
$GLGSV,3,2,10,79,31,267,32,80,09,207,13,81,39,220,32,82,01,251,21*61
$GLGSV,3,3,10,87,17,097,25,88,50,142,28*6C
$GNGLL,3651.88878,S,17443.36750,E,014329.00,A,A*63
$GNZDA,014329.00,07,02,2018,00,00*7B
$GNRMC,014330.00,A,3651.88900,S,17443.36791,E,0.421,,070218,,,A*7A
$AAMTW,22.8,C*1B
$AAXDR,C,22.8,C,ENV_SEA_T*06
$AAMDA,,I,,B,,C,22.8,C,,,,C,,T,,M,,N,,M*0C
$GNVTG,,T,,M,0.421,N,0.780,K,A*35
$GNGGA,014330.00,3651.88900,S,17443.36791,E,1,12,0.71,14.9,M,28.1,M,,*6F
$GNGSA,A,3,19,09,12,05,29,06,,,,,,,1.45,0.71,1.27*14
$GNGSA,A,3,72,66,78,65,79,81,80,88,87,,,,1.45,0.71,1.27*17
$GPGSV,3,1,09,02,65,160,19,05,60,005,28,06,33,126,21,09,10,121,17*7C
$GPGSV,3,2,09,12,62,298,27,17,04,066,,19,25,075,14,21,,,07*4E
$GPGSV,3,3,09,29,18,234,21*44
$GLGSV,3,1,10,65,49,104,37,66,32,022,30,72,17,149,13,78,20,314,18*64
$GLGSV,3,2,10,79,31,267,39,80,09,207,14,81,39,220,23,82,01,251,19*66
$AAMTW,22.8,C*1B
$AAXDR,C,22.8,C,ENV_SEA_T*06
$AAMDA,,I,,B,,C,22.8,C,,,,C,,T,,M,,N,,M*0C
$GLGSV,3,3,10,87,17,097,30,88,50,142,27*67
$GNGLL,3651.88900,S,17443.36791,E,014330.00,A,A*68
$GNZDA,014330.00,07,02,2018,00,00*73
$GNRMC,014331.00,A,3651.88886,S,17443.36774,E,0.505,,070218,,,A*78
$AAMTW,22.8,C*1B
$AAXDR,C,22.8,C,ENV_SEA_T*06
$AAMDA,,I,,B,,C,22.8,C,,,,C,,T,,M,,N,,M*0C
$GNVTG,,T,,M,0.505,N,0.935,K,A*32
$GNGGA,014331.00,3651.88886,S,17443.36774,E,1,12,0.68,14.8,M,28.1,M,,*63
$GNGSA,A,3,19,09,12,05,29,06,,,,,,,1.37,0.68,1.20*1E
$GNGSA,A,3,72,66,78,65,79,81,80,88,87,,,,1.37,0.68,1.20*1D
$GPGSV,3,1,09,02,65,160,17,05,60,005,26,06,33,126,17,09,10,121,16*78
$GPGSV,3,2,09,12,62,298,27,17,04,066,,19,25,075,24,21,,,07*4D
$GPGSV,3,3,09,29,18,234,28*4D
$GLGSV,3,1,10,65,49,104,37,66,32,022,21,72,17,149,18,78,20,314,18*6F
$GLGSV,3,2,10,79,31,267,30,80,09,207,18,81,39,220,25,82,01,251,18*64
$AAMTW,22.8,C*1B
$AAXDR,C,22.8,C,ENV_SEA_T*06
$AAMDA,,I,,B,,C,22.8,C,,,,C,,T,,M,,N,,M*0C
$GLGSV,3,3,10,87,17,097,34,88,50,142,27*63
$GNGLL,3651.88886,S,17443.36774,E,014331.00,A,A*6D
$GNZDA,014331.00,07,02,2018,00,00*72
$GNRMC,014332.00,A,3651.88841,S,17443.36798,E,1.636,23.92,070218,,,A*54
$AAMTW,22.8,C*1B
$AAXDR,C,22.8,C,ENV_SEA_T*06
$AAMDA,,I,,B,,C,22.8,C,,,,C,,T,,M,,N,,M*0C
$GNVTG,23.92,T,,M,1.636,N,3.030,K,A*1B
$GNGGA,014332.00,3651.88841,S,17443.36798,E,1,12,0.71,14.3,M,28.1,M,,*6A
$GNGSA,A,3,19,09,12,05,29,06,,,,,,,1.41,0.71,1.22*15
$GNGSA,A,3,72,66,78,65,79,81,80,88,87,,,,1.41,0.71,1.22*16
$GPGSV,3,1,09,02,65,160,27,05,60,005,29,06,33,126,19,09,10,121,17*7B
$GPGSV,3,2,09,12,62,298,31,17,04,066,,19,25,075,31,21,,,09*40
$GPGSV,3,3,09,29,18,234,36*42
$GLGSV,3,1,10,65,49,104,33,66,32,022,20,72,17,149,18,78,20,314,18*6A
$AAMTW,23.2,C*10
$AAXDR,C,23.2,C,ENV_SEA_T*0D
$AAMDA,,I,,B,,C,23.2,C,,,,C,,T,,M,,N,,M*07
$GLGSV,3,2,10,79,31,267,36,80,09,207,13,81,39,220,31,82,01,251,18*6C
$GLGSV,3,3,10,87,17,097,34,88,50,142,25*61
$GNGLL,3651.88841,S,17443.36798,E,014332.00,A,A*67
$GNZDA,014332.00,07,02,2018,00,00*71
$GNRMC,014333.00,A,3651.88792,S,17443.36853,E,2.523,28.09,070218,,,A*51
$AAMTW,23.2,C*10
$AAXDR,C,23.2,C,ENV_SEA_T*0D
$AAMDA,,I,,B,,C,23.2,C,,,,C,,T,,M,,N,,M*07
$GNVTG,28.09,T,,M,2.523,N,4.673,K,A*10
$GNGGA,014333.00,3651.88792,S,17443.36853,E,1,12,0.68,14.2,M,28.1,M,,*6B
$GNGSA,A,3,19,09,12,05,29,06,,,,,,,1.37,0.68,1.20*1E
$GNGSA,A,3,72,66,78,65,79,81,80,88,87,,,,1.37,0.68,1.20*1D
$GPGSV,3,1,09,02,65,160,18,05,60,005,19,06,33,126,18,09,10,121,16*74
$GPGSV,3,2,09,12,62,298,31,17,04,066,14,19,25,075,24,21,,,10*49
$GPGSV,3,3,09,29,18,234,30*44
$GLGSV,3,1,10,65,49,104,35,66,32,022,21,72,17,149,20,78,20,314,18*66
$AAMTW,23.2,C*10
$AAXDR,C,23.2,C,ENV_SEA_T*0D
$AAMDA,,I,,B,,C,23.2,C,,,,C,,T,,M,,N,,M*07
$GLGSV,3,2,10,79,31,267,29,80,09,207,14,81,39,220,30,82,01,251,17*6B
$GLGSV,3,3,10,87,17,097,31,88,50,142,23*62
$GNGLL,3651.88792,S,17443.36853,E,014333.00,A,A*6F
$GNZDA,014333.00,07,02,2018,00,00*70
$GNRMC,014334.00,A,3651.88733,S,17443.36924,E,2.931,30.98,070218,,,A*52
$AAMTW,23.2,C*10
$AAXDR,C,23.2,C,ENV_SEA_T*0D
$AAMDA,,I,,B,,C,23.2,C,,,,C,,T,,M,,N,,M*07
$GNVTG,30.98,T,,M,2.931,N,5.428,K,A*13
$GNGGA,014334.00,3651.88733,S,17443.36924,E,1,12,0.78,13.9,M,28.1,M,,*6B
$GNGSA,A,3,19,09,12,05,29,06,,,,,,,1.45,0.78,1.22*18
$GNGSA,A,3,66,78,65,79,81,80,88,87,,,,,1.45,0.78,1.22*1E
$GPGSV,2,1,08,02,65,160,19,05,60,005,22,06,33,126,19,09,10,121,15*7F
$GPGSV,2,2,08,12,62,298,32,17,04,066,12,19,25,074,22,29,18,234,21*7D
$GLGSV,3,1,10,65,49,104,33,66,32,022,21,72,17,149,,78,20,314,15*6F
$GLGSV,3,2,10,79,31,267,29,80,09,207,16,81,39,220,29,82,01,251,17*61
$AAMTW,23.2,C*10
$AAXDR,C,23.2,C,ENV_SEA_T*0D
$AAMDA,,I,,B,,C,23.2,C,,,,C,,T,,M,,N,,M*07
$GLGSV,3,3,10,87,17,097,23,88,50,142,21*63
$GNGLL,3651.88733,S,17443.36924,E,014334.00,A,A*62
$GNZDA,014334.00,07,02,2018,00,00*77
$GNRMC,014335.00,A,3651.88685,S,17443.37004,E,3.141,39.57,070218,,,A*51
$AAMTW,23.2,C*10
$AAXDR,C,23.2,C,ENV_SEA_T*0D
$AAMDA,,I,,B,,C,23.2,C,,,,C,,T,,M,,N,,M*07
$GNVTG,39.57,T,,M,3.141,N,5.817,K,A*17
$GNGGA,014335.00,3651.88685,S,17443.37004,E,1,12,0.78,14.0,M,28.1,M,,*62
$GNGSA,A,3,19,09,12,05,29,06,,,,,,,1.45,0.78,1.22*18
$GNGSA,A,3,66,78,65,79,81,80,88,87,,,,,1.45,0.78,1.22*1E
$GPGSV,2,1,08,02,65,160,20,05,60,005,24,06,33,126,23,09,10,121,15*7A
$GPGSV,2,2,08,12,62,298,35,17,04,066,13,19,25,074,18,29,18,234,30*72
$GLGSV,3,1,10,65,49,104,33,66,32,022,21,72,17,149,,78,20,314,13*69
$GLGSV,3,2,10,79,31,267,32,80,09,207,11,81,39,220,28,82,01,251,15*6F
$AAMTW,23.2,C*10
$AAXDR,C,23.2,C,ENV_SEA_T*0D
$AAMDA,,I,,B,,C,23.2,C,,,,C,,T,,M,,N,,M*07
$GLGSV,3,3,10,87,17,097,22,88,50,142,23*60
$GNGLL,3651.88685,S,17443.37004,E,014335.00,A,A*65
$GNZDA,014335.00,07,02,2018,00,00*76
$GNRMC,014336.00,A,3651.88613,S,17443.37096,E,3.965,45.32,070218,,,A*50
$AAMTW,23.2,C*10
$AAXDR,C,23.2,C,ENV_SEA_T*0D
$AAMDA,,I,,B,,C,23.2,C,,,,C,,T,,M,,N,,M*07
$GNVTG,45.32,T,,M,3.965,N,7.344,K,A*1E
$GNGGA,014336.00,3651.88613,S,17443.37096,E,1,12,0.78,12.9,M,28.1,M,,*6A
$GNGSA,A,3,19,09,12,05,29,06,,,,,,,1.45,0.78,1.22*18
$GNGSA,A,3,66,78,65,79,81,80,88,87,,,,,1.45,0.78,1.22*1E
$GPGSV,2,1,08,02,65,160,21,05,60,005,25,06,33,126,23,09,10,121,12*7D
$GPGSV,2,2,08,12,62,298,34,17,04,066,15,19,25,074,18,29,18,234,30*75
$GLGSV,3,1,10,65,49,104,22,66,32,022,19,72,17,149,,78,20,314,11*60
$AAMTW,23.2,C*10
$GLGSV,3,2,10,79,31,267,20,80,09,207,12,81,39,220,26,82,01,251,14*60
$AAXDR,C,23.2,C,ENV_SEA_T*0D
$AAMDA,,I,,B,,C,23.2,C,,,,C,,T,,M,,N,,M*07
$GLGSV,3,3,10,87,17,097,20,88,50,142,23*62
$GNGLL,3651.88613,S,17443.37096,E,014336.00,A,A*62
$GNZDA,014336.00,07,02,2018,00,00*75
$GNRMC,014337.00,A,3651.88560,S,17443.37185,E,3.443,47.33,070218,,,A*5F
$AAMTW,23.2,C*10
$AAXDR,C,23.2,C,ENV_SEA_T*0D
$AAMDA,,I,,B,,C,23.2,C,,,,C,,T,,M,,N,,M*07
$GNVTG,47.33,T,,M,3.443,N,6.377,K,A*15
$GNGGA,014337.00,3651.88560,S,17443.37185,E,1,12,1.08,12.2,M,28.1,M,,*62
$GNGSA,A,3,19,09,12,05,29,,,,,,,,1.88,1.08,1.54*18
$GNGSA,A,3,66,65,79,81,80,88,87,,,,,,1.88,1.08,1.54*17
$GPGSV,2,1,08,02,65,160,23,05,60,005,25,06,33,126,,09,10,121,16*7A
$GPGSV,2,2,08,12,62,298,29,17,04,066,15,19,25,074,17,29,18,234,31*77
$GLGSV,3,1,10,65,49,104,23,66,32,022,17,72,17,149,,78,20,314,08*67
$AAMTW,23.2,C*10
$GLGSV,3,2,10,79,31,267,29,80,09,207,11,81,39,220,24,82,01,251,13*6F
$AAXDR,C,23.2,C,ENV_SEA_T*0D
$AAMDA,,I,,B,,C,23.2,C,,,,C,,T,,M,,N,,M*07
$GLGSV,3,3,10,87,17,097,18,88,50,142,22*68
$GNGLL,3651.88560,S,17443.37185,E,014337.00,A,A*67
$GNZDA,014337.00,07,02,2018,00,00*74
$GNRMC,014338.00,A,3651.88515,S,17443.37256,E,3.673,50.17,070218,,,A*5E
$AAMTW,23.2,C*10
$AAXDR,C,23.2,C,ENV_SEA_T*0D
$AAMDA,,I,,B,,C,23.2,C,,,,C,,T,,M,,N,,M*07
$GNVTG,50.17,T,,M,3.673,N,6.803,K,A*1C
$GNGGA,014338.00,3651.88515,S,17443.37256,E,1,12,0.90,11.8,M,28.1,M,,*6B
$GNGSA,A,3,19,09,12,05,29,,,,,,,,1.70,0.90,1.45*1F
$GNGSA,A,3,66,78,65,79,81,88,87,,,,,,1.70,0.90,1.45*17
$GPGSV,2,1,08,02,65,160,21,05,60,005,23,06,33,126,20,09,10,121,16*7C
$GPGSV,2,2,08,12,62,298,29,17,04,066,10,19,25,074,16,29,18,234,34*76
$AAMTW,23.2,C*10
$GLGSV,3,1,10,65,49,104,25,66,32,022,15,72,17,149,,78,20,314,09*62
$GLGSV,3,2,10,79,31,267,29,80,09,207,04,81,39,220,23,82,01,251,10*6F
$AAXDR,C,23.2,C,ENV_SEA_T*0D
$AAMDA,,I,,B,,C,23.2,C,,,,C,,T,,M,,N,,M*07
$GLGSV,3,3,10,87,17,097,10,88,50,142,20*62
$GNGLL,3651.88515,S,17443.37256,E,014338.00,A,A*67
$GNZDA,014338.00,07,02,2018,00,00*7B
$GNRMC,014339.00,A,3651.88474,S,17443.37332,E,3.692,50.73,070218,,,A*57
$AAMTW,23.2,C*10
$AAXDR,C,23.2,C,ENV_SEA_T*0D
$AAMDA,,I,,B,,C,23.2,C,,,,C,,T,,M,,N,,M*07
$GNVTG,50.73,T,,M,3.692,N,6.838,K,A*19
$GNGGA,014339.00,3651.88474,S,17443.37332,E,1,12,0.80,12.0,M,28.1,M,,*65
$GNGSA,A,3,19,09,12,05,29,,,,,,,,1.47,0.80,1.23*1A
$GNGSA,A,3,66,78,65,79,81,80,88,87,,,,,1.47,0.80,1.23*1A
$GPGSV,2,1,08,02,65,160,,05,60,005,25,06,33,126,19,09,10,121,13*76
$GPGSV,2,2,08,12,62,298,27,17,04,066,10,19,25,074,16,29,18,234,35*79
$AAMTW,23.2,C*10
$GLGSV,3,1,10,65,49,104,27,66,32,022,20,72,17,149,22,78,20,314,11*6F
$AAXDR,C,23.2,C,ENV_SEA_T*0D
$GLGSV,3,2,10,79,31,267,23,80,09,207,09,81,39,220,23,82,01,251,08*61
$AAMDA,,I,,B,,C,23.2,C,,,,C,,T,,M,,N,,M*07
$GLGSV,3,3,10,87,17,097,14,88,50,142,20*66
$GNGLL,3651.88474,S,17443.37332,E,014339.00,A,A*63
$GNZDA,014339.00,07,02,2018,00,00*7A
$GNRMC,014340.00,A,3651.88417,S,17443.37432,E,4.035,50.05,070218,,,A*56
$AAMTW,23.2,C*10
$AAXDR,C,23.2,C,ENV_SEA_T*0D
$AAMDA,,I,,B,,C,23.2,C,,,,C,,T,,M,,N,,M*07
$GNVTG,50.05,T,,M,4.035,N,7.472,K,A*17
$GNGGA,014340.00,3651.88417,S,17443.37432,E,1,12,0.81,12.2,M,28.1,M,,*6A
$GNGSA,A,3,19,09,12,05,29,,,,,,,,1.65,0.81,1.44*1A
$GNGSA,A,3,66,78,65,79,81,88,87,,,,,,1.65,0.81,1.44*12
$GPGSV,2,1,08,02,65,160,22,05,60,005,25,06,33,126,19,09,10,121,14*71
$GPGSV,2,2,08,12,62,298,27,17,04,066,11,19,25,074,17,29,18,234,31*7D
$AAMTW,23.2,C*10
$GLGSV,3,1,10,65,49,104,26,66,32,022,24,72,17,149,22,78,20,314,09*63
$AAXDR,C,23.2,C,ENV_SEA_T*0D
$GLGSV,3,2,10,79,31,267,34,80,09,207,06,81,39,220,24,82,01,251,07*60
$AAMDA,,I,,B,,C,23.2,C,,,,C,,T,,M,,N,,M*07
$GLGSV,3,3,10,87,17,097,12,88,50,142,20*60
$GNGLL,3651.88417,S,17443.37432,E,014340.00,A,A*6F
$GNZDA,014340.00,07,02,2018,00,00*74
$GNRMC,014341.00,A,3651.88407,S,17443.37541,E,3.496,64.57,070218,,,A*59
$AAMTW,23.2,C*10
$AAXDR,C,23.2,C,ENV_SEA_T*0D
$AAMDA,,I,,B,,C,23.2,C,,,,C,,T,,M,,N,,M*07
$GNVTG,64.57,T,,M,3.496,N,6.474,K,A*1A
$GNGGA,014341.00,3651.88407,S,17443.37541,E,1,12,0.69,11.6,M,28.1,M,,*6E
$GNGSA,A,3,19,09,12,05,29,06,,,,,,,1.44,0.69,1.27*1C
$GNGSA,A,3,72,66,78,65,79,81,80,88,87,,,,1.44,0.69,1.27*1F
$GPGSV,2,1,08,02,65,160,21,05,60,005,23,06,33,126,18,09,10,121,13*72
$GPGSV,2,2,08,12,62,298,32,17,04,066,11,19,25,074,20,29,19,234,30*7D
$AAMTW,23.2,C*10
$AAXDR,C,23.2,C,ENV_SEA_T*0D
$GLGSV,3,1,10,65,49,104,27,66,32,022,30,72,17,149,21,78,20,314,16*6A
$AAMDA,,I,,B,,C,23.2,C,,,,C,,T,,M,,N,,M*07
$GLGSV,3,2,10,79,31,267,35,80,09,207,16,81,39,220,30,82,01,251,09*6B
$GLGSV,3,3,10,87,17,097,19,88,50,142,21*6A
$GNGLL,3651.88407,S,17443.37541,E,014341.00,A,A*6A
$GNZDA,014341.00,07,02,2018,00,00*75
$GNRMC,014342.00,A,3651.88409,S,17443.37651,E,3.797,75.95,070218,,,A*5A
$AAMTW,23.2,C*10
$AAXDR,C,23.2,C,ENV_SEA_T*0D
$AAMDA,,I,,B,,C,23.2,C,,,,C,,T,,M,,N,,M*07
$GNVTG,75.95,T,,M,3.797,N,7.032,K,A*11
$GNGGA,014342.00,3651.88409,S,17443.37651,E,1,12,0.68,12.3,M,28.1,M,,*66
$GNGSA,A,3,19,09,12,05,29,06,,,,,,,1.37,0.68,1.20*1E
$GNGSA,A,3,72,66,78,65,79,81,80,88,87,,,,1.37,0.68,1.20*1D
$GPGSV,2,1,08,02,65,160,21,05,60,005,22,06,33,126,19,09,10,121,15*74
$GPGSV,2,2,08,12,62,298,27,17,04,066,13,19,25,074,22,29,19,234,28*70
$AAMTW,23.2,C*10
$AAXDR,C,23.2,C,ENV_SEA_T*0D
$AAMDA,,I,,B,,C,23.2,C,,,,C,,T,,M,,N,,M*07
$GLGSV,3,1,10,65,49,104,24,66,32,022,21,72,17,149,20,78,20,314,14*6A
$GLGSV,3,2,10,79,31,267,31,80,09,207,12,81,39,220,30,82,01,251,*62
$GLGSV,3,3,10,87,17,097,18,88,50,142,20*6A
$GNGLL,3651.88409,S,17443.37651,E,014342.00,A,A*65
$GNZDA,014342.00,07,02,2018,00,00*76
$AAMTW,23.2,C*10
$GNRMC,014343.00,A,3651.88402,S,17443.37785,E,4.545,84.02,070218,,,A*52
$AAXDR,C,23.2,C,ENV_SEA_T*0D
$AAMDA,,I,,B,,C,23.2,C,,,,C,,T,,M,,N,,M*07
$GNVTG,84.02,T,,M,4.545,N,8.417,K,A*17
$GNGGA,014343.00,3651.88402,S,17443.37785,E,1,12,0.72,11.4,M,28.1,M,,*6B
$GNGSA,A,3,19,09,12,05,29,06,,,,,,,1.54,0.72,1.37*16
$GNGSA,A,3,72,66,78,65,79,81,88,87,,,,,1.54,0.72,1.37*1D
$GPGSV,2,1,08,02,65,160,20,05,60,005,22,06,33,126,19,09,10,121,15*75
$GPGSV,2,2,08,12,62,298,38,17,04,066,09,19,25,074,21,29,19,234,21*7F
$AAMTW,23.2,C*10
$AAXDR,C,23.2,C,ENV_SEA_T*0D
$AAMDA,,I,,B,,C,23.2,C,,,,C,,T,,M,,N,,M*07
$GLGSV,3,1,10,65,49,104,21,66,32,022,20,72,17,149,18,78,20,314,09*69
$GLGSV,3,2,10,79,31,267,34,80,09,207,08,81,39,220,30,82,01,251,*6C
$GLGSV,3,3,10,87,17,097,15,88,50,142,18*6C
$GNGLL,3651.88402,S,17443.37785,E,014343.00,A,A*67
$GNZDA,014343.00,07,02,2018,00,00*77
$AAMTW,23.2,C*10
$AAXDR,C,23.2,C,ENV_SEA_T*0D
$GNRMC,014344.00,A,3651.88401,S,17443.37889,E,4.145,89.97,070218,,,A*50
$AAMDA,,I,,B,,C,23.2,C,,,,C,,T,,M,,N,,M*07
$GNVTG,89.97,T,,M,4.145,N,7.676,K,A*18
$GNGGA,014344.00,3651.88401,S,17443.37889,E,1,12,0.73,11.2,M,28.1,M,,*6B
$GNGSA,A,3,19,09,12,05,29,06,,,,,,,1.50,0.73,1.31*15
$GNGSA,A,3,72,66,78,65,79,81,80,88,87,,,,1.50,0.73,1.31*16
$GPGSV,2,1,08,02,65,160,21,05,60,005,22,06,33,126,20,09,10,121,18*73
$GPGSV,2,2,08,12,62,298,33,17,04,066,16,19,25,074,30,29,19,234,20*7B
$AAMTW,23.2,C*10
$AAXDR,C,23.2,C,ENV_SEA_T*0D
$AAMDA,,I,,B,,C,23.2,C,,,,C,,T,,M,,N,,M*07
$GLGSV,3,1,10,65,49,104,28,66,32,022,18,72,17,149,17,78,20,314,11*6D
$GLGSV,3,2,10,79,31,267,34,80,09,207,09,81,39,220,31,82,01,251,*6C
$GLGSV,3,3,10,87,17,097,15,88,50,142,21*66
$GNGLL,3651.88401,S,17443.37889,E,014344.00,A,A*60
$GNZDA,014344.00,07,02,2018,00,00*70
$AAMTW,23.2,C*10
$GNRMC,014345.00,A,3651.88420,S,17443.38012,E,4.396,92.44,070218,,,A*5F
$AAXDR,C,23.2,C,ENV_SEA_T*0D
$AAMDA,,I,,B,,C,23.2,C,,,,C,,T,,M,,N,,M*07
$GNVTG,92.44,T,,M,4.396,N,8.141,K,A*1C
$GNGGA,014345.00,3651.88420,S,17443.38012,E,1,12,0.68,11.0,M,28.1,M,,*64
$GNGSA,A,3,19,09,12,05,29,06,,,,,,,1.37,0.68,1.20*1E
$GNGSA,A,3,72,66,78,65,79,81,80,88,87,,,,1.37,0.68,1.20*1D
$GPGSV,2,1,08,02,65,160,21,05,60,005,22,06,33,126,20,09,10,121,10*7B
$GPGSV,2,2,08,12,62,298,28,17,04,066,09,19,25,074,25,29,19,234,19*71
$AAMTW,23.2,C*10
$AAXDR,C,23.2,C,ENV_SEA_T*0D
$AAMDA,,I,,B,,C,23.2,C,,,,C,,T,,M,,N,,M*07
$GLGSV,3,1,10,65,49,104,19,66,32,022,19,72,17,149,17,78,20,314,13*6C
$GLGSV,3,2,10,79,31,267,37,80,09,207,12,81,39,220,30,82,01,251,*64
$GLGSV,3,3,10,87,17,097,15,88,50,142,20*67
$GNGLL,3651.88420,S,17443.38012,E,014345.00,A,A*67
$GNZDA,014345.00,07,02,2018,00,00*71
$AAMTW,23.2,C*10
$AAXDR,C,23.2,C,ENV_SEA_T*0D
$GNRMC,014346.00,A,3651.88467,S,17443.38135,E,4.425,97.66,070218,,,A*51
$AAMDA,,I,,B,,C,23.2,C,,,,C,,T,,M,,N,,M*07
$GNVTG,97.66,T,,M,4.425,N,8.194,K,A*1E
$GNGGA,014346.00,3651.88467,S,17443.38135,E,1,12,0.69,11.5,M,28.1,M,,*64
$GNGSA,A,3,19,09,12,05,29,06,,,,,,,1.44,0.69,1.27*1C
$GNGSA,A,3,72,66,78,65,79,81,80,88,87,,,,1.44,0.69,1.27*1F
$GPGSV,2,1,08,02,65,160,22,05,60,005,22,06,33,126,19,09,10,121,23*72
$GPGSV,2,2,08,12,62,298,28,17,04,066,08,19,25,074,25,29,19,234,18*71
$AAMTW,23.2,C*10
$AAXDR,C,23.2,C,ENV_SEA_T*0D
$AAMDA,,I,,B,,C,23.2,C,,,,C,,T,,M,,N,,M*07
$GLGSV,3,1,10,65,49,104,22,66,32,022,20,72,17,149,16,78,20,314,17*6B
$GLGSV,3,2,10,79,31,267,36,80,09,207,23,81,39,220,31,82,01,251,*66
$GLGSV,3,3,10,87,17,097,17,88,50,142,19*6F
$GNGLL,3651.88467,S,17443.38135,E,014346.00,A,A*63
$GNZDA,014346.00,07,02,2018,00,00*72
$AAMTW,23.2,C*10
$AAXDR,C,23.2,C,ENV_SEA_T*0D
$AAMDA,,I,,B,,C,23.2,C,,,,C,,T,,M,,N,,M*07
$GNRMC,014347.00,A,3651.88513,S,17443.38208,E,3.239,102.47,070218,,,A*6D
$GNVTG,102.47,T,,M,3.239,N,5.999,K,A*24
$GNGGA,014347.00,3651.88513,S,17443.38208,E,1,12,0.68,12.0,M,28.1,M,,*6D
$GNGSA,A,3,19,09,12,05,29,06,,,,,,,1.37,0.68,1.20*1E
$GNGSA,A,3,72,66,78,65,79,81,80,88,87,,,,1.37,0.68,1.20*1D
$GPGSV,2,1,08,02,65,160,22,05,60,005,22,06,33,126,22,09,10,121,21*78
$GPGSV,2,2,08,12,62,298,29,17,04,066,09,19,25,074,25,29,19,234,17*7E
$AAMTW,23.2,C*10
$AAXDR,C,23.2,C,ENV_SEA_T*0D
$AAMDA,,I,,B,,C,23.2,C,,,,C,,T,,M,,N,,M*07
$GLGSV,3,1,10,65,49,104,33,66,32,022,22,72,17,149,20,78,20,314,13*68
$GLGSV,3,2,10,79,31,267,36,80,09,207,28,81,39,220,32,82,01,251,*6E
$GLGSV,3,3,10,87,17,097,29,88,50,142,22*6A
$GNGLL,3651.88513,S,17443.38208,E,014347.00,A,A*6D
$GNZDA,014347.00,07,02,2018,00,00*73
$AAMTW,23.2,C*10
$AAXDR,C,23.2,C,ENV_SEA_T*0D
$AAMDA,,I,,B,,C,23.2,C,,,,C,,T,,M,,N,,M*07
$GNRMC,014348.00,A,3651.88469,S,17443.38318,E,4.434,73.87,070218,,,A*59
$GNVTG,73.87,T,,M,4.434,N,8.211,K,A*15
$GNGGA,014348.00,3651.88469,S,17443.38318,E,1,12,0.68,11.8,M,28.1,M,,*65
$GNGSA,A,3,19,09,12,05,29,06,,,,,,,1.37,0.68,1.20*1E
$GNGSA,A,3,72,66,78,65,79,81,80,88,87,,,,1.37,0.68,1.20*1D
$GPGSV,2,1,08,02,65,160,22,05,60,005,22,06,33,126,23,09,10,121,23*7B
$GPGSV,2,2,08,12,62,298,27,17,04,066,12,19,25,074,27,29,19,234,16*79
$AAMTW,23.2,C*10
$AAXDR,C,23.2,C,ENV_SEA_T*0D
$AAMDA,,I,,B,,C,23.2,C,,,,C,,T,,M,,N,,M*07
$GLGSV,3,1,10,65,49,104,26,66,32,022,22,72,17,149,27,78,20,314,14*6C
$GLGSV,3,2,10,79,31,267,42,80,09,207,25,81,39,220,28,82,01,251,18*62
$GLGSV,3,3,10,87,17,097,23,88,50,142,28*6A
$GNGLL,3651.88469,S,17443.38318,E,014348.00,A,A*6E
$GNZDA,014348.00,07,02,2018,00,00*7C
$AAMTW,23.2,C*10
$AAXDR,C,23.2,C,ENV_SEA_T*0D
$AAMDA,,I,,B,,C,23.2,C,,,,C,,T,,M,,N,,M*07
$GNRMC,014349.00,A,3651.88489,S,17443.38430,E,3.622,86.54,070218,,,A*5D
$GNVTG,86.54,T,,M,3.622,N,6.708,K,A*10
$GNGGA,014349.00,3651.88489,S,17443.38430,E,1,12,0.68,11.3,M,28.1,M,,*6C
$GNGSA,A,3,19,09,12,05,29,06,,,,,,,1.37,0.68,1.20*1E
$GNGSA,A,3,72,66,78,65,79,81,80,88,87,,,,1.37,0.68,1.20*1D
$GPGSV,2,1,08,02,65,160,21,05,60,005,23,06,33,126,25,09,10,121,22*7E
$GPGSV,2,2,08,12,62,298,25,17,04,066,12,19,25,074,28,29,19,234,17*75
$AAMTW,23.2,C*10
$AAXDR,C,23.2,C,ENV_SEA_T*0D
$AAMDA,,I,,B,,C,23.2,C,,,,C,,T,,M,,N,,M*07
$GLGSV,3,1,10,65,49,104,30,66,32,022,22,72,17,149,26,78,20,314,13*6D
$GLGSV,3,2,10,79,31,267,38,80,09,207,23,81,39,220,27,82,01,251,*6F
$GLGSV,3,3,10,87,17,097,24,88,50,142,29*6C
$GNGLL,3651.88489,S,17443.38430,E,014349.00,A,A*6C
$GNZDA,014349.00,07,02,2018,00,00*7D
$AAMTW,23.2,C*10
$AAXDR,C,23.2,C,ENV_SEA_T*0D
$AAMDA,,I,,B,,C,23.2,C,,,,C,,T,,M,,N,,M*07
$GNRMC,014350.00,A,3651.88546,S,17443.38535,E,3.917,104.07,070218,,,A*67
$GNVTG,104.07,T,,M,3.917,N,7.255,K,A*28
$GNGGA,014350.00,3651.88546,S,17443.38535,E,1,12,0.68,11.5,M,28.1,M,,*64
$GNGSA,A,3,19,09,12,05,29,06,,,,,,,1.37,0.68,1.20*1E
$GNGSA,A,3,72,66,78,65,79,81,80,88,87,,,,1.37,0.68,1.20*1D
$GPGSV,2,1,08,02,65,160,22,05,60,005,23,06,33,126,26,09,10,121,21*7D
$GPGSV,2,2,08,12,62,298,26,17,04,066,09,19,25,074,28,29,19,234,17*7C
$AAMTW,23.2,C*10
$AAXDR,C,23.2,C,ENV_SEA_T*0D
$AAMDA,,I,,B,,C,23.2,C,,,,C,,T,,M,,N,,M*07
$GLGSV,3,1,10,65,49,104,25,66,32,022,23,72,17,149,31,78,20,314,13*6E
$GLGSV,3,2,10,79,31,267,22,80,09,207,23,81,39,220,27,82,01,251,20*66
$GLGSV,3,3,10,87,17,097,23,88,50,142,28*6A
$GNGLL,3651.88546,S,17443.38535,E,014350.00,A,A*62
$GNZDA,014350.00,07,02,2018,00,00*75
$AAMTW,23.2,C*10
$AAXDR,C,23.2,C,ENV_SEA_T*0D
$AAMDA,,I,,B,,C,23.2,C,,,,C,,T,,M,,N,,M*07
$GNRMC,014351.00,A,3651.88566,S,17443.38624,E,2.733,108.42,070218,,,A*63
$GNVTG,108.42,T,,M,2.733,N,5.062,K,A*28
$GNGGA,014351.00,3651.88566,S,17443.38624,E,1,12,0.69,11.1,M,28.1,M,,*61
$GNGSA,A,3,19,09,12,05,29,06,,,,,,,1.39,0.69,1.21*10
$GNGSA,A,3,72,66,78,65,79,81,80,88,87,,,,1.39,0.69,1.21*13
$GPGSV,2,1,08,02,65,160,21,05,60,005,25,06,33,126,25,09,10,121,21*7B
$GPGSV,2,2,08,12,62,298,26,17,04,066,,19,25,074,26,29,19,234,18*74
$AAMTW,23.2,C*10
$AAXDR,C,23.2,C,ENV_SEA_T*0D
$AAMDA,,I,,B,,C,23.2,C,,,,C,,T,,M,,N,,M*07
$GLGSV,3,1,10,65,49,104,25,66,32,022,22,72,17,149,30,78,20,314,14*69
$GLGSV,3,2,10,79,31,267,30,80,09,207,24,81,39,220,32,82,01,251,*64
$GLGSV,3,3,10,87,17,097,25,88,50,142,28*6C
$GNGLL,3651.88566,S,17443.38624,E,014351.00,A,A*62
$GNZDA,014351.00,07,02,2018,00,00*74
$AAMTW,23.2,C*10
$AAXDR,C,23.2,C,ENV_SEA_T*0D
$AAMDA,,I,,B,,C,23.2,C,,,,C,,T,,M,,N,,M*07
$GNRMC,014352.00,A,3651.88589,S,17443.38683,E,1.792,,070218,,,A*75
$GNVTG,,T,,M,1.792,N,3.318,K,A*39
$GNGGA,014352.00,3651.88589,S,17443.38683,E,1,12,0.69,10.6,M,28.1,M,,*68
$GNGSA,A,3,19,09,12,05,29,06,,,,,,,1.39,0.69,1.21*10
$GNGSA,A,3,72,66,78,65,79,81,80,88,87,,,,1.39,0.69,1.21*13
$GPGSV,2,1,08,02,65,160,29,05,60,005,23,06,33,126,25,09,10,121,21*75
$GPGSV,2,2,08,12,62,298,27,17,04,066,15,19,25,074,25,29,19,234,19*73
$AAMTW,23.2,C*10
$AAXDR,C,23.2,C,ENV_SEA_T*0D
$AAMDA,,I,,B,,C,23.2,C,,,,C,,T,,M,,N,,M*07
$GLGSV,3,1,10,65,49,105,31,66,32,022,22,72,17,149,23,78,20,314,17*6C
$GLGSV,3,2,10,79,31,267,33,80,09,207,25,81,39,220,26,82,01,251,*63
$GLGSV,3,3,10,87,17,097,23,88,50,142,27*65
$GNGLL,3651.88589,S,17443.38683,E,014352.00,A,A*6D
$GNZDA,014352.00,07,02,2018,00,00*77
$AAMTW,23.2,C*10
$AAXDR,C,23.2,C,ENV_SEA_T*0D
$AAMDA,,I,,B,,C,23.2,C,,,,C,,T,,M,,N,,M*07
$GNRMC,014353.00,A,3651.88609,S,17443.38700,E,1.242,,070218,,,A*7D
$GNVTG,,T,,M,1.242,N,2.300,K,A*39
$GNGGA,014353.00,3651.88609,S,17443.38700,E,1,12,0.69,11.1,M,28.1,M,,*6E
$GNGSA,A,3,19,09,12,05,29,06,,,,,,,1.39,0.69,1.21*10
$GNGSA,A,3,72,66,78,65,79,81,80,88,87,,,,1.39,0.69,1.21*13
$GPGSV,2,1,08,02,65,160,22,05,60,005,23,06,33,126,24,09,10,121,23*7D
$GPGSV,2,2,08,12,62,298,26,17,04,066,15,19,25,074,24,29,19,234,19*73
$AAMTW,23.2,C*10
$AAXDR,C,23.2,C,ENV_SEA_T*0D
$AAMDA,,I,,B,,C,23.2,C,,,,C,,T,,M,,N,,M*07
$GLGSV,3,1,10,65,49,105,24,66,32,022,21,72,17,149,34,78,20,314,13*69
$GLGSV,3,2,10,79,31,267,28,80,09,207,25,81,39,220,26,82,01,251,*69
$GLGSV,3,3,10,87,17,097,25,88,50,142,25*61
$GNGLL,3651.88609,S,17443.38700,E,014353.00,A,A*6D
$GNZDA,014353.00,07,02,2018,00,00*76
$AAMTW,23.2,C*10
$AAXDR,C,23.2,C,ENV_SEA_T*0D
$AAMDA,,I,,B,,C,23.2,C,,,,C,,T,,M,,N,,M*07
$GNRMC,014354.00,A,3651.88584,S,17443.38665,E,0.678,,070218,,,A*72
$GNVTG,,T,,M,0.678,N,1.256,K,A*34
$GNGGA,014354.00,3651.88584,S,17443.38665,E,1,12,0.68,12.2,M,28.1,M,,*6C
$GNGSA,A,3,19,09,12,05,29,06,,,,,,,1.37,0.68,1.19*14
$GNGSA,A,3,72,66,78,65,79,81,80,88,87,,,,1.37,0.68,1.19*17
$GPGSV,3,1,09,02,65,160,19,04,,,20,05,60,005,22,06,33,126,22*4F
$GPGSV,3,2,09,09,10,121,26,12,62,298,32,17,04,066,07,19,25,074,25*74
$GPGSV,3,3,09,29,19,234,20*44
$AAMTW,23.2,C*10
$AAXDR,C,23.2,C,ENV_SEA_T*0D
$AAMDA,,I,,B,,C,23.2,C,,,,C,,T,,M,,N,,M*07
$GLGSV,3,1,10,65,49,105,29,66,32,022,23,72,17,149,37,78,20,314,17*61
$GLGSV,3,2,10,79,31,267,20,80,09,207,25,81,39,220,25,82,01,251,*62
$GLGSV,3,3,10,87,17,097,22,88,50,142,23*60
$GNGLL,3651.88584,S,17443.38665,E,014354.00,A,A*6E
$GNZDA,014354.00,07,02,2018,00,00*71
$AAMTW,23.2,C*10
$AAXDR,C,23.2,C,ENV_SEA_T*0D
$AAMDA,,I,,B,,C,23.2,C,,,,C,,T,,M,,N,,M*07
$GNRMC,014355.00,A,3651.88569,S,17443.38640,E,0.186,,070218,,,A*71
$GNVTG,,T,,M,0.186,N,0.345,K,A*30
$GNGGA,014355.00,3651.88569,S,17443.38640,E,1,12,0.69,12.3,M,28.1,M,,*69
$GNGSA,A,3,19,09,12,05,29,06,,,,,,,1.44,0.69,1.27*1C
$GNGSA,A,3,72,66,78,65,79,81,80,88,87,,,,1.44,0.69,1.27*1F
$GPGSV,3,1,09,02,65,160,19,04,,,17,05,60,005,21,06,33,126,20*4A
$GPGSV,3,2,09,09,10,121,26,12,62,298,32,17,04,066,11,19,25,074,24*72
$GPGSV,3,3,09,29,19,234,20*44
$AAMTW,23.2,C*10
$AAXDR,C,23.2,C,ENV_SEA_T*0D
$AAMDA,,I,,B,,C,23.2,C,,,,C,,T,,M,,N,,M*07
$GLGSV,3,1,10,65,49,105,28,66,32,022,25,72,17,149,35,78,20,314,18*6B
$GLGSV,3,2,10,79,31,267,19,80,09,207,25,81,39,220,24,82,01,251,*69
$GLGSV,3,3,10,87,17,097,21,88,50,142,22*62
$GNGLL,3651.88569,S,17443.38640,E,014355.00,A,A*6B
$GNZDA,014355.00,07,02,2018,00,00*70
$AAMTW,23.2,C*10
$AAXDR,C,23.2,C,ENV_SEA_T*0D
$AAMDA,,I,,B,,C,23.2,C,,,,C,,T,,M,,N,,M*07
$GNRMC,014356.00,A,3651.88553,S,17443.38623,E,0.093,,070218,,,A*7B
$GNVTG,,T,,M,0.093,N,0.173,K,A*32
$GNGGA,014356.00,3651.88553,S,17443.38623,E,1,12,0.68,12.2,M,28.1,M,,*66
$GNGSA,A,3,19,09,12,05,29,06,,,,,,,1.37,0.68,1.19*14
$GNGSA,A,3,72,66,78,65,79,81,80,88,87,,,,1.37,0.68,1.19*17
$GPGSV,3,1,09,02,65,160,18,04,,,15,05,60,005,20,06,33,126,19*42
$GPGSV,3,2,09,09,10,121,26,12,62,298,33,17,04,066,11,19,25,074,25*72
$AAMTW,23.2,C*10
$GPGSV,3,3,09,29,19,234,20*44
$AAXDR,C,23.2,C,ENV_SEA_T*0D
$AAMDA,,I,,B,,C,23.2,C,,,,C,,T,,M,,N,,M*07
$GLGSV,3,1,10,65,49,105,28,66,32,022,27,72,17,149,35,78,20,314,19*68
$GLGSV,3,2,10,79,31,267,20,80,09,207,24,81,39,220,22,82,01,251,*64
$GLGSV,3,3,10,87,17,097,16,88,50,142,21*65
$GNGLL,3651.88553,S,17443.38623,E,014356.00,A,A*64
$GNZDA,014356.00,07,02,2018,00,00*73
$AAMTW,23.2,C*10
$AAXDR,C,23.2,C,ENV_SEA_T*0D
$AAMDA,,I,,B,,C,23.2,C,,,,C,,T,,M,,N,,M*07
$GNRMC,014357.00,A,3651.88554,S,17443.38644,E,0.980,,070218,,,A*77
$GNVTG,,T,,M,0.980,N,1.815,K,A*31
$GNGGA,014357.00,3651.88554,S,17443.38644,E,1,12,0.68,12.5,M,28.1,M,,*66
$GNGSA,A,3,19,09,12,05,29,06,,,,,,,1.37,0.68,1.19*14
$GNGSA,A,3,72,66,78,65,79,81,80,88,87,,,,1.37,0.68,1.19*17
$GPGSV,3,1,09,02,65,160,20,04,,,14,05,60,005,28,06,33,126,21*4B
$AAMTW,23.2,C*10
$GPGSV,3,2,09,09,10,121,25,12,62,298,29,17,04,066,10,19,25,074,25*7B
$GPGSV,3,3,09,29,19,234,20*44
$AAXDR,C,23.2,C,ENV_SEA_T*0D
$AAMDA,,I,,B,,C,23.2,C,,,,C,,T,,M,,N,,M*07
$GLGSV,3,1,10,65,49,105,26,66,32,022,25,72,17,149,30,78,20,314,18*60
$GLGSV,3,2,10,79,31,267,22,80,09,207,23,81,39,220,30,82,01,251,*62
$GLGSV,3,3,10,87,17,097,19,88,50,142,29*62
$GNGLL,3651.88554,S,17443.38644,E,014357.00,A,A*63
$GNZDA,014357.00,07,02,2018,00,00*72
$AAMTW,23.2,C*10
$AAXDR,C,23.2,C,ENV_SEA_T*0D
$AAMDA,,I,,B,,C,23.2,C,,,,C,,T,,M,,N,,M*07
$GNRMC,014358.00,A,3651.88561,S,17443.38662,E,0.830,,070218,,,A*70
$GNVTG,,T,,M,0.830,N,1.537,K,A*36
$GNGGA,014358.00,3651.88561,S,17443.38662,E,1,12,0.68,11.8,M,28.1,M,,*65
$GNGSA,A,3,19,09,12,05,29,06,,,,,,,1.37,0.68,1.19*14
$GNGSA,A,3,72,66,78,65,79,81,80,88,87,,,,1.37,0.68,1.19*17
$GPGSV,3,1,09,02,65,160,22,04,,,12,05,60,005,25,06,33,126,23*40
$GPGSV,3,2,09,09,10,121,26,12,62,298,29,17,04,066,09,19,25,074,26*73
$AAMTW,23.2,C*10
$GPGSV,3,3,09,29,19,234,19*4E
$AAXDR,C,23.2,C,ENV_SEA_T*0D
$AAMDA,,I,,B,,C,23.2,C,,,,C,,T,,M,,N,,M*07
$GLGSV,3,1,10,65,49,105,25,66,32,022,23,72,17,149,24,78,20,314,17*6F
$GLGSV,3,2,10,79,31,267,25,80,09,207,22,81,39,220,24,82,01,251,*61
$GLGSV,3,3,10,87,17,097,21,88,50,142,21*61
$GNGLL,3651.88561,S,17443.38662,E,014358.00,A,A*6E
$GNZDA,014358.00,07,02,2018,00,00*7D
$AAMTW,23.2,C*10
$AAXDR,C,23.2,C,ENV_SEA_T*0D
$AAMDA,,I,,B,,C,23.2,C,,,,C,,T,,M,,N,,M*07
$GNRMC,014359.00,A,3651.88520,S,17443.38714,E,2.348,83.81,070218,,,A*5E
$GNVTG,83.81,T,,M,2.348,N,4.349,K,A*16
$GNGGA,014359.00,3651.88520,S,17443.38714,E,1,12,0.68,11.1,M,28.1,M,,*68
$GNGSA,A,3,19,09,12,05,29,06,,,,,,,1.37,0.68,1.19*14
$GNGSA,A,3,72,66,78,65,79,81,80,88,87,,,,1.37,0.68,1.19*17
$GPGSV,3,1,09,02,65,160,21,04,,,13,05,60,005,22,06,33,126,23*45
$GPGSV,3,2,09,09,10,121,23,12,62,298,28,17,04,066,09,19,25,074,24*75
$AAMTW,23.2,C*10
$GPGSV,3,3,09,29,19,234,19*4E
$AAXDR,C,23.2,C,ENV_SEA_T*0D
$AAMDA,,I,,B,,C,23.2,C,,,,C,,T,,M,,N,,M*07
$GLGSV,3,1,10,65,49,105,23,66,32,022,21,72,17,149,25,78,20,314,18*65
$GLGSV,3,2,10,79,31,267,25,80,09,207,23,81,39,220,32,82,01,251,*67
$GLGSV,3,3,10,87,17,097,22,88,50,142,20*63
$GNGLL,3651.88520,S,17443.38714,E,014359.00,A,A*6A
$GNZDA,014359.00,07,02,2018,00,00*7C
$AAMTW,23.2,C*10
$AAXDR,C,23.2,C,ENV_SEA_T*0D
$AAMDA,,I,,B,,C,23.2,C,,,,C,,T,,M,,N,,M*07
$GNRMC,014400.00,A,3651.88512,S,17443.38774,E,1.997,88.73,070218,,,A*5F
$GNVTG,88.73,T,,M,1.997,N,3.699,K,A*14
$GNGGA,014400.00,3651.88512,S,17443.38774,E,1,12,0.70,10.7,M,28.1,M,,*6A
$GNGSA,A,3,19,09,12,05,29,06,,,,,,,1.39,0.70,1.20*19
$GNGSA,A,3,66,78,65,79,81,80,88,87,,,,,1.39,0.70,1.20*1F
$GPGSV,3,1,09,02,65,160,21,04,,,14,05,60,005,23,06,33,126,24*44
$AAMTW,23.2,C*10
$GPGSV,3,2,09,09,10,121,22,12,62,298,28,17,04,066,11,19,25,074,21*78
$AAXDR,C,23.2,C,ENV_SEA_T*0D
$GPGSV,3,3,09,29,19,234,20*44
$AAMDA,,I,,B,,C,23.2,C,,,,C,,T,,M,,N,,M*07
$GLGSV,3,1,10,65,49,105,23,66,32,022,22,72,17,149,22,78,20,314,18*61
$GLGSV,3,2,10,79,31,267,26,80,09,207,24,81,39,220,27,82,01,251,*67
$GLGSV,3,3,10,87,17,097,22,88,50,142,21*62
$GNGLL,3651.88512,S,17443.38774,E,014400.00,A,A*66
$GNZDA,014400.00,07,02,2018,00,00*77
$AAMTW,23.6,C*14
$AAXDR,C,23.6,C,ENV_SEA_T*09
$AAMDA,,I,,B,,C,23.6,C,,,,C,,T,,M,,N,,M*03
$GNRMC,014401.00,A,3651.88531,S,17443.38843,E,1.944,,070218,,,A*70
$GNVTG,,T,,M,1.944,N,3.600,K,A*30
$GNGGA,014401.00,3651.88531,S,17443.38843,E,1,12,0.70,11.2,M,28.1,M,,*65
$GNGSA,A,3,19,09,12,05,29,06,,,,,,,1.39,0.70,1.20*19
$GNGSA,A,3,66,78,65,79,81,80,88,87,,,,,1.39,0.70,1.20*1F
$GPGSV,3,1,09,02,65,160,22,04,,,15,05,60,005,24,06,33,126,23*46
$AAMTW,23.6,C*14
$GPGSV,3,2,09,09,10,121,22,12,62,298,27,17,04,066,12,19,25,074,20*75
$AAXDR,C,23.6,C,ENV_SEA_T*09
$GPGSV,3,3,09,29,19,234,20*44
$AAMDA,,I,,B,,C,23.6,C,,,,C,,T,,M,,N,,M*03
$GLGSV,3,1,10,65,49,105,26,66,32,022,24,72,17,149,24,78,20,314,19*65
$GLGSV,3,2,10,79,31,267,26,80,09,207,24,81,39,220,27,82,01,251,*67
$GLGSV,3,3,10,87,17,097,22,88,50,142,28*6B
$GNGLL,3651.88531,S,17443.38843,E,014401.00,A,A*6D
$GNZDA,014401.00,07,02,2018,00,00*76
$AAMTW,23.6,C*14
$AAXDR,C,23.6,C,ENV_SEA_T*09
$AAMDA,,I,,B,,C,23.6,C,,,,C,,T,,M,,N,,M*03
