$AAMWD,0.0,T,0.0,M,0.0,N,0.0,M*44
$AAMTW,26.2,C*15
$AAXDR,C,26.2,C,ENV_SEA_T*08
$AAMDA,,I,,B,,C,26.2,C,,,,C,,T,,M,,N,,M*02
$AAMTW,26.2,C*15
$AAXDR,C,26.2,C,ENV_SEA_T*08
$AAMDA,,I,,B,,C,26.2,C,,,,C,,T,,M,,N,,M*02
$AAMTW,26.2,C*15
$AAXDR,C,26.2,C,ENV_SEA_T*08
$AAMDA,,I,,B,,C,26.2,C,,,,C,,T,,M,,N,,M*02
$AAMTW,26.2,C*15
$AAXDR,C,26.2,C,ENV_SEA_T*08
$AAMDA,,I,,B,,C,26.2,C,,,,C,,T,,M,,N,,M*02
$AAMTW,26.2,C*15
$AAXDR,C,26.2,C,ENV_SEA_T*08
$AAMDA,,I,,B,,C,26.2,C,,,,C,,T,,M,,N,,M*02
45.00,V,,,,,,,260118,,,N*6C
$GNVTG,,,,,,,,,N*2E
$GNGGA,033245.00,,,,,0,00,99.99,,,,,,*7B
$AAMTW,26.2,C*15
$AAXDR,C,26.2,C,ENV_SEA_T*08
$AAMDA,,I,,B,,C,26.2,C,,,,C,,T,,M,,N,,M*02
$GNGSA,A,1,,,,,,,,,,,,,99.99,99.99,99.99*2E
$GNGSA,A,1,,,,,,,,,,,,,99.99,99.99,99.99*2E
$GPGSV,2,1,05,02,,,41,05,,,35,06,,,35,12,,,36*7D
$GPGSV,2,2,05,13,,,42*78
$GLGSV,1,1,00*65
$GNGLL,,,,,033245.00,V,N*57
$GNZDA,033245.00,26,01,2018,00,00*75
$AAMTW,26.2,C*15
$AAXDR,C,26.2,C,ENV_SEA_T*08
$AAMDA,,I,,B,,C,26.2,C,,,,C,,T,,M,,N,,M*02
$GNRMC,033246.00,V,,,,,,,260118,,,N*6F
$GNVTG,,,,,,,,,N*2E
$AAMTW,26.2,C*15
$AAXDR,C,26.2,C,ENV_SEA_T*08
$AAMDA,,I,,B,,C,26.2,C,,,,C,,T,,M,,N,,M*02
$GNGGA,033246.00,,,,,0,00,99.99,,,,,,*78
$GNGSA,A,1,,,,,,,,,,,,,99.99,99.99,99.99*2E
$GNGSA,A,1,,,,,,,,,,,,,99.99,99.99,99.99*2E
$GPGSV,2,1,05,02,,,41,05,,,35,06,,,33,12,,,41*7B
$GPGSV,2,2,05,13,,,41*7B
$GLGSV,1,1,00*65
$GNGLL,,,,,033246.00,V,N*54
$GNZDA,033246.00,26,01,2018,00,00*76
$AAMTW,26.2,C*15
$AAXDR,C,26.2,C,ENV_SEA_T*08
$AAMDA,,I,,B,,C,26.2,C,,,,C,,T,,M,,N,,M*02
$GNRMC,033247.00,V,,,,,,,260118,,,N*6E
$GNVTG,,,,,,,,,N*2E
$AAMTW,26.2,C*15
$AAXDR,C,26.2,C,ENV_SEA_T*08
$AAMDA,,I,,B,,C,26.2,C,,,,C,,T,,M,,N,,M*02
$GNGGA,033247.00,,,,,0,00,99.99,,,,,,*79
$GNGSA,A,1,,,,,,,,,,,,,99.99,99.99,99.99*2E
$GNGSA,A,1,,,,,,,,,,,,,99.99,99.99,99.99*2E
$GPGSV,2,1,05,02,,,38,05,,,35,06,,,33,12,,,40*74
$GPGSV,2,2,05,13,,,42*78
$GLGSV,1,1,00*65
$GNGLL,,,,,033247.00,V,N*55
$GNZDA,033247.00,26,01,2018,00,00*77
$AAMTW,26.2,C*15
$AAXDR,C,26.2,C,ENV_SEA_T*08
$AAMDA,,I,,B,,C,26.2,C,,,,C,,T,,M,,N,,M*02
$GNRMC,033248.00,V,,,,,,,260118,,,N*61
$GNVTG,,,,,,,,,N*2E
$AAMTW,26.2,C*15
$AAXDR,C,26.2,C,ENV_SEA_T*08
$AAMDA,,I,,B,,C,26.2,C,,,,C,,T,,M,,N,,M*02
$GNGGA,033248.00,,,,,0,00,99.99,,,,,,*76
$GNGSA,A,1,,,,,,,,,,,,,99.99,99.99,99.99*2E
$GNGSA,A,1,,,,,,,,,,,,,99.99,99.99,99.99*2E
$GPGSV,2,1,05,02,,,38,05,,,38,06,,,34,12,,,40*7E
$GPGSV,2,2,05,13,,,41*7B
$GLGSV,1,1,00*65
$GNGLL,,,,,033248.00,V,N*5A
$GNZDA,033248.00,26,01,2018,00,00*78
$AAMTW,26.2,C*15
$AAXDR,C,26.2,C,ENV_SEA_T*08
$AAMDA,,I,,B,,C,26.2,C,,,,C,,T,,M,,N,,M*02
$GNRMC,033249.00,V,,,,,,,260118,,,N*60
$GNVTG,,,,,,,,,N*2E
$AAMTW,26.2,C*15
$AAXDR,C,26.2,C,ENV_SEA_T*08
$AAMDA,,I,,B,,C,26.2,C,,,,C,,T,,M,,N,,M*02
$GNGGA,033249.00,,,,,0,00,99.99,,,,,,*77
$GNGSA,A,1,,,,,,,,,,,,,99.99,99.99,99.99*2E
$GNGSA,A,1,,,,,,,,,,,,,99.99,99.99,99.99*2E
$GPGSV,2,1,05,02,,,38,05,,,37,06,,,30,12,,,40*75
$GPGSV,2,2,05,13,,,42*78
$GLGSV,1,1,01,,,,30*67
$GNGLL,,,,,033249.00,V,N*5B
$GNZDA,033249.00,26,01,2018,00,00*79
$AAMTW,26.2,C*15
$AAXDR,C,26.2,C,ENV_SEA_T*08
$AAMDA,,I,,B,,C,26.2,C,,,,C,,T,,M,,N,,M*02
$GNRMC,033250.00,V,,,,,,,260118,,,N*68
$GNVTG,,,,,,,,,N*2E
$AAMTW,26.2,C*15
$AAXDR,C,26.2,C,ENV_SEA_T*08
$AAMDA,,I,,B,,C,26.2,C,,,,C,,T,,M,,N,,M*02
$GNGGA,033250.00,,,,,0,00,99.99,,,,,,*7F
$GNGSA,A,1,,,,,,,,,,,,,99.99,99.99,99.99*2E
$GNGSA,A,1,,,,,,,,,,,,,99.99,99.99,99.99*2E
$GPGSV,2,1,05,02,,,35,05,,,33,06,,,31,12,,,40*7D
$GPGSV,2,2,05,13,,,42*78
$GLGSV,1,1,01,,,,31*66
$GNGLL,,,,,033250.00,V,N*53
$GNZDA,033250.00,26,01,2018,00,00*71
$AAMTW,26.2,C*15
$AAXDR,C,26.2,C,ENV_SEA_T*08
$AAMDA,,I,,B,,C,26.2,C,,,,C,,T,,M,,N,,M*02
$GNRMC,033251.00,V,,,,,,,260118,,,N*69
$GNVTG,,,,,,,,,N*2E
$AAMTW,26.2,C*15
$AAXDR,C,26.2,C,ENV_SEA_T*08
$AAMDA,,I,,B,,C,26.2,C,,,,C,,T,,M,,N,,M*02
$GNGGA,033251.00,,,,,0,00,99.99,,,,,,*7E
$GNGSA,A,1,,,,,,,,,,,,,99.99,99.99,99.99*2E
$GNGSA,A,1,,,,,,,,,,,,,99.99,99.99,99.99*2E
$GPGSV,2,1,05,02,,,39,05,,,36,06,,,33,12,,,39*78
$GPGSV,2,2,05,13,,,40*7A
$GLGSV,1,1,01,,,,33*64
$GNGLL,,,,,033251.00,V,N*52
$GNZDA,033251.00,26,01,2018,00,00*70
$AAMTW,26.2,C*15
$AAXDR,C,26.2,C,ENV_SEA_T*08
$AAMDA,,I,,B,,C,26.2,C,,,,C,,T,,M,,N,,M*02
$GNRMC,033252.00,V,,,,,,,260118,,,N*6A
$GNVTG,,,,,,,,,N*2E
$AAMTW,26.2,C*15
$AAXDR,C,26.2,C,ENV_SEA_T*08
$AAMDA,,I,,B,,C,26.2,C,,,,C,,T,,M,,N,,M*02
$GNGGA,033252.00,,,,,0,00,99.99,,,,,,*7D
$GNGSA,A,1,,,,,,,,,,,,,99.99,99.99,99.99*2E
$GNGSA,A,1,,,,,,,,,,,,,99.99,99.99,99.99*2E
$GPGSV,2,1,05,02,,,37,05,,,36,06,,,32,12,,,38*76
$GPGSV,2,2,05,13,,,41*7B
$GLGSV,1,1,01,,,,34*63
$GNGLL,,,,,033252.00,V,N*51
$GNZDA,033252.00,26,01,2018,00,00*73
$AAMTW,26.2,C*15
$AAXDR,C,26.2,C,ENV_SEA_T*08
$AAMDA,,I,,B,,C,26.2,C,,,,C,,T,,M,,N,,M*02
$GNRMC,033253.00,V,,,,,,,260118,,,N*6B
$GNVTG,,,,,,,,,N*2E
$AAMTW,26.2,C*15
$AAXDR,C,26.2,C,ENV_SEA_T*08
$AAMDA,,I,,B,,C,26.2,C,,,,C,,T,,M,,N,,M*02
$GNGGA,033253.00,,,,,0,00,99.99,,,,,,*7C
$GNGSA,A,1,,,,,,,,,,,,,99.99,99.99,99.99*2E
$GNGSA,A,1,,,,,,,,,,,,,99.99,99.99,99.99*2E
$GPGSV,2,1,06,02,,,37,05,,,36,06,,,31,12,,,38*76
$GPGSV,2,2,06,13,,,41,15,,,39*76
$GLGSV,1,1,01,,,,34*63
$GNGLL,,,,,033253.00,V,N*50
$GNZDA,033253.00,26,01,2018,00,00*72
$AAMTW,26.2,C*15
$AAXDR,C,26.2,C,ENV_SEA_T*08
$AAMDA,,I,,B,,C,26.2,C,,,,C,,T,,M,,N,,M*02
$GNRMC,033254.00,V,,,,,,,260118,,,N*6C
$GNVTG,,,,,,,,,N*2E
$AAMTW,26.2,C*15
$AAXDR,C,26.2,C,ENV_SEA_T*08
$AAMDA,,I,,B,,C,26.2,C,,,,C,,T,,M,,N,,M*02
$GNGGA,033254.00,,,,,0,00,99.99,,,,,,*7B
$GNGSA,A,1,,,,,,,,,,,,,99.99,99.99,99.99*2E
$GNGSA,A,1,,,,,,,,,,,,,99.99,99.99,99.99*2E
$GPGSV,2,1,06,02,,,37,05,,,34,06,,,37,12,,,39*73
$GPGSV,2,2,06,13,,,41,15,,,37*78
$GLGSV,1,1,01,,,,39*6E
$GNGLL,,,,,033254.00,V,N*57
$GNZDA,033254.00,26,01,2018,00,00*75
$AAMTW,26.6,C*11
$AAXDR,C,26.6,C,ENV_SEA_T*0C
$AAMDA,,I,,B,,C,26.6,C,,,,C,,T,,M,,N,,M*06
$GNRMC,033255.00,V,,,,,,,260118,,,N*6D
$GNVTG,,,,,,,,,N*2E
$AAMTW,26.6,C*11
$AAXDR,C,26.6,C,ENV_SEA_T*0C
$AAMDA,,I,,B,,C,26.6,C,,,,C,,T,,M,,N,,M*06
$GNGGA,033255.00,,,,,0,00,99.99,,,,,,*7A
$GNGSA,A,1,,,,,,,,,,,,,99.99,99.99,99.99*2E
$GNGSA,A,1,,,,,,,,,,,,,99.99,99.99,99.99*2E
$GPGSV,2,1,06,02,,,31,05,,,34,06,,,30,12,,,36*7D
$GPGSV,2,2,06,13,,,36,15,,,37*78
$GLGSV,1,1,01,,,,39*6E
$GNGLL,,,,,033255.00,V,N*56
$GNZDA,033255.00,26,01,2018,00,00*74
$AAMTW,26.6,C*11
$AAXDR,C,26.6,C,ENV_SEA_T*0C
$AAMDA,,I,,B,,C,26.6,C,,,,C,,T,,M,,N,,M*06
$GNRMC,033256.00,V,,,,,,,260118,,,N*6E
$AAMTW,26.6,C*11
$GNVTG,,,,,,,,,N*2E
$AAXDR,C,26.6,C,ENV_SEA_T*0C
$AAMDA,,I,,B,,C,26.6,C,,,,C,,T,,M,,N,,M*06
$GNGGA,033256.00,,,,,0,00,99.99,,,,,,*79
$GNGSA,A,1,,,,,,,,,,,,,99.99,99.99,99.99*2E
$GNGSA,A,1,,,,,,,,,,,,,99.99,99.99,99.99*2E
$GPGSV,2,1,06,02,,,31,05,,,38,06,,,28,12,,,37*79
$GPGSV,2,2,06,13,,,32,15,,,38*73
$GLGSV,1,1,01,,,,38*6F
$GNGLL,,,,,033256.00,V,N*55
$GNZDA,033256.00,26,01,2018,00,00*77
$AAMTW,26.6,C*11
$AAXDR,C,26.6,C,ENV_SEA_T*0C
$AAMDA,,I,,B,,C,26.6,C,,,,C,,T,,M,,N,,M*06
$AAMTW,26.6,C*11
$GNRMC,033257.00,V,,,,,,,260118,,,N*6F
$AAXDR,C,26.6,C,ENV_SEA_T*0C
$GNVTG,,,,,,,,,N*2E
$AAMDA,,I,,B,,C,26.6,C,,,,C,,T,,M,,N,,M*06
$GNGGA,033257.00,,,,,0,00,99.99,,,,,,*78
$GNGSA,A,1,,,,,,,,,,,,,99.99,99.99,99.99*2E
$GNGSA,A,1,,,,,,,,,,,,,99.99,99.99,99.99*2E
$GPGSV,2,1,06,02,,,32,05,,,39,06,,,20,12,,,36*72
$GPGSV,2,2,06,13,,,32,15,,,36*7D
$GLGSV,1,1,01,,,,35*62
$GNGLL,,,,,033257.00,V,N*54
$AAMTW,26.6,C*11
$GNZDA,033257.00,26,01,2018,00,00*76
$AAXDR,C,26.6,C,ENV_SEA_T*0C
$AAMDA,,I,,B,,C,26.6,C,,,,C,,T,,M,,N,,M*06
$AAMTW,26.6,C*11
$GNRMC,033258.00,V,,,,,,,260118,,,N*60
$AAXDR,C,26.6,C,ENV_SEA_T*0C
$GNVTG,,,,,,,,,N*2E
$AAMDA,,I,,B,,C,26.6,C,,,,C,,T,,M,,N,,M*06
$GNGGA,033258.00,,,,,0,00,99.99,,,,,,*77
$GNGSA,A,1,,,,,,,,,,,,,99.99,99.99,99.99*2E
$GNGSA,A,1,,,,,,,,,,,,,99.99,99.99,99.99*2E
$GPGSV,2,1,06,02,,,33,05,,,39,06,,,21,12,,,36*72
$GPGSV,2,2,06,13,,,33,15,,,37*7D
$GLGSV,1,1,01,,,,36*61
$AAMTW,26.6,C*11
$GNGLL,,,,,033258.00,V,N*5B
$GNZDA,033258.00,26,01,2018,00,00*79
$AAXDR,C,26.6,C,ENV_SEA_T*0C
$AAMDA,,I,,B,,C,26.6,C,,,,C,,T,,M,,N,,M*06
$AAMTW,26.6,C*11
$AAXDR,C,26.6,C,ENV_SEA_T*0C
$GNRMC,033259.00,V,,,,,,,260118,,,N*61
$AAMDA,,I,,B,,C,26.6,C,,,,C,,T,,M,,N,,M*06
$GNVTG,,,,,,,,,N*2E
$GNGGA,033259.00,,,,,0,00,99.99,,,,,,*76
$GNGSA,A,1,,,,,,,,,,,,,99.99,99.99,99.99*2E
$GNGSA,A,1,,,,,,,,,,,,,99.99,99.99,99.99*2E
$GPGSV,2,1,07,02,,,36,05,,,39,06,,,21,12,,,37*77
$GPGSV,2,2,07,13,,,33,15,,,37,19,,,28*7E
$AAMTW,26.6,C*11
$GLGSV,1,1,01,,,,37*60
$AAXDR,C,26.6,C,ENV_SEA_T*0C
$GNGLL,,,,,033259.00,V,N*5A
$GNZDA,033259.00,26,01,2018,00,00*78
$AAMDA,,I,,B,,C,26.6,C,,,,C,,T,,M,,N,,M*06
$AAMTW,26.6,C*11
$AAXDR,C,26.6,C,ENV_SEA_T*0C
$GNRMC,033300.00,V,,,,,,,260118,,,N*6C
$GNVTG,,,,,,,,,N*2E
$AAMDA,,I,,B,,C,26.6,C,,,,C,,T,,M,,N,,M*06
$GNGGA,033300.00,,,,,0,00,99.99,,,,,,*7B
$GNGSA,A,1,,,,,,,,,,,,,99.99,99.99,99.99*2E
$GNGSA,A,1,,,,,,,,,,,,,99.99,99.99,99.99*2E
$GPGSV,2,1,08,02,,,33,05,,,39,06,,,25,12,,,40*79
$GPGSV,2,2,08,13,,,28,15,,,36,19,,,28,20,,,31*7A
$AAMTW,26.6,C*11
$AAXDR,C,26.6,C,ENV_SEA_T*0C
$AAMDA,,I,,B,,C,26.6,C,,,,C,,T,,M,,N,,M*06
$GLGSV,1,1,01,,,,38*6F
$GNGLL,,,,,033300.00,V,N*57
$GNZDA,033300.00,26,01,2018,00,00*75
$AAMTW,26.6,C*11
$AAXDR,C,26.6,C,ENV_SEA_T*0C
$AAMDA,,I,,B,,C,26.6,C,,,,C,,T,,M,,N,,M*06
$GNRMC,033301.01,A,3651.98659,S,17443.43541,E,0.018,,260118,,,A*7D
$GNVTG,,T,,M,0.018,N,0.033,K,A*34
$GNGGA,033301.01,3651.98659,S,17443.43541,E,1,04,3.81,28.4,M,28.1,M,,*6F
$GNGSA,A,3,05,13,12,02,,,,,,,,,6.05,3.81,4.70*10
$GNGSA,A,3,,,,,,,,,,,,,6.05,3.81,4.70*16
$GPGSV,2,1,08,02,46,122,31,05,81,086,39,06,,,36,12,38,331,40*47
$GPGSV,2,2,08,13,13,033,38,15,,,32,19,,,31,20,,,24*41
$GLGSV,1,1,01,,,,41*61
$GNGLL,3651.98659,S,17443.43541,E,033301.01,A,A*61
$AAMTW,26.6,C*11
$AAXDR,C,26.6,C,ENV_SEA_T*0C
$AAMDA,,I,,B,,C,26.6,C,,,,C,,T,,M,,N,,M*06
$GNZDA,033301.01,26,01,2018,00,00*75
$GNRMC,033302.00,A,3651.99106,S,17443.43122,E,0.038,,260118,,,A*70
$GNVTG,,T,,M,0.038,N,0.070,K,A*31
$GNGGA,033302.00,3651.99106,S,17443.43122,E,1,04,2.17,15.9,M,28.1,M,,*6D
$AAMTW,26.6,C*11
$AAXDR,C,26.6,C,ENV_SEA_T*0C
$AAMDA,,I,,B,,C,26.6,C,,,,C,,T,,M,,N,,M*06
$GNGSA,A,3,05,13,12,02,,,,,,,,,3.42,2.17,2.64*1B
$GNGSA,A,3,,,,,,,,,,,,,3.42,2.17,2.64*1D
$GPGSV,2,1,08,02,46,122,35,05,81,086,38,06,,,36,12,38,331,40*42
$GPGSV,2,2,08,13,13,033,40,15,,,32,19,,,33,20,,,24*4C
$GLGSV,1,1,01,,,,41*61
$GNGLL,3651.99106,S,17443.43122,E,033302.00,A,A*6E
$AAMTW,26.6,C*11
$AAXDR,C,26.6,C,ENV_SEA_T*0C
$GNZDA,033302.00,26,01,2018,00,00*77
$AAMDA,,I,,B,,C,26.6,C,,,,C,,T,,M,,N,,M*06
$GNRMC,033303.00,A,3651.99082,S,17443.43110,E,0.035,,260118,,,A*70
$GNVTG,,T,,M,0.035,N,0.065,K,A*38
$AAMTW,26.6,C*11
$GNGGA,033303.00,3651.99082,S,17443.43110,E,1,04,2.17,15.9,M,28.1,M,,*60
$AAXDR,C,26.6,C,ENV_SEA_T*0C
$AAMDA,,I,,B,,C,26.6,C,,,,C,,T,,M,,N,,M*06
$GNGSA,A,3,05,13,12,02,,,,,,,,,3.42,2.17,2.64*1B
$GNGSA,A,3,,,,,,,,,,,,,3.42,2.17,2.64*1D
$GPGSV,2,1,08,02,46,122,34,05,81,086,37,06,,,36,12,38,331,40*4C
$GPGSV,2,2,08,13,13,033,41,15,,,32,19,,,34,20,,,25*4B
$GLGSV,1,1,02,,,,41,,,,41*67
$GNGLL,3651.99082,S,17443.43110,E,033303.00,A,A*63
$AAMTW,26.6,C*11
$AAXDR,C,26.6,C,ENV_SEA_T*0C
$AAMDA,,I,,B,,C,26.6,C,,,,C,,T,,M,,N,,M*06
$GNZDA,033303.00,26,01,2018,00,00*76
$GNRMC,033304.00,A,3651.99044,S,17443.43119,E,0.132,,260118,,,A*72
$AAMTW,26.6,C*11
$GNVTG,,T,,M,0.132,N,0.244,K,A*3F
$GNGGA,033304.00,3651.99044,S,17443.43119,E,1,04,2.17,16.0,M,28.1,M,,*6E
$AAXDR,C,26.6,C,ENV_SEA_T*0C
$AAMDA,,I,,B,,C,26.6,C,,,,C,,T,,M,,N,,M*06
$GNGSA,A,3,05,13,12,02,,,,,,,,,3.42,2.17,2.64*1B
$GNGSA,A,3,,,,,,,,,,,,,3.42,2.17,2.64*1D
$GPGSV,2,1,08,02,46,122,33,05,81,086,38,06,,,36,12,38,331,40*44
$GPGSV,2,2,08,13,13,033,40,15,,,30,19,,,35,20,,,25*49
$GLGSV,1,1,02,,,,41,,,,41*67
$GNGLL,3651.99044,S,17443.43119,E,033304.00,A,A*67
$AAMTW,26.6,C*11
$AAXDR,C,26.6,C,ENV_SEA_T*0C
$AAMDA,,I,,B,,C,26.6,C,,,,C,,T,,M,,N,,M*06
$GNZDA,033304.00,26,01,2018,00,00*71
$GNRMC,033305.00,A,3651.99029,S,17443.43082,E,0.246,,260118,,,A*7B
$AAMTW,26.6,C*11
$GNVTG,,T,,M,0.246,N,0.456,K,A*3A
$GNGGA,033305.00,3651.99029,S,17443.43082,E,1,04,2.17,16.4,M,28.1,M,,*63
$AAXDR,C,26.6,C,ENV_SEA_T*0C
$AAMDA,,I,,B,,C,26.6,C,,,,C,,T,,M,,N,,M*06
$GNGSA,A,3,05,13,12,02,,,,,,,,,3.42,2.17,2.64*1B
$GNGSA,A,3,,,,,,,,,,,,,3.42,2.17,2.64*1D
$GPGSV,2,1,08,02,46,122,31,05,81,086,37,06,,,35,12,38,331,40*4A
$GPGSV,2,2,08,13,13,033,42,15,,,29,19,,,35,20,,,24*42
$GLGSV,1,1,02,,,,38,,,,40*68
$GNGLL,3651.99029,S,17443.43082,E,033305.00,A,A*6E
$AAMTW,26.6,C*11
$AAXDR,C,26.6,C,ENV_SEA_T*0C
$AAMDA,,I,,B,,C,26.6,C,,,,C,,T,,M,,N,,M*06
$GNZDA,033305.00,26,01,2018,00,00*70
$GNRMC,033306.00,A,3651.98972,S,17443.43075,E,0.114,,260118,,,A*72
$AAMTW,26.6,C*11
$AAXDR,C,26.6,C,ENV_SEA_T*0C
$AAMDA,,I,,B,,C,26.6,C,,,,C,,T,,M,,N,,M*06
$GNVTG,,T,,M,0.114,N,0.210,K,A*3A
$GNGGA,033306.00,3651.98972,S,17443.43075,E,1,04,2.17,17.3,M,28.1,M,,*68
$GNGSA,A,3,05,13,12,02,,,,,,,,,3.42,2.17,2.64*1B
$GNGSA,A,3,,,,,,,,,,,,,3.42,2.17,2.64*1D
$GPGSV,2,1,08,02,46,122,35,05,81,086,37,06,,,35,12,38,331,40*4E
$GPGSV,2,2,08,13,13,033,39,15,,,29,19,,,35,20,,,26*4C
$GLGSV,1,1,02,,,,39,,,,40*69
$GNGLL,3651.98972,S,17443.43075,E,033306.00,A,A*63
$AAMTW,26.6,C*11
$AAXDR,C,26.6,C,ENV_SEA_T*0C
$AAMDA,,I,,B,,C,26.6,C,,,,C,,T,,M,,N,,M*06
$GNZDA,033306.00,26,01,2018,00,00*73
$GNRMC,033307.00,A,3651.98951,S,17443.43063,E,0.053,,260118,,,A*77
$AAMTW,26.6,C*11
$AAXDR,C,26.6,C,ENV_SEA_T*0C
$GNVTG,,T,,M,0.053,N,0.099,K,A*3B
$AAMDA,,I,,B,,C,26.6,C,,,,C,,T,,M,,N,,M*06
$GNGGA,033307.00,3651.98951,S,17443.43063,E,1,04,2.17,17.6,M,28.1,M,,*6A
$GNGSA,A,3,05,13,12,02,,,,,,,,,3.42,2.17,2.64*1B
$GNGSA,A,3,,,,,,,,,,,,,3.42,2.17,2.64*1D
$GPGSV,2,1,08,02,46,122,35,05,81,086,37,06,,,33,12,38,331,40*48
$GPGSV,2,2,08,13,13,033,38,15,,,30,19,,,34,20,,,27*45
$GLGSV,1,1,04,,,,40,,,,40,,,,35,,,,35*61
$GNGLL,3651.98951,S,17443.43063,E,033307.00,A,A*64
$AAMTW,26.6,C*11
$AAXDR,C,26.6,C,ENV_SEA_T*0C
$AAMDA,,I,,B,,C,26.6,C,,,,C,,T,,M,,N,,M*06
$GNZDA,033307.00,26,01,2018,00,00*72
$GNRMC,033308.00,A,3651.98948,S,17443.43058,E,0.014,,260118,,,A*7B
$AAMTW,26.6,C*11
$AAXDR,C,26.6,C,ENV_SEA_T*0C
$GNVTG,,T,,M,0.014,N,0.027,K,A*3D
$AAMDA,,I,,B,,C,26.6,C,,,,C,,T,,M,,N,,M*06
$GNGGA,033308.00,3651.98948,S,17443.43058,E,1,04,2.17,17.5,M,28.1,M,,*66
$GNGSA,A,3,05,13,12,02,,,,,,,,,3.42,2.17,2.64*1B
$GNGSA,A,3,,,,,,,,,,,,,3.42,2.17,2.64*1D
$GPGSV,3,1,09,02,46,122,35,05,81,086,37,06,,,32,12,38,331,40*49
$GPGSV,3,2,09,13,13,033,38,15,,,29,19,,,34,20,,,27*4D
$GPGSV,3,3,09,25,44,276,*44
$GLGSV,2,1,05,,,,39,,,,40,,,,36,,,,36*6D
$GLGSV,2,2,05,,,,39*6A
$AAMTW,26.6,C*11
$AAXDR,C,26.6,C,ENV_SEA_T*0C
$AAMDA,,I,,B,,C,26.6,C,,,,C,,T,,M,,N,,M*06
$GNGLL,3651.98948,S,17443.43058,E,033308.00,A,A*6B
$GNZDA,033308.00,26,01,2018,00,00*7D
$GNRMC,033309.00,A,3651.98951,S,17443.43052,E,0.071,,260118,,,A*7B
$AAMTW,26.6,C*11
$AAXDR,C,26.6,C,ENV_SEA_T*0C
$AAMDA,,I,,B,,C,26.6,C,,,,C,,T,,M,,N,,M*06
$GNVTG,,T,,M,0.071,N,0.132,K,A*3B
$GNGGA,033309.00,3651.98951,S,17443.43052,E,1,04,2.17,17.2,M,28.1,M,,*62
$GNGSA,A,3,05,13,12,02,,,,,,,,,3.42,2.17,2.64*1B
$GNGSA,A,3,,,,,,,,,,,,,3.42,2.17,2.64*1D
$GPGSV,3,1,09,02,46,122,32,05,81,086,37,06,,,32,12,38,331,41*4F
$GPGSV,3,2,09,13,13,033,40,15,,,27,19,,,35,20,,,26*4C
$GPGSV,3,3,09,25,44,276,*44
$GLGSV,2,1,05,,,,36,,,,40,,,,36,,,,32*66
$GLGSV,2,2,05,,,,36*65
$AAMTW,26.6,C*11
$AAXDR,C,26.6,C,ENV_SEA_T*0C
$AAMDA,,I,,B,,C,26.6,C,,,,C,,T,,M,,N,,M*06
$GNGLL,3651.98951,S,17443.43052,E,033309.00,A,A*68
$GNZDA,033309.00,26,01,2018,00,00*7C
$GNRMC,033310.00,A,3651.98944,S,17443.43051,E,0.126,,260118,,,A*77
$AAMTW,26.6,C*11
$AAXDR,C,26.6,C,ENV_SEA_T*0C
$AAMDA,,I,,B,,C,26.6,C,,,,C,,T,,M,,N,,M*06
$GNVTG,,T,,M,0.126,N,0.234,K,A*3D
$GNGGA,033310.00,3651.98944,S,17443.43051,E,1,04,2.17,17.1,M,28.1,M,,*6E
$GNGSA,A,3,05,13,12,02,,,,,,,,,3.42,2.17,2.64*1B
$GNGSA,A,3,,,,,,,,,,,,,3.42,2.17,2.64*1D
$GPGSV,3,1,09,02,46,122,31,05,81,086,37,06,,,31,12,38,331,40*4E
$GPGSV,3,2,09,13,13,033,40,15,,,24,19,,,34,20,,,25*4D
$GPGSV,3,3,09,25,44,276,23*45
$GLGSV,2,1,05,70,64,039,38,,,,40,,,,36,,,,26*52
$GLGSV,2,2,05,,,,40*64
$AAMTW,26.6,C*11
$AAXDR,C,26.6,C,ENV_SEA_T*0C
$AAMDA,,I,,B,,C,26.6,C,,,,C,,T,,M,,N,,M*06
$GNGLL,3651.98944,S,17443.43051,E,033310.00,A,A*67
$GNZDA,033310.00,26,01,2018,00,00*74
$GNRMC,033311.00,A,3651.98944,S,17443.43052,E,0.014,,260118,,,A*75
$AAMTW,26.6,C*11
$AAXDR,C,26.6,C,ENV_SEA_T*0C
$AAMDA,,I,,B,,C,26.6,C,,,,C,,T,,M,,N,,M*06
$GNVTG,,T,,M,0.014,N,0.026,K,A*3C
$GNGGA,033311.00,3651.98944,S,17443.43052,E,1,04,2.17,17.0,M,28.1,M,,*6D
$GNGSA,A,3,05,13,12,02,,,,,,,,,3.42,2.17,2.64*1B
$GNGSA,A,3,,,,,,,,,,,,,3.42,2.17,2.64*1D
$GPGSV,3,1,09,02,46,122,33,05,81,086,36,06,,,29,12,38,331,40*44
$GPGSV,3,2,09,13,13,033,40,15,,,24,19,,,33,20,,,23*4C
$GPGSV,3,3,09,25,44,276,21*47
$GLGSV,2,1,05,70,64,039,37,,,,41,,,,35,,,,28*51
$GLGSV,2,2,05,,,,41*65
$AAMTW,26.6,C*11
$AAXDR,C,26.6,C,ENV_SEA_T*0C
$AAMDA,,I,,B,,C,26.6,C,,,,C,,T,,M,,N,,M*06
$GNGLL,3651.98944,S,17443.43052,E,033311.00,A,A*65
$GNZDA,033311.00,26,01,2018,00,00*75
$GNRMC,033311.00,A,3651.98953,S,17443.43052,E,0.112,,260118,,,A*74
$AAMTW,26.6,C*11
$AAXDR,C,26.6,C,ENV_SEA_T*0C
$AAMDA,,I,,B,,C,26.6,C,,,,C,,T,,M,,N,,M*06
$GNVTG,,T,,M,0.112,N,0.208,K,A*35
$GNGGA,033311.00,3651.98953,S,17443.43052,E,1,05,1.89,16.8,M,28.1,M,,*67
$GNGSA,A,3,05,13,12,02,,,,,,,,,2.78,1.89,2.04*11
$GNGSA,A,3,70,,,,,,,,,,,,2.78,1.89,2.04*10
$GPGSV,3,1,09,02,46,122,36,05,81,086,33,06,,,34,12,38,331,38*47
$GPGSV,3,2,09,13,13,033,42,15,,,24,19,,,32,20,,,22*4E
$GPGSV,3,3,09,25,44,276,19*4C
$GLGSV,2,1,06,70,64,039,31,84,,,41,,,,34,,,,29*58
$AAMTW,26.6,C*11
$AAXDR,C,26.6,C,ENV_SEA_T*0C
$AAMDA,,I,,B,,C,26.6,C,,,,C,,T,,M,,N,,M*06
$GLGSV,2,2,06,,,,34,,,,29*6F
$GNGLL,3651.98953,S,17443.43052,E,033311.00,A,A*63
$GNZDA,033311.00,26,01,2018,00,00*75
$GNRMC,033312.00,A,3651.98931,S,17443.43055,E,0.125,,260118,,,A*70
$AAMTW,26.6,C*11
$AAXDR,C,26.6,C,ENV_SEA_T*0C
$AAMDA,,I,,B,,C,26.6,C,,,,C,,T,,M,,N,,M*06
$GNVTG,,T,,M,0.125,N,0.231,K,A*3B
$GNGGA,033312.00,3651.98931,S,17443.43055,E,1,05,1.89,17.1,M,28.1,M,,*6F
$GNGSA,A,3,05,13,12,02,,,,,,,,,2.78,1.89,2.04*11
$GNGSA,A,3,70,,,,,,,,,,,,2.78,1.89,2.04*10
$GPGSV,3,1,09,02,46,122,38,05,81,086,34,06,,,30,12,38,331,38*4A
$GPGSV,3,2,09,13,13,033,42,15,,,25,19,,,32,20,,,22*4F
$GPGSV,3,3,09,25,44,276,20*46
$GLGSV,2,1,06,70,64,039,22,84,,,41,,,,34,,,,29*5A
$AAMTW,26.6,C*11
$AAXDR,C,26.6,C,ENV_SEA_T*0C
$AAMDA,,I,,B,,C,26.6,C,,,,C,,T,,M,,N,,M*06
$GLGSV,2,2,06,,,,34,,,,29*6F
$GNGLL,3651.98931,S,17443.43055,E,033312.00,A,A*63
$GNZDA,033312.00,26,01,2018,00,00*76
$GNRMC,033313.00,A,3651.98937,S,17443.43054,E,0.155,,260118,,,A*71
$AAMTW,26.6,C*11
$AAXDR,C,26.6,C,ENV_SEA_T*0C
$AAMDA,,I,,B,,C,26.6,C,,,,C,,T,,M,,N,,M*06
$GNVTG,,T,,M,0.155,N,0.286,K,A*30
$GNGGA,033313.00,3651.98937,S,17443.43054,E,1,05,1.89,17.0,M,28.1,M,,*68
$GNGSA,A,3,05,13,12,02,,,,,,,,,2.78,1.89,2.04*11
$GNGSA,A,3,70,,,,,,,,,,,,2.78,1.89,2.04*10
$GPGSV,3,1,09,02,46,122,35,05,81,086,33,06,,,30,12,38,331,38*40
$GPGSV,3,2,09,13,13,033,43,15,,,29,19,,,32,20,,,21*41
$GPGSV,3,3,09,25,44,276,20*46
$GLGSV,2,1,06,70,64,039,19,84,,,40,,,,34,,,,33*58
$AAMTW,26.6,C*11
$AAXDR,C,26.6,C,ENV_SEA_T*0C
$AAMDA,,I,,B,,C,26.6,C,,,,C,,T,,M,,N,,M*06
$GLGSV,2,2,06,,,,34,,,,33*64
$GNGLL,3651.98937,S,17443.43054,E,033313.00,A,A*65
$GNZDA,033313.00,26,01,2018,00,00*77
$GNRMC,033314.00,A,3651.98946,S,17443.43048,E,0.110,,260118,,,A*7C
$AAMTW,26.6,C*11
$AAXDR,C,26.6,C,ENV_SEA_T*0C
$AAMDA,,I,,B,,C,26.6,C,,,,C,,T,,M,,N,,M*06
$GNVTG,,T,,M,0.110,N,0.204,K,A*3B
$GNGGA,033314.00,3651.98946,S,17443.43048,E,1,05,1.89,16.9,M,28.1,M,,*6C
$GNGSA,A,3,05,13,12,02,,,,,,,,,2.78,1.89,2.04*11
$GNGSA,A,3,70,,,,,,,,,,,,2.78,1.89,2.04*10
$GPGSV,3,1,09,02,46,122,35,05,81,086,23,06,,,34,12,38,331,40*4A
$GPGSV,3,2,09,13,13,033,42,15,,,31,19,,,31,20,,,20*4B
$GPGSV,3,3,09,25,44,276,22*44
$GLGSV,2,1,06,70,64,039,21,84,,,41,,,,33,,,,27*50
$AAMTW,26.6,C*11
$AAXDR,C,26.6,C,ENV_SEA_T*0C
$AAMDA,,I,,B,,C,26.6,C,,,,C,,T,,M,,N,,M*06
$GLGSV,2,2,06,,,,33,,,,27*66
$GNGLL,3651.98946,S,17443.43048,E,033314.00,A,A*69
$GNZDA,033314.00,26,01,2018,00,00*70
$GNRMC,033315.00,A,3651.98955,S,17443.43046,E,0.049,,260118,,,A*7C
$AAMTW,26.6,C*11
$AAXDR,C,26.6,C,ENV_SEA_T*0C
$AAMDA,,I,,B,,C,26.6,C,,,,C,,T,,M,,N,,M*06
$GNVTG,,T,,M,0.049,N,0.091,K,A*38
$GNGGA,033315.00,3651.98955,S,17443.43046,E,1,05,1.89,16.8,M,28.1,M,,*60
$GNGSA,A,3,05,13,12,02,,,,,,,,,2.78,1.89,2.04*11
$GNGSA,A,3,70,,,,,,,,,,,,2.78,1.89,2.04*10
$GPGSV,3,1,09,02,46,122,35,05,81,086,29,06,,,29,12,38,331,38*43
$GPGSV,3,2,09,13,13,033,42,15,,,32,19,,,32,20,,,21*4A
$GPGSV,3,3,09,25,44,276,20*46
$GLGSV,2,1,06,70,64,039,24,84,,,38,,,,37,,,,27*5F
$AAMTW,26.6,C*11
$AAXDR,C,26.6,C,ENV_SEA_T*0C
$AAMDA,,I,,B,,C,26.6,C,,,,C,,T,,M,,N,,M*06
$GLGSV,2,2,06,,,,37,,,,27*62
$GNGLL,3651.98955,S,17443.43046,E,033315.00,A,A*64
$GNZDA,033315.00,26,01,2018,00,00*71
$GNRMC,033316.00,A,3651.98958,S,17443.43041,E,0.165,,260118,,,A*7A
$AAMTW,26.6,C*11
$AAXDR,C,26.6,C,ENV_SEA_T*0C
$AAMDA,,I,,B,,C,26.6,C,,,,C,,T,,M,,N,,M*06
$GNVTG,,T,,M,0.165,N,0.306,K,A*3A
$GNGGA,033316.00,3651.98958,S,17443.43041,E,1,05,1.89,16.6,M,28.1,M,,*67
$GNGSA,A,3,05,13,12,02,,,,,,,,,2.78,1.89,2.04*11
$GNGSA,A,3,70,,,,,,,,,,,,2.78,1.89,2.04*10
$GPGSV,3,1,09,02,46,122,35,05,81,086,30,06,,,30,12,38,331,37*4C
$GPGSV,3,2,09,13,13,033,37,15,,,32,19,,,33,20,,,30*49
$GPGSV,3,3,09,25,44,276,18*4D
$GLGSV,2,1,06,70,64,039,37,84,,,39,,,,35,,,,25*5C
$AAMTW,26.6,C*11
$AAXDR,C,26.6,C,ENV_SEA_T*0C
$AAMDA,,I,,B,,C,26.6,C,,,,C,,T,,M,,N,,M*06
$GLGSV,2,2,06,,,,35,,,,25*62
$GNGLL,3651.98958,S,17443.43041,E,033316.00,A,A*6D
$GNZDA,033316.00,26,01,2018,00,00*72
$GNRMC,033317.00,A,3651.98956,S,17443.43040,E,0.108,,260118,,,A*7F
$AAMTW,26.6,C*11
$AAXDR,C,26.6,C,ENV_SEA_T*0C
$AAMDA,,I,,B,,C,26.6,C,,,,C,,T,,M,,N,,M*06
$GNVTG,,T,,M,0.108,N,0.200,K,A*36
$GNGGA,033317.00,3651.98956,S,17443.43040,E,1,05,1.89,16.6,M,28.1,M,,*69
$GNGSA,A,3,05,13,12,02,,,,,,,,,2.96,1.89,2.28*1F
$GNGSA,A,3,70,,,,,,,,,,,,2.96,1.89,2.28*1E
$GPGSV,3,1,09,02,46,122,30,05,81,087,30,06,,,27,12,38,331,41*4F
$GPGSV,3,2,09,13,13,033,39,15,,,31,19,,,33,20,,,31*45
$GPGSV,3,3,09,25,44,276,17*42
$GLGSV,2,1,06,70,64,039,36,84,,,39,,,,31,,,,25*59
$AAMTW,26.6,C*11
$AAXDR,C,26.6,C,ENV_SEA_T*0C
$AAMDA,,I,,B,,C,26.6,C,,,,C,,T,,M,,N,,M*06
$GLGSV,2,2,06,,,,31,,,,25*66
$GNGLL,3651.98956,S,17443.43040,E,033317.00,A,A*63
$GNZDA,033317.00,26,01,2018,00,00*73
$GNRMC,033318.00,A,3651.98950,S,17443.43039,E,0.098,,260118,,,A*70
$AAMTW,26.6,C*11
$AAXDR,C,26.6,C,ENV_SEA_T*0C
$AAMDA,,I,,B,,C,26.6,C,,,,C,,T,,M,,N,,M*06
$GNVTG,,T,,M,0.098,N,0.181,K,A*34
$GNGGA,033318.00,3651.98950,S,17443.43039,E,1,05,1.89,16.6,M,28.1,M,,*6E
$GNGSA,A,3,05,13,12,02,,,,,,,,,2.78,1.89,2.04*11
$GNGSA,A,3,70,,,,,,,,,,,,2.78,1.89,2.04*10
$GPGSV,3,1,09,02,46,122,34,05,81,087,28,06,,,29,12,38,332,42*4C
$GPGSV,3,2,09,13,13,033,39,15,,,31,19,,,34,20,,,30*43
$GPGSV,3,3,09,25,44,276,15*40
$GLGSV,2,1,06,70,64,039,35,84,,,40,,,,31,,,,32*52
$AAMTW,26.6,C*11
$AAXDR,C,26.6,C,ENV_SEA_T*0C
$AAMDA,,I,,B,,C,26.6,C,,,,C,,T,,M,,N,,M*06
$GLGSV,2,2,06,,,,31,,,,32*60
$GNGLL,3651.98950,S,17443.43039,E,033318.00,A,A*64
$GNZDA,033318.00,26,01,2018,00,00*7C
$GNRMC,033319.00,A,3651.98940,S,17443.43042,E,0.033,,260118,,,A*7D
$AAMTW,26.6,C*11
$AAXDR,C,26.6,C,ENV_SEA_T*0C
$AAMDA,,I,,B,,C,26.6,C,,,,C,,T,,M,,N,,M*06
$GNVTG,,T,,M,0.033,N,0.060,K,A*3B
$GNGGA,033319.00,3651.98940,S,17443.43042,E,1,05,1.89,16.7,M,28.1,M,,*63
$GNGSA,A,3,05,13,12,02,,,,,,,,,2.78,1.89,2.04*11
$GNGSA,A,3,70,,,,,,,,,,,,2.78,1.89,2.04*10
$GPGSV,3,1,09,02,46,122,36,05,81,087,28,06,,,20,12,38,332,39*4B
$GPGSV,3,2,09,13,13,033,42,15,,,30,19,,,30,20,,,23*48
$GPGSV,3,3,09,25,44,276,15*40
$GLGSV,2,1,06,70,64,039,24,84,,,39,,,,32,,,,33*5E
$AAMTW,26.6,C*11
$AAXDR,C,26.6,C,ENV_SEA_T*0C
$AAMDA,,I,,B,,C,26.6,C,,,,C,,T,,M,,N,,M*06
$GLGSV,2,2,06,,,,32,,,,33*62
$GNGLL,3651.98940,S,17443.43042,E,033319.00,A,A*68
$GNZDA,033319.00,26,01,2018,00,00*7D
$GNRMC,033320.00,A,3651.98930,S,17443.43046,E,0.259,,260118,,,A*7A
$AAMTW,26.6,C*11
$AAXDR,C,26.6,C,ENV_SEA_T*0C
$AAMDA,,I,,B,,C,26.6,C,,,,C,,T,,M,,N,,M*06
$GNVTG,,T,,M,0.259,N,0.479,K,A*39
$GNGGA,033320.00,3651.98930,S,17443.43046,E,1,05,1.89,16.8,M,28.1,M,,*65
$GNGSA,A,3,05,13,12,02,,,,,,,,,2.78,1.89,2.04*11
$GNGSA,A,3,70,,,,,,,,,,,,2.78,1.89,2.04*10
$GPGSV,3,1,09,02,46,122,35,05,81,087,27,06,,,28,12,38,332,42*43
$GPGSV,3,2,09,13,13,033,41,15,,,31,19,,,31,20,,,21*49
$GPGSV,3,3,09,25,44,276,16*43
$GLGSV,2,1,06,70,64,039,24,84,,,38,,,,32,,,,29*54
$AAMTW,26.6,C*11
$AAXDR,C,26.6,C,ENV_SEA_T*0C
$AAMDA,,I,,B,,C,26.6,C,,,,C,,T,,M,,N,,M*06
$GLGSV,2,2,06,,,,32,,,,29*69
$GNGLL,3651.98930,S,17443.43046,E,033320.00,A,A*61
$GNZDA,033320.00,26,01,2018,00,00*77
$GNRMC,033321.00,A,3651.98929,S,17443.43048,E,0.155,,260118,,,A*72
$AAMTW,26.6,C*11
$AAXDR,C,26.6,C,ENV_SEA_T*0C
$AAMDA,,I,,B,,C,26.6,C,,,,C,,T,,M,,N,,M*06
$GNVTG,,T,,M,0.155,N,0.287,K,A*31
$GNGGA,033321.00,3651.98929,S,17443.43048,E,1,05,1.89,16.9,M,28.1,M,,*63
$GNGSA,A,3,05,13,12,02,,,,,,,,,2.78,1.89,2.04*11
$GNGSA,A,3,70,,,,,,,,,,,,2.78,1.89,2.04*10
$GPGSV,3,1,09,02,46,122,35,05,81,087,27,06,,,23,12,38,332,43*49
$GPGSV,3,2,09,13,13,033,42,15,,,33,19,,,32,20,,,20*4A
$GPGSV,3,3,09,25,44,276,17*42
$GLGSV,2,1,06,70,64,039,30,84,,,39,,,,30,,,,33*59
$AAMTW,26.6,C*11
$AAXDR,C,26.6,C,ENV_SEA_T*0C
$AAMDA,,I,,B,,C,26.6,C,,,,C,,T,,M,,N,,M*06
$GLGSV,2,2,06,,,,30,,,,33*60
$GNGLL,3651.98929,S,17443.43048,E,033321.00,A,A*66
$GNZDA,033321.00,26,01,2018,00,00*76
$GNRMC,033322.00,A,3651.98927,S,17443.43050,E,0.148,,260118,,,A*7A
$AAMTW,26.6,C*11
$AAXDR,C,26.6,C,ENV_SEA_T*0C
$AAMDA,,I,,B,,C,26.6,C,,,,C,,T,,M,,N,,M*06
$GNVTG,,T,,M,0.148,N,0.275,K,A*30
$GNGGA,033322.00,3651.98927,S,17443.43050,E,1,05,1.89,16.9,M,28.1,M,,*67
$GNGSA,A,3,05,13,12,02,,,,,,,,,2.78,1.89,2.04*11
$GNGSA,A,3,70,,,,,,,,,,,,2.78,1.89,2.04*10
$GPGSV,3,1,09,02,46,122,37,05,81,087,28,06,,,27,12,38,332,42*41
$GPGSV,3,2,09,13,13,033,42,15,,,32,19,,,34,20,,,19*47
$GPGSV,3,3,09,25,44,276,15*40
$GLGSV,2,1,06,70,64,039,32,84,,,39,,,,30,,,,27*5E
$AAMTW,26.6,C*11
$AAXDR,C,26.6,C,ENV_SEA_T*0C
$AAMDA,,I,,B,,C,26.6,C,,,,C,,T,,M,,N,,M*06
$GLGSV,2,2,06,,,,30,,,,27*65
$GNGLL,3651.98927,S,17443.43050,E,033322.00,A,A*62
$GNZDA,033322.00,26,01,2018,00,00*75
$AAMTW,26.6,C*11
$GNRMC,033323.00,A,3651.98926,S,17443.43049,E,0.172,,260118,,,A*7B
$AAXDR,C,26.6,C,ENV_SEA_T*0C
$AAMDA,,I,,B,,C,26.6,C,,,,C,,T,,M,,N,,M*06
$GNVTG,,T,,M,0.172,N,0.319,K,A*32
$GNGGA,033323.00,3651.98926,S,17443.43049,E,1,05,1.89,16.8,M,28.1,M,,*6E
$GNGSA,A,3,05,13,12,02,,,,,,,,,2.78,1.89,2.04*11
$GNGSA,A,3,70,,,,,,,,,,,,2.78,1.89,2.04*10
$GPGSV,3,1,09,02,46,122,39,05,81,087,25,06,,,27,12,38,332,42*42
$GPGSV,3,2,09,13,13,033,43,15,,,33,19,,,35,20,,,22*4E
$GPGSV,3,3,09,25,44,276,*44
$GLGSV,2,1,06,70,64,039,32,84,,,39,,,,29,,,,25*54
$AAMTW,26.6,C*11
$AAXDR,C,26.6,C,ENV_SEA_T*0C
$AAMDA,,I,,B,,C,26.6,C,,,,C,,T,,M,,N,,M*06
$GLGSV,2,2,06,,,,29,,,,25*6F
$GNGLL,3651.98926,S,17443.43049,E,033323.00,A,A*6A
$GNZDA,033323.00,26,01,2018,00,00*74
$GNRMC,033324.00,A,3651.98930,S,17443.43047,E,0.047,,260118,,,A*72
$AAMTW,26.6,C*11
$AAXDR,C,26.6,C,ENV_SEA_T*0C
$AAMDA,,I,,B,,C,26.6,C,,,,C,,T,,M,,N,,M*06
$GNVTG,,T,,M,0.047,N,0.086,K,A*30
$GNGGA,033324.00,3651.98930,S,17443.43047,E,1,05,1.89,16.7,M,28.1,M,,*6F
$GNGSA,A,3,05,13,12,02,,,,,,,,,2.78,1.89,2.04*11
$GNGSA,A,3,70,,,,,,,,,,,,2.78,1.89,2.04*10
$GPGSV,3,1,09,02,46,122,41,05,81,087,21,06,,,28,12,38,332,42*46
$GPGSV,3,2,09,13,13,033,42,15,,,33,19,,,35,20,,,23*4E
$GPGSV,3,3,09,25,44,276,21*47
$GLGSV,2,1,06,70,64,039,34,84,,,39,,,,27,,,,22*5B
$AAMTW,26.6,C*11
$AAXDR,C,26.6,C,ENV_SEA_T*0C
$AAMDA,,I,,B,,C,26.6,C,,,,C,,T,,M,,N,,M*06
$GLGSV,2,2,06,,,,27,,,,22*66
$GNGLL,3651.98930,S,17443.43047,E,033324.00,A,A*64
$GNZDA,033324.00,26,01,2018,00,00*73
$AAMTW,26.6,C*11
$AAXDR,C,26.6,C,ENV_SEA_T*0C
$AAMDA,,I,,B,,C,26.6,C,,,,C,,T,,M,,N,,M*06
$GNRMC,033325.00,A,3651.98932,S,17443.43047,E,0.071,,260118,,,A*74
$GNVTG,,T,,M,0.071,N,0.132,K,A*3B
$GNGGA,033325.00,3651.98932,S,17443.43047,E,1,06,1.86,16.7,M,28.1,M,,*60
$GNGSA,A,3,05,13,12,02,15,,,,,,,,2.69,1.86,1.94*10
$GNGSA,A,3,70,,,,,,,,,,,,2.69,1.86,1.94*15
$GPGSV,3,1,09,02,46,122,40,05,81,087,17,06,,,31,12,38,332,42*4A
$GPGSV,3,2,09,13,13,033,42,15,06,003,33,19,,,36,20,,,23*78
$GPGSV,3,3,09,25,44,276,19*4C
$GLGSV,2,1,06,70,64,039,33,84,,,39,,,,27,,,,20*5E
$AAMTW,26.6,C*11
$AAXDR,C,26.6,C,ENV_SEA_T*0C
$AAMDA,,I,,B,,C,26.6,C,,,,C,,T,,M,,N,,M*06
$GLGSV,2,2,06,,,,27,,,,20*64
$GNGLL,3651.98932,S,17443.43047,E,033325.00,A,A*67
$GNZDA,033325.00,26,01,2018,00,00*72
$AAMTW,26.6,C*11
$GNRMC,033326.00,A,3651.98933,S,17443.43045,E,0.088,,260118,,,A*72
$AAXDR,C,26.6,C,ENV_SEA_T*0C
$AAMDA,,I,,B,,C,26.6,C,,,,C,,T,,M,,N,,M*06
$GNVTG,,T,,M,0.088,N,0.163,K,A*39
$GNGGA,033326.00,3651.98933,S,17443.43045,E,1,06,1.86,16.6,M,28.1,M,,*61
$GNGSA,A,3,05,13,12,02,15,,,,,,,,2.69,1.86,1.94*10
$GNGSA,A,3,70,,,,,,,,,,,,2.69,1.86,1.94*15
$GPGSV,3,1,09,02,46,122,37,05,81,087,21,06,,,23,12,38,332,42*4C
$GPGSV,3,2,09,13,13,033,44,15,06,003,32,19,,,36,20,,,24*78
$GPGSV,3,3,09,25,44,276,20*46
$GLGSV,2,1,06,70,64,039,21,84,,,40,,,,29,,,,26*5B
$AAMTW,26.6,C*11
$AAXDR,C,26.6,C,ENV_SEA_T*0C
$AAMDA,,I,,B,,C,26.6,C,,,,C,,T,,M,,N,,M*06
$GLGSV,2,2,06,,,,29,,,,26*6C
$GNGLL,3651.98933,S,17443.43045,E,033326.00,A,A*67
$GNZDA,033326.00,26,01,2018,00,00*71
$AAMTW,26.6,C*11
$AAXDR,C,26.6,C,ENV_SEA_T*0C
$AAMDA,,I,,B,,C,26.6,C,,,,C,,T,,M,,N,,M*06
$GNRMC,033327.00,A,3651.98935,S,17443.43048,E,0.137,,260118,,,A*7D
$GNVTG,,T,,M,0.137,N,0.254,K,A*3B
$GNGGA,033327.00,3651.98935,S,17443.43048,E,1,06,1.86,16.6,M,28.1,M,,*6B
$GNGSA,A,3,05,13,12,02,15,,,,,,,,2.69,1.86,1.94*10
$GNGSA,A,3,70,,,,,,,,,,,,2.69,1.86,1.94*15
$GPGSV,3,1,09,02,46,122,33,05,81,087,29,06,,,33,12,38,332,34*40
$GPGSV,3,2,09,13,13,033,35,15,06,003,24,19,,,35,20,,,24*7A
$GPGSV,3,3,09,25,44,276,17*42
$GLGSV,2,1,06,70,64,039,30,84,,,40,,,,22,,,,25*53
$AAMTW,26.6,C*11
$AAXDR,C,26.6,C,ENV_SEA_T*0C
$AAMDA,,I,,B,,C,26.6,C,,,,C,,T,,M,,N,,M*06
$GLGSV,2,2,06,,,,22,,,,25*64
$GNGLL,3651.98935,S,17443.43048,E,033327.00,A,A*6D
$GNZDA,033327.00,26,01,2018,00,00*70
$AAMTW,26.6,C*11
$AAXDR,C,26.6,C,ENV_SEA_T*0C
$GNRMC,033328.00,A,3651.98938,S,17443.43048,E,0.257,,260118,,,A*7A
$AAMDA,,I,,B,,C,26.6,C,,,,C,,T,,M,,N,,M*06
$GNVTG,,T,,M,0.257,N,0.476,K,A*38
$GNGGA,033328.00,3651.98938,S,17443.43048,E,1,06,1.86,16.6,M,28.1,M,,*69
$GNGSA,A,3,05,13,12,02,15,,,,,,,,2.69,1.86,1.94*10
$GNGSA,A,3,70,,,,,,,,,,,,2.69,1.86,1.94*15
$GPGSV,3,1,09,02,46,122,28,05,81,087,29,06,,,29,12,38,332,39*4C
$GPGSV,3,2,09,13,13,033,34,15,06,003,24,19,,,34,20,,,21*7F
$GPGSV,3,3,09,25,44,276,15*40
$GLGSV,2,1,06,70,64,039,31,84,,,38,,,,24,,,,31*5E
$AAMTW,26.6,C*11
$AAXDR,C,26.6,C,ENV_SEA_T*0C
$AAMDA,,I,,B,,C,26.6,C,,,,C,,T,,M,,N,,M*06
$GLGSV,2,2,06,,,,24,,,,31*67
$GNGLL,3651.98938,S,17443.43048,E,033328.00,A,A*6F
$GNZDA,033328.00,26,01,2018,00,00*7F
$AAMTW,26.6,C*11
$AAXDR,C,26.6,C,ENV_SEA_T*0C
$AAMDA,,I,,B,,C,26.6,C,,,,C,,T,,M,,N,,M*06
$GNRMC,033329.00,A,3651.98945,S,17443.43049,E,0.414,,260118,,,A*71
$GNVTG,,T,,M,0.414,N,0.767,K,A*3A
$GNGGA,033329.00,3651.98945,S,17443.43049,E,1,06,1.86,16.6,M,28.1,M,,*63
$GNGSA,A,3,05,13,12,02,15,,,,,,,,2.69,1.86,1.94*10
$GNGSA,A,3,70,,,,,,,,,,,,2.69,1.86,1.94*15
$GPGSV,2,1,08,02,46,122,25,05,81,087,29,06,,,28,12,38,332,34*4D
$GPGSV,2,2,08,13,13,033,35,15,06,003,26,19,,,29,25,44,276,14*40
$GLGSV,2,1,05,70,64,039,32,84,,,40,,,,28,,,,31*5D
$GLGSV,2,2,05,,,,28*6A
$AAMTW,26.6,C*11
$AAXDR,C,26.6,C,ENV_SEA_T*0C
$AAMDA,,I,,B,,C,26.6,C,,,,C,,T,,M,,N,,M*06
$GNGLL,3651.98945,S,17443.43049,E,033329.00,A,A*65
$GNZDA,033329.00,26,01,2018,00,00*7E
$AAMTW,26.6,C*11
$AAXDR,C,26.6,C,ENV_SEA_T*0C
$AAMDA,,I,,B,,C,26.6,C,,,,C,,T,,M,,N,,M*06
$GNRMC,033330.00,A,3651.98954,S,17443.43049,E,0.614,,260118,,,A*7B
$GNVTG,,T,,M,0.614,N,1.137,K,A*3A
$GNGGA,033330.00,3651.98954,S,17443.43049,E,1,06,1.86,16.3,M,28.1,M,,*6E
$GNGSA,A,3,05,13,12,02,15,,,,,,,,2.69,1.86,1.94*10
$GNGSA,A,3,70,,,,,,,,,,,,2.69,1.86,1.94*15
$GPGSV,2,1,08,02,46,122,26,05,81,087,29,06,,,26,12,38,332,32*46
$GPGSV,2,2,08,13,13,033,32,15,06,003,25,19,,,28,25,44,276,11*40
$GLGSV,2,1,05,70,64,039,33,84,,,40,,,,29,,,,31*5D
$GLGSV,2,2,05,,,,29*6B
$AAMTW,26.6,C*11
$AAXDR,C,26.6,C,ENV_SEA_T*0C
$AAMDA,,I,,B,,C,26.6,C,,,,C,,T,,M,,N,,M*06
$GNGLL,3651.98954,S,17443.43049,E,033330.00,A,A*6D
$GNZDA,033330.00,26,01,2018,00,00*76
$AAMTW,26.6,C*11
$AAXDR,C,26.6,C,ENV_SEA_T*0C
$AAMDA,,I,,B,,C,26.6,C,,,,C,,T,,M,,N,,M*06
$GNRMC,033331.00,A,3651.98965,S,17443.43049,E,0.199,,260118,,,A*7A
$GNVTG,,T,,M,0.199,N,0.369,K,A*30
$GNGGA,033331.00,3651.98965,S,17443.43049,E,1,06,1.86,16.2,M,28.1,M,,*6C
$GNGSA,A,3,05,13,12,02,15,,,,,,,,2.69,1.86,1.94*10
$GNGSA,A,3,70,,,,,,,,,,,,2.69,1.86,1.94*15
$GPGSV,3,1,09,02,46,122,35,05,81,087,18,06,,,25,12,38,332,33*44
$GPGSV,3,2,09,13,13,033,35,15,06,003,22,19,04,055,33,20,,,29*43
$GPGSV,3,3,09,25,44,276,17*42
$GLGSV,2,1,05,70,64,039,34,84,,,39,,,,32,,,,26*58
$AAMTW,26.6,C*11
$AAXDR,C,26.6,C,ENV_SEA_T*0C
$AAMDA,,I,,B,,C,26.6,C,,,,C,,T,,M,,N,,M*06
$GLGSV,2,2,05,,,,32*61
$GNGLL,3651.98965,S,17443.43049,E,033331.00,A,A*6E
$GNZDA,033331.00,26,01,2018,00,00*77
$AAMTW,26.6,C*11
$AAXDR,C,26.6,C,ENV_SEA_T*0C
$AAMDA,,I,,B,,C,26.6,C,,,,C,,T,,M,,N,,M*06
$GNRMC,033332.00,A,3651.98967,S,17443.43050,E,0.032,,260118,,,A*73
$GNVTG,,T,,M,0.032,N,0.060,K,A*3A
$GNGGA,033332.00,3651.98967,S,17443.43050,E,1,06,1.86,16.1,M,28.1,M,,*66
$GNGSA,A,3,05,13,12,02,15,,,,,,,,2.69,1.86,1.94*10
$GNGSA,A,3,70,,,,,,,,,,,,2.69,1.86,1.94*15
$GPGSV,3,1,09,02,46,122,34,05,81,087,22,06,,,27,12,38,332,37*4A
$GPGSV,3,2,09,13,13,033,35,15,06,003,22,19,04,055,33,20,,,29*43
$GPGSV,3,3,09,25,44,276,21*47
$GLGSV,2,1,05,70,64,039,33,84,,,38,,,,30,,,,26*5C
$AAMTW,26.6,C*11
$AAXDR,C,26.6,C,ENV_SEA_T*0C
$AAMDA,,I,,B,,C,26.6,C,,,,C,,T,,M,,N,,M*06
$GLGSV,2,2,05,,,,30*63
$GNGLL,3651.98967,S,17443.43050,E,033332.00,A,A*67
$GNZDA,033332.00,26,01,2018,00,00*74
$AAMTW,26.6,C*11
$AAXDR,C,26.6,C,ENV_SEA_T*0C
$AAMDA,,I,,B,,C,26.6,C,,,,C,,T,,M,,N,,M*06
$GNRMC,033333.00,A,3651.98973,S,17443.43048,E,0.020,,260118,,,A*7D
$GNVTG,,T,,M,0.020,N,0.038,K,A*34
$GNGGA,033333.00,3651.98973,S,17443.43048,E,1,06,1.86,16.0,M,28.1,M,,*6A
$GNGSA,A,3,05,13,12,02,15,,,,,,,,2.69,1.86,1.94*10
$GNGSA,A,3,70,,,,,,,,,,,,2.69,1.86,1.94*15
$GPGSV,3,1,09,02,46,122,34,05,81,087,21,06,,,29,12,38,332,37*47
$GPGSV,3,2,09,13,13,033,32,15,06,003,23,19,04,055,32,20,,,30*4C
$GPGSV,3,3,09,25,44,276,22*44
$GLGSV,2,1,05,70,64,039,31,84,,,37,,,,32,,,,28*5D
$AAMTW,26.6,C*11
$AAXDR,C,26.6,C,ENV_SEA_T*0C
$AAMDA,,I,,B,,C,26.6,C,,,,C,,T,,M,,N,,M*06
$GLGSV,2,2,05,,,,32*61
$GNGLL,3651.98973,S,17443.43048,E,033333.00,A,A*6A
$GNZDA,033333.00,26,01,2018,00,00*75
$AAMTW,26.6,C*11
$AAXDR,C,26.6,C,ENV_SEA_T*0C
$AAMDA,,I,,B,,C,26.6,C,,,,C,,T,,M,,N,,M*06
$GNRMC,033334.00,A,3651.98972,S,17443.43051,E,0.246,,260118,,,A*71
$GNVTG,,T,,M,0.246,N,0.456,K,A*3A
$GNGGA,033334.00,3651.98972,S,17443.43051,E,1,06,1.86,16.0,M,28.1,M,,*64
$GNGSA,A,3,05,13,12,02,15,,,,,,,,2.69,1.86,1.94*10
$GNGSA,A,3,70,,,,,,,,,,,,2.69,1.86,1.94*15
$GPGSV,3,1,09,02,46,122,33,05,81,088,18,06,,,30,12,38,332,37*4D
$GPGSV,3,2,09,13,13,033,35,15,06,003,24,19,04,055,32,20,,,32*4E
$GPGSV,3,3,09,25,44,276,23*45
$GLGSV,2,1,05,70,64,039,30,84,,,37,,,,30,,,,27*51
$AAMTW,26.6,C*11
$AAXDR,C,26.6,C,ENV_SEA_T*0C
$AAMDA,,I,,B,,C,26.6,C,,,,C,,T,,M,,N,,M*06
$GLGSV,2,2,05,,,,30*63
$GNGLL,3651.98972,S,17443.43051,E,033334.00,A,A*64
$GNZDA,033334.00,26,01,2018,00,00*72
$AAMTW,26.6,C*11
$AAXDR,C,26.6,C,ENV_SEA_T*0C
$AAMDA,,I,,B,,C,26.6,C,,,,C,,T,,M,,N,,M*06
$GNRMC,033335.00,A,3651.98972,S,17443.43051,E,0.215,,260118,,,A*76
$GNVTG,,T,,M,0.215,N,0.398,K,A*39
$GNGGA,033335.00,3651.98972,S,17443.43051,E,1,06,1.86,16.1,M,28.1,M,,*64
$GNGSA,A,3,05,13,12,02,15,,,,,,,,2.69,1.86,1.94*10
$GNGSA,A,3,70,,,,,,,,,,,,2.69,1.86,1.94*15
$GPGSV,3,1,09,02,46,122,33,05,81,088,15,06,,,29,12,38,332,36*49
$GPGSV,3,2,09,13,13,033,33,15,06,003,23,19,04,055,31,20,,,33*4D
$GPGSV,3,3,09,25,44,276,23*45
$AAMTW,26.6,C*11
$GLGSV,2,1,05,70,64,039,30,84,,,37,,,,31,,,,25*52
$AAXDR,C,26.6,C,ENV_SEA_T*0C
$AAMDA,,I,,B,,C,26.6,C,,,,C,,T,,M,,N,,M*06
$GLGSV,2,2,05,,,,31*62
$GNGLL,3651.98972,S,17443.43051,E,033335.00,A,A*65
$GNZDA,033335.00,26,01,2018,00,00*73
$AAMTW,26.6,C*11
$AAXDR,C,26.6,C,ENV_SEA_T*0C
$AAMDA,,I,,B,,C,26.6,C,,,,C,,T,,M,,N,,M*06
$GNRMC,033336.00,A,3651.98970,S,17443.43052,E,0.319,,260118,,,A*79
$GNVTG,,T,,M,0.319,N,0.590,K,A*3A
$GNGGA,033336.00,3651.98970,S,17443.43052,E,1,06,1.86,16.1,M,28.1,M,,*66
$GNGSA,A,3,05,13,12,02,15,,,,,,,,2.69,1.86,1.94*10
$GNGSA,A,3,70,,,,,,,,,,,,2.69,1.86,1.94*15
$GPGSV,3,1,09,02,46,122,29,05,81,088,13,06,,,29,12,38,332,34*46
$GPGSV,3,2,09,13,13,033,36,15,06,003,23,19,04,055,30,20,,,32*48
$GPGSV,3,3,09,25,44,276,22*44
$GLGSV,2,1,05,70,64,039,29,84,,,37,,,,31,,,,25*5A
$AAMTW,26.6,C*11
$AAXDR,C,26.6,C,ENV_SEA_T*0C
$AAMDA,,I,,B,,C,26.6,C,,,,C,,T,,M,,N,,M*06
$GLGSV,2,2,05,,,,31*62
$GNGLL,3651.98970,S,17443.43052,E,033336.00,A,A*67
$GNZDA,033336.00,26,01,2018,00,00*70
$AAMTW,26.6,C*11
$AAXDR,C,26.6,C,ENV_SEA_T*0C
$AAMDA,,I,,B,,C,26.6,C,,,,C,,T,,M,,N,,M*06
$GNRMC,033337.00,A,3651.98969,S,17443.43056,E,0.162,,260118,,,A*7A
$GNVTG,,T,,M,0.162,N,0.300,K,A*3B
$GNGGA,033337.00,3651.98969,S,17443.43056,E,1,07,1.79,16.2,M,28.1,M,,*69
$GNGSA,A,3,05,13,12,02,15,,,,,,,,2.59,1.79,1.88*1E
$GNGSA,A,3,70,84,,,,,,,,,,,2.59,1.79,1.88*17
$GPGSV,3,1,09,02,46,122,31,05,81,088,17,06,,,29,12,38,332,34*4B
$AAMTW,26.6,C*11
$AAXDR,C,26.6,C,ENV_SEA_T*0C
$AAMDA,,I,,B,,C,26.6,C,,,,C,,T,,M,,N,,M*06
$GPGSV,3,2,09,13,13,033,36,15,06,003,25,19,04,055,30,20,,,30*4C
$GPGSV,3,3,09,25,44,276,23*45
$GLGSV,2,1,05,70,64,039,27,84,36,095,38,,,,30,,,,27*61
$GLGSV,2,2,05,,,,30*63
$GNGLL,3651.98969,S,17443.43056,E,033337.00,A,A*6A
$GNZDA,033337.00,26,01,2018,00,00*71
$AAMTW,26.6,C*11
$AAXDR,C,26.6,C,ENV_SEA_T*0C
$AAMDA,,I,,B,,C,26.6,C,,,,C,,T,,M,,N,,M*06
$GNRMC,033338.00,A,3651.98969,S,17443.43064,E,0.159,,260118,,,A*7C
$GNVTG,,T,,M,0.159,N,0.295,K,A*3E
$GNGGA,033338.00,3651.98969,S,17443.43064,E,1,07,1.79,16.1,M,28.1,M,,*64
$GNGSA,A,3,05,13,12,02,15,,,,,,,,2.59,1.79,1.88*1E
$GNGSA,A,3,70,84,,,,,,,,,,,2.59,1.79,1.88*17
$GPGSV,3,1,09,02,46,122,31,05,81,088,15,06,,,29,12,38,332,34*49
$GPGSV,3,2,09,13,13,033,38,15,06,003,26,19,04,055,30,20,,,29*49
$GPGSV,3,3,09,25,44,276,22*44
$AAMTW,26.6,C*11
$GLGSV,2,1,05,70,64,039,28,84,36,095,40,,,,30,,,,25*63
$AAXDR,C,26.6,C,ENV_SEA_T*0C
$AAMDA,,I,,B,,C,26.6,C,,,,C,,T,,M,,N,,M*06
$GLGSV,2,2,05,,,,30*63
$GNGLL,3651.98969,S,17443.43064,E,033338.00,A,A*64
$GNZDA,033338.00,26,01,2018,00,00*7E
$AAMTW,26.6,C*11
$AAXDR,C,26.6,C,ENV_SEA_T*0C
$AAMDA,,I,,B,,C,26.6,C,,,,C,,T,,M,,N,,M*06
$GNRMC,033339.00,A,3651.98974,S,17443.43070,E,0.079,,260118,,,A*77
$GNVTG,,T,,M,0.079,N,0.145,K,A*33
$GNGGA,033339.00,3651.98974,S,17443.43070,E,1,08,1.24,15.9,M,28.1,M,,*60
$GNGSA,A,3,05,13,12,02,15,,,,,,,,2.14,1.24,1.74*1C
$GNGSA,A,3,70,84,75,,,,,,,,,,2.14,1.24,1.74*17
$GPGSV,3,1,09,02,46,122,30,05,81,088,15,06,,,32,12,38,332,29*4E
$AAMTW,26.6,C*11
$AAXDR,C,26.6,C,ENV_SEA_T*0C
$AAMDA,,I,,B,,C,26.6,C,,,,C,,T,,M,,N,,M*06
$GPGSV,3,2,09,13,13,033,38,15,06,003,26,19,04,055,30,20,,,28*48
$GPGSV,3,3,09,25,44,276,21*47
$GLGSV,2,1,05,70,64,039,26,75,14,286,31,84,36,095,40,,,,34*57
$GLGSV,2,2,05,,,,34*67
$GNGLL,3651.98974,S,17443.43070,E,033339.00,A,A*6C
$GNZDA,033339.00,26,01,2018,00,00*7F
$AAMTW,26.6,C*11
$AAXDR,C,26.6,C,ENV_SEA_T*0C
$AAMDA,,I,,B,,C,26.6,C,,,,C,,T,,M,,N,,M*06
$GNRMC,033340.00,A,3651.98966,S,17443.43078,E,0.200,,260118,,,A*7E
$GNVTG,,T,,M,0.200,N,0.370,K,A*3B
$GNGGA,033340.00,3651.98966,S,17443.43078,E,1,08,1.24,16.1,M,28.1,M,,*6E
$GNGSA,A,3,05,13,12,02,15,,,,,,,,1.94,1.24,1.50*11
$GNGSA,A,3,70,84,75,,,,,,,,,,1.94,1.24,1.50*1A
$GPGSV,3,1,09,02,46,122,31,05,81,088,15,06,,,32,12,38,332,28*4E
$GPGSV,3,2,09,13,13,033,35,15,06,003,27,19,04,055,31,20,,,26*4B
$GPGSV,3,3,09,25,44,276,23*45
$AAMTW,26.6,C*11
$AAXDR,C,26.6,C,ENV_SEA_T*0C
$AAMDA,,I,,B,,C,26.6,C,,,,C,,T,,M,,N,,M*06
$GLGSV,2,1,05,70,64,039,24,75,14,286,32,84,36,095,40,,,,35*57
$GLGSV,2,2,05,,,,35*66
$GNGLL,3651.98966,S,17443.43078,E,033340.00,A,A*69
$GNZDA,033340.00,26,01,2018,00,00*71
$AAMTW,26.6,C*11
$AAXDR,C,26.6,C,ENV_SEA_T*0C
$AAMDA,,I,,B,,C,26.6,C,,,,C,,T,,M,,N,,M*06
$GNRMC,033341.00,A,3651.98964,S,17443.43086,E,0.261,,260118,,,A*7B
$GNVTG,,T,,M,0.261,N,0.484,K,A*30
$GNGGA,033341.00,3651.98964,S,17443.43086,E,1,08,1.24,16.2,M,28.1,M,,*6F
$GNGSA,A,3,05,13,12,02,15,,,,,,,,1.94,1.24,1.50*11
$GNGSA,A,3,70,84,75,,,,,,,,,,1.94,1.24,1.50*1A
$GPGSV,3,1,09,02,46,122,36,05,81,088,32,06,,,31,12,38,332,25*42
$AAMTW,26.6,C*11
$AAXDR,C,26.6,C,ENV_SEA_T*0C
$GPGSV,3,2,09,13,13,033,36,15,06,003,27,19,04,055,31,20,,,27*49
$GPGSV,3,3,09,25,44,276,25*43
$AAMDA,,I,,B,,C,26.6,C,,,,C,,T,,M,,N,,M*06
$GLGSV,2,1,05,70,64,039,24,75,14,286,28,84,36,095,40,,,,31*58
$GLGSV,2,2,05,,,,31*62
$GNGLL,3651.98964,S,17443.43086,E,033341.00,A,A*6B
$GNZDA,033341.00,26,01,2018,00,00*70
$AAMTW,26.6,C*11
$AAXDR,C,26.6,C,ENV_SEA_T*0C
$AAMDA,,I,,B,,C,26.6,C,,,,C,,T,,M,,N,,M*06
$GNRMC,033342.00,A,3651.98960,S,17443.43093,E,0.727,212.51,260118,,,A*64
$GNVTG,212.51,T,,M,0.727,N,1.346,K,A*24
$GNGGA,033342.00,3651.98960,S,17443.43093,E,1,08,1.24,16.3,M,28.1,M,,*6D
$GNGSA,A,3,05,13,12,02,15,,,,,,,,1.94,1.24,1.50*11
$GNGSA,A,3,70,84,75,,,,,,,,,,1.94,1.24,1.50*1A
$GPGSV,3,1,09,02,46,122,36,05,81,088,33,06,,,30,12,38,332,25*42
$GPGSV,3,2,09,13,13,033,34,15,06,003,26,19,04,055,31,20,,,28*45
$AAMTW,26.6,C*11
$GPGSV,3,3,09,25,44,276,25*43
$AAXDR,C,26.6,C,ENV_SEA_T*0C
$AAMDA,,I,,B,,C,26.6,C,,,,C,,T,,M,,N,,M*06
$GLGSV,2,1,05,70,64,039,26,75,14,286,31,84,36,095,40,,,,23*51
$GLGSV,2,2,05,,,,23*61
$GNGLL,3651.98960,S,17443.43093,E,033342.00,A,A*68
$GNZDA,033342.00,26,01,2018,00,00*73
$AAMTW,26.6,C*11
$AAXDR,C,26.6,C,ENV_SEA_T*0C
$AAMDA,,I,,B,,C,26.6,C,,,,C,,T,,M,,N,,M*06
$GNRMC,033343.00,A,3651.98952,S,17443.43098,E,0.187,,260118,,,A*78
$GNVTG,,T,,M,0.187,N,0.346,K,A*32
$GNGGA,033343.00,3651.98952,S,17443.43098,E,1,08,1.24,16.6,M,28.1,M,,*63
$GNGSA,A,3,05,13,12,02,15,,,,,,,,1.94,1.24,1.50*11
$GNGSA,A,3,70,84,75,,,,,,,,,,1.94,1.24,1.50*1A
$GPGSV,3,1,09,02,46,122,36,05,81,088,29,06,,,30,12,38,332,32*4F
$AAMTW,26.6,C*11
$AAXDR,C,26.6,C,ENV_SEA_T*0C
$AAMDA,,I,,B,,C,26.6,C,,,,C,,T,,M,,N,,M*06
$GPGSV,3,2,09,13,13,033,34,15,06,003,26,19,04,055,32,20,,,30*4F
$GPGSV,3,3,09,25,44,276,24*42
$GLGSV,1,1,04,70,64,039,26,75,14,286,31,84,36,095,39,,,,24*5A
$GNGLL,3651.98952,S,17443.43098,E,033343.00,A,A*63
$GNZDA,033343.00,26,01,2018,00,00*72
$AAMTW,26.6,C*11
$AAXDR,C,26.6,C,ENV_SEA_T*0C
$AAMDA,,I,,B,,C,26.6,C,,,,C,,T,,M,,N,,M*06
$GNRMC,033344.00,A,3651.98944,S,17443.43107,E,0.080,,260118,,,A*79
$GNVTG,,T,,M,0.080,N,0.148,K,A*38
$GNGGA,033344.00,3651.98944,S,17443.43107,E,1,08,1.24,16.9,M,28.1,M,,*6B
$GNGSA,A,3,05,13,12,02,15,,,,,,,,1.94,1.24,1.50*11
$GNGSA,A,3,70,84,75,,,,,,,,,,1.94,1.24,1.50*1A
$GPGSV,3,1,09,02,46,122,36,05,81,088,31,06,,,30,12,38,332,33*47
$AAMTW,26.6,C*11
$GPGSV,3,2,09,13,13,033,34,15,06,003,26,19,04,055,32,20,,,31*4E
$AAXDR,C,26.6,C,ENV_SEA_T*0C
$GPGSV,3,3,09,25,44,276,23*45
$AAMDA,,I,,B,,C,26.6,C,,,,C,,T,,M,,N,,M*06
$GLGSV,1,1,04,70,64,039,24,75,14,286,31,84,36,095,39,,,,22*5E
$GNGLL,3651.98944,S,17443.43107,E,033344.00,A,A*64
$GNZDA,033344.00,26,01,2018,00,00*75
$AAMTW,26.6,C*11
$AAXDR,C,26.6,C,ENV_SEA_T*0C
$AAMDA,,I,,B,,C,26.6,C,,,,C,,T,,M,,N,,M*06
$GNRMC,033345.00,A,3651.98935,S,17443.43117,E,0.175,,260118,,,A*74
$GNVTG,,T,,M,0.175,N,0.324,K,A*3B
$GNGGA,033345.00,3651.98935,S,17443.43117,E,1,08,1.24,17.2,M,28.1,M,,*67
$GNGSA,A,3,05,13,12,02,15,,,,,,,,1.95,1.24,1.50*10
$GNGSA,A,3,70,84,75,,,,,,,,,,1.95,1.24,1.50*1B
$GPGSV,3,1,09,02,46,122,36,05,81,088,32,06,,,31,12,38,332,32*44
$AAMTW,26.6,C*11
$AAXDR,C,26.6,C,ENV_SEA_T*0C
$AAMDA,,I,,B,,C,26.6,C,,,,C,,T,,M,,N,,M*06
$GPGSV,3,2,09,13,13,033,34,15,06,003,27,19,04,055,32,20,,,31*4F
$GPGSV,3,3,09,25,44,276,23*45
$GLGSV,1,1,04,70,64,039,22,75,14,286,30,84,36,095,40,,,,23*56
$GNGLL,3651.98935,S,17443.43117,E,033345.00,A,A*62
$GNZDA,033345.00,26,01,2018,00,00*74
$AAMTW,26.6,C*11
$AAXDR,C,26.6,C,ENV_SEA_T*0C
$AAMDA,,I,,B,,C,26.6,C,,,,C,,T,,M,,N,,M*06
$GNRMC,033346.00,A,3651.98931,S,17443.43118,E,0.040,,260118,,,A*7B
$GNVTG,,T,,M,0.040,N,0.074,K,A*3A
$GNGGA,033346.00,3651.98931,S,17443.43118,E,1,08,1.24,17.2,M,28.1,M,,*6F
$GNGSA,A,3,05,13,12,02,15,,,,,,,,1.95,1.24,1.50*10
$GNGSA,A,3,70,84,75,,,,,,,,,,1.95,1.24,1.50*1B
$GPGSV,3,1,09,02,46,122,35,05,81,088,32,06,,,31,12,38,332,33*46
$AAMTW,26.6,C*11
$AAXDR,C,26.6,C,ENV_SEA_T*0C
$GPGSV,3,2,09,13,13,033,34,15,06,003,28,19,04,055,32,20,,,29*49
$GPGSV,3,3,09,25,44,276,24*42
$AAMDA,,I,,B,,C,26.6,C,,,,C,,T,,M,,N,,M*06
$GLGSV,1,1,04,70,64,039,21,75,14,286,30,84,36,095,39,,,,23*5B
$GNGLL,3651.98931,S,17443.43118,E,033346.00,A,A*6A
$GNZDA,033346.00,26,01,2018,00,00*77
$AAMTW,26.6,C*11
$AAXDR,C,26.6,C,ENV_SEA_T*0C
$AAMDA,,I,,B,,C,26.6,C,,,,C,,T,,M,,N,,M*06
$GNRMC,033347.00,A,3651.98924,S,17443.43130,E,0.171,,260118,,,A*77
$GNVTG,,T,,M,0.171,N,0.317,K,A*3F
$GNGGA,033347.00,3651.98924,S,17443.43130,E,1,08,1.24,17.3,M,28.1,M,,*61
$GNGSA,A,3,05,13,12,02,15,,,,,,,,1.95,1.24,1.50*10
$GNGSA,A,3,70,84,75,,,,,,,,,,1.95,1.24,1.50*1B
$GPGSV,3,1,09,02,46,122,35,05,81,088,33,06,,,33,12,38,332,35*43
$AAMTW,26.6,C*11
$AAXDR,C,26.6,C,ENV_SEA_T*0C
$AAMDA,,I,,B,,C,26.6,C,,,,C,,T,,M,,N,,M*06
$GPGSV,3,2,09,13,13,033,37,15,06,003,27,19,04,055,32,20,,,30*4D
$GPGSV,3,3,09,25,44,276,25*43
$GLGSV,1,1,04,70,64,039,20,75,14,286,29,84,36,095,39,,,,25*54
$GNGLL,3651.98924,S,17443.43130,E,033347.00,A,A*65
$GNZDA,033347.00,26,01,2018,00,00*76
$AAMTW,26.6,C*11
$AAXDR,C,26.6,C,ENV_SEA_T*0C
$AAMDA,,I,,B,,C,26.6,C,,,,C,,T,,M,,N,,M*06
$GNRMC,033348.00,A,3651.98916,S,17443.43142,E,0.208,,260118,,,A*71
$GNVTG,,T,,M,0.208,N,0.386,K,A*3A
$GNGGA,033348.00,3651.98916,S,17443.43142,E,1,08,1.24,17.4,M,28.1,M,,*6D
$GNGSA,A,3,05,13,12,02,15,,,,,,,,1.95,1.24,1.50*10
$GNGSA,A,3,70,84,75,,,,,,,,,,1.95,1.24,1.50*1B
$GPGSV,3,1,09,02,46,122,36,05,81,088,33,06,,,32,12,38,332,35*41
$AAMTW,26.6,C*11
$AAXDR,C,26.6,C,ENV_SEA_T*0C
$AAMDA,,I,,B,,C,26.6,C,,,,C,,T,,M,,N,,M*06
$GPGSV,3,2,09,13,13,033,36,15,06,003,28,19,04,055,32,20,,,28*4A
$GPGSV,3,3,09,25,44,276,26*40
$GLGSV,1,1,04,70,64,039,21,75,14,286,28,84,36,095,40,,,,22*5D
$GNGLL,3651.98916,S,17443.43142,E,033348.00,A,A*6E
$GNZDA,033348.00,26,01,2018,00,00*79
$AAMTW,26.6,C*11
$AAXDR,C,26.6,C,ENV_SEA_T*0C
$AAMDA,,I,,B,,C,26.6,C,,,,C,,T,,M,,N,,M*06
$GNRMC,033349.00,A,3651.98912,S,17443.43148,E,0.055,,260118,,,A*74
$GNVTG,,T,,M,0.055,N,0.101,K,A*3D
$GNGGA,033349.00,3651.98912,S,17443.43148,E,1,08,1.24,17.5,M,28.1,M,,*63
$GNGSA,A,3,05,13,12,02,15,,,,,,,,1.95,1.24,1.50*10
$GNGSA,A,3,70,84,75,,,,,,,,,,1.95,1.24,1.50*1B
$GPGSV,3,1,09,02,46,122,35,05,81,088,35,06,,,32,12,38,332,34*45
$AAMTW,26.6,C*11
$AAXDR,C,26.6,C,ENV_SEA_T*0C
$AAMDA,,I,,B,,C,26.6,C,,,,C,,T,,M,,N,,M*06
$GPGSV,3,2,09,13,13,033,35,15,06,003,29,19,04,055,31,20,,,27*44
$GPGSV,3,3,09,25,44,276,25*43
$GLGSV,2,1,05,70,64,039,21,75,14,286,27,76,15,238,,84,36,095,40*6C
$GLGSV,2,2,05,,,,21*63
$GNGLL,3651.98912,S,17443.43148,E,033349.00,A,A*61
$GNZDA,033349.00,26,01,2018,00,00*78
$AAMTW,26.6,C*11
$AAXDR,C,26.6,C,ENV_SEA_T*0C
$AAMDA,,I,,B,,C,26.6,C,,,,C,,T,,M,,N,,M*06
$GNRMC,033350.00,A,3651.98910,S,17443.43154,E,0.266,,260118,,,A*71
$GNVTG,,T,,M,0.266,N,0.493,K,A*31
$GNGGA,033350.00,3651.98910,S,17443.43154,E,1,08,1.24,17.5,M,28.1,M,,*64
$GNGSA,A,3,05,13,12,02,15,,,,,,,,1.95,1.24,1.50*10
$GNGSA,A,3,70,84,75,,,,,,,,,,1.95,1.24,1.50*1B
$GPGSV,3,1,09,02,46,122,35,05,81,088,35,06,,,31,12,38,332,34*46
$AAMTW,26.6,C*11
$AAXDR,C,26.6,C,ENV_SEA_T*0C
$AAMDA,,I,,B,,C,26.6,C,,,,C,,T,,M,,N,,M*06
$GPGSV,3,2,09,13,13,033,35,15,06,003,30,19,04,055,30,20,,,27*4D
$GPGSV,3,3,09,25,44,276,23*45
$GLGSV,2,1,06,70,64,039,22,75,14,286,27,76,15,238,,84,36,095,40*6C
$GLGSV,2,2,06,,,,32,,,,23*63
$GNGLL,3651.98910,S,17443.43154,E,033350.00,A,A*66
$GNZDA,033350.00,26,01,2018,00,00*70
$AAMTW,26.6,C*11
$AAXDR,C,26.6,C,ENV_SEA_T*0C
$AAMDA,,I,,B,,C,26.6,C,,,,C,,T,,M,,N,,M*06
$GNRMC,033351.00,A,3651.98911,S,17443.43157,E,0.336,,260118,,,A*76
$GNVTG,,T,,M,0.336,N,0.622,K,A*3D
$GNGGA,033351.00,3651.98911,S,17443.43157,E,1,08,1.24,17.4,M,28.1,M,,*66
$GNGSA,A,3,05,13,12,02,15,,,,,,,,1.95,1.24,1.50*10
$GNGSA,A,3,70,84,75,,,,,,,,,,1.95,1.24,1.50*1B
$GPGSV,3,1,09,02,46,122,38,05,81,088,34,06,,,30,12,38,332,34*4B
$AAMTW,26.6,C*11
$AAXDR,C,26.6,C,ENV_SEA_T*0C
$AAMDA,,I,,B,,C,26.6,C,,,,C,,T,,M,,N,,M*06
$GPGSV,3,2,09,13,13,033,37,15,06,003,31,19,04,055,29,20,,,27*46
$GPGSV,3,3,09,25,44,276,22*44
$GLGSV,2,1,06,70,64,039,21,75,14,286,26,76,15,238,19,84,36,095,40*66
$GLGSV,2,2,06,,,,26,,,,25*60
$GNGLL,3651.98911,S,17443.43157,E,033351.00,A,A*65
$GNZDA,033351.00,26,01,2018,00,00*71
$AAMTW,26.6,C*11
$AAXDR,C,26.6,C,ENV_SEA_T*0C
$AAMDA,,I,,B,,C,26.6,C,,,,C,,T,,M,,N,,M*06
$GNRMC,033352.00,A,3651.98912,S,17443.43157,E,0.177,,260118,,,A*71
$GNVTG,,T,,M,0.177,N,0.328,K,A*35
$GNGGA,033352.00,3651.98912,S,17443.43157,E,1,08,1.24,17.3,M,28.1,M,,*61
$GNGSA,A,3,05,13,12,02,15,,,,,,,,1.95,1.24,1.50*10
$GNGSA,A,3,70,84,75,,,,,,,,,,1.95,1.24,1.50*1B
$GPGSV,3,1,09,02,46,122,38,05,81,088,33,06,,,28,12,38,332,34*45
$AAMTW,26.6,C*11
$AAXDR,C,26.6,C,ENV_SEA_T*0C
$AAMDA,,I,,B,,C,26.6,C,,,,C,,T,,M,,N,,M*06
$GPGSV,3,2,09,13,13,033,37,15,06,003,31,19,04,055,28,20,,,26*46
$GPGSV,3,3,09,25,44,276,20*46
$GLGSV,2,1,06,70,64,039,20,75,14,286,27,76,15,238,19,84,36,095,40*66
$GLGSV,2,2,06,,,,25,,,,25*63
$GNGLL,3651.98912,S,17443.43157,E,033352.00,A,A*65
$GNZDA,033352.00,26,01,2018,00,00*72
$AAMTW,26.6,C*11
$AAXDR,C,26.6,C,ENV_SEA_T*0C
$AAMDA,,I,,B,,C,26.6,C,,,,C,,T,,M,,N,,M*06
$GNRMC,033353.00,A,3651.98911,S,17443.43157,E,0.092,,260118,,,A*79
$GNVTG,,T,,M,0.092,N,0.170,K,A*30
$GNGGA,033353.00,3651.98911,S,17443.43157,E,1,08,1.24,17.4,M,28.1,M,,*64
$GNGSA,A,3,05,13,12,02,15,,,,,,,,1.95,1.24,1.50*10
$GNGSA,A,3,70,84,75,,,,,,,,,,1.95,1.24,1.50*1B
$GPGSV,3,1,09,02,46,122,38,05,81,088,34,06,,,27,12,38,332,34*4D
$AAMTW,26.6,C*11
$AAXDR,C,26.6,C,ENV_SEA_T*0C
$AAMDA,,I,,B,,C,26.6,C,,,,C,,T,,M,,N,,M*06
$GPGSV,3,2,09,13,13,033,37,15,06,003,31,19,04,055,27,20,,,26*49
$GPGSV,3,3,09,25,44,276,20*46
$GLGSV,2,1,06,70,64,039,17,75,14,286,27,76,15,239,17,84,36,095,40*6D
$GLGSV,2,2,06,,,,24,,,,25*62
$GNGLL,3651.98911,S,17443.43157,E,033353.00,A,A*67
$GNZDA,033353.00,26,01,2018,00,00*73
$AAMTW,26.6,C*11
$AAXDR,C,26.6,C,ENV_SEA_T*0C
$AAMDA,,I,,B,,C,26.6,C,,,,C,,T,,M,,N,,M*06
$GNRMC,033354.00,A,3651.98913,S,17443.43155,E,0.077,,260118,,,A*75
$GNVTG,,T,,M,0.077,N,0.142,K,A*3A
$GNGGA,033354.00,3651.98913,S,17443.43155,E,1,08,1.24,17.3,M,28.1,M,,*64
$GNGSA,A,3,05,13,12,02,15,,,,,,,,1.95,1.24,1.50*10
$GNGSA,A,3,70,84,75,,,,,,,,,,1.95,1.24,1.50*1B
$GPGSV,3,1,09,02,46,122,37,05,81,088,32,06,,,26,12,38,332,33*42
$AAMTW,26.6,C*11
$AAXDR,C,26.6,C,ENV_SEA_T*0C
$AAMDA,,I,,B,,C,26.6,C,,,,C,,T,,M,,N,,M*06
$GPGSV,3,2,09,13,13,033,37,15,06,003,31,19,04,055,26,20,,,25*4B
$GPGSV,3,3,09,25,44,276,20*46
$GLGSV,2,1,06,70,64,039,19,75,14,286,26,76,15,239,17,84,36,095,38*6D
$GLGSV,2,2,06,,,,22,,,,26*67
$GNGLL,3651.98913,S,17443.43155,E,033354.00,A,A*60
$GNZDA,033354.00,26,01,2018,00,00*74
$AAMTW,26.6,C*11
$AAXDR,C,26.6,C,ENV_SEA_T*0C
$AAMDA,,I,,B,,C,26.6,C,,,,C,,T,,M,,N,,M*06
$GNRMC,033355.00,A,3651.98910,S,17443.43153,E,0.286,,260118,,,A*7D
$GNVTG,,T,,M,0.286,N,0.530,K,A*37
$GNGGA,033355.00,3651.98910,S,17443.43153,E,1,08,1.24,17.5,M,28.1,M,,*66
$GNGSA,A,3,05,13,12,02,15,,,,,,,,1.95,1.24,1.50*10
$GNGSA,A,3,70,84,75,,,,,,,,,,1.95,1.24,1.50*1B
$GPGSV,3,1,09,02,46,122,37,05,81,088,32,06,,,25,12,38,332,32*40
$AAMTW,26.6,C*11
$AAXDR,C,26.6,C,ENV_SEA_T*0C
$AAMDA,,I,,B,,C,26.6,C,,,,C,,T,,M,,N,,M*06
$GPGSV,3,2,09,13,13,033,38,15,06,003,31,19,04,055,25,20,,,26*44
$GPGSV,3,3,09,25,44,276,20*46
$GLGSV,2,1,06,70,64,039,28,75,14,286,26,76,15,239,18,84,36,095,38*60
$GLGSV,2,2,06,,,,21,,,,22*60
$GNGLL,3651.98910,S,17443.43153,E,033355.00,A,A*64
$GNZDA,033355.00,26,01,2018,00,00*75
$AAMTW,26.6,C*11
$AAXDR,C,26.6,C,ENV_SEA_T*0C
$AAMDA,,I,,B,,C,26.6,C,,,,C,,T,,M,,N,,M*06
$GNRMC,033356.00,A,3651.98908,S,17443.43151,E,0.253,,260118,,,A*7D
$GNVTG,,T,,M,0.253,N,0.469,K,A*32
$GNGGA,033356.00,3651.98908,S,17443.43151,E,1,08,1.24,17.6,M,28.1,M,,*6D
$GNGSA,A,3,05,13,12,02,15,,,,,,,,1.95,1.24,1.50*10
$GNGSA,A,3,70,84,75,,,,,,,,,,1.95,1.24,1.50*1B
$GPGSV,3,1,09,02,46,121,36,05,81,088,31,06,,,25,12,38,332,33*40
$AAMTW,26.6,C*11
$AAXDR,C,26.6,C,ENV_SEA_T*0C
$AAMDA,,I,,B,,C,26.6,C,,,,C,,T,,M,,N,,M*06
$GPGSV,3,2,09,13,13,033,40,15,06,003,32,19,04,055,25,20,,,26*48
$GPGSV,3,3,09,25,44,276,21*47
$GLGSV,2,1,06,70,64,039,28,75,14,286,27,76,15,239,19,84,36,095,38*60
$GLGSV,2,2,06,,,,20,,,,20*63
$GNGLL,3651.98908,S,17443.43151,E,033356.00,A,A*6C
$GNZDA,033356.00,26,01,2018,00,00*76
$AAMTW,26.6,C*11
$AAXDR,C,26.6,C,ENV_SEA_T*0C
$AAMDA,,I,,B,,C,26.6,C,,,,C,,T,,M,,N,,M*06
$GNRMC,033357.00,A,3651.98911,S,17443.43145,E,0.248,,260118,,,A*7B
$GNVTG,,T,,M,0.248,N,0.459,K,A*3B
$GNGGA,033357.00,3651.98911,S,17443.43145,E,1,08,1.24,17.6,M,28.1,M,,*61
$GNGSA,A,3,05,13,12,02,15,,,,,,,,1.95,1.24,1.50*10
$GNGSA,A,3,70,84,75,,,,,,,,,,1.95,1.24,1.50*1B
$GPGSV,3,1,09,02,46,121,36,05,81,088,31,06,,,25,12,38,332,34*47
$AAMTW,26.6,C*11
$AAXDR,C,26.6,C,ENV_SEA_T*0C
$AAMDA,,I,,B,,C,26.6,C,,,,C,,T,,M,,N,,M*06
$GPGSV,3,2,09,13,13,033,39,15,06,003,32,19,04,055,24,20,,,27*46
$GPGSV,3,3,09,25,44,276,22*44
$GLGSV,2,1,06,70,64,039,27,75,14,286,27,76,15,239,20,84,36,095,38*65
$GLGSV,2,2,06,,,,22,,,,20*61
$GNGLL,3651.98911,S,17443.43145,E,033357.00,A,A*60
$GNZDA,033357.00,26,01,2018,00,00*77
$AAMTW,26.6,C*11
$AAXDR,C,26.6,C,ENV_SEA_T*0C
$AAMDA,,I,,B,,C,26.6,C,,,,C,,T,,M,,N,,M*06
$GNRMC,033358.00,A,3651.98913,S,17443.43140,E,0.084,,260118,,,A*71
$GNVTG,,T,,M,0.084,N,0.155,K,A*30
$GNGGA,033358.00,3651.98913,S,17443.43140,E,1,08,1.24,17.6,M,28.1,M,,*69
$GNGSA,A,3,05,13,12,02,15,,,,,,,,1.95,1.24,1.50*10
$GNGSA,A,3,70,84,75,,,,,,,,,,1.95,1.24,1.50*1B
$GPGSV,3,1,09,02,46,121,35,05,81,089,31,06,,,26,12,38,332,34*46
$AAMTW,26.6,C*11
$AAXDR,C,26.6,C,ENV_SEA_T*0C
$AAMDA,,I,,B,,C,26.6,C,,,,C,,T,,M,,N,,M*06
$GPGSV,3,2,09,13,13,033,38,15,06,003,32,19,04,055,24,20,,,27*47
$GPGSV,3,3,09,25,44,276,24*42
$GLGSV,2,1,06,70,64,039,26,75,14,286,28,76,15,239,20,84,36,095,39*6A
$GLGSV,2,2,06,,,,22,,,,24*65
$GNGLL,3651.98913,S,17443.43140,E,033358.00,A,A*68
$GNZDA,033358.00,26,01,2018,00,00*78
$AAMTW,26.6,C*11
$AAXDR,C,26.6,C,ENV_SEA_T*0C
$AAMDA,,I,,B,,C,26.6,C,,,,C,,T,,M,,N,,M*06
$GNRMC,033359.00,A,3651.98906,S,17443.43137,E,0.183,,260118,,,A*72
$GNVTG,,T,,M,0.183,N,0.339,K,A*3E
$GNGGA,033359.00,3651.98906,S,17443.43137,E,1,08,1.24,17.8,M,28.1,M,,*62
$GNGSA,A,3,05,13,12,02,15,,,,,,,,1.95,1.24,1.50*10
$GNGSA,A,3,70,84,75,,,,,,,,,,1.95,1.24,1.50*1B
$AAMTW,26.6,C*11
$GPGSV,3,1,09,02,46,121,38,05,81,089,31,06,,,26,12,38,332,35*4A
$AAXDR,C,26.6,C,ENV_SEA_T*0C
$AAMDA,,I,,B,,C,26.6,C,,,,C,,T,,M,,N,,M*06
$GPGSV,3,2,09,13,13,033,38,15,06,003,32,19,04,055,25,20,,,27*46
$GPGSV,3,3,09,25,44,276,25*43
$GLGSV,2,1,06,70,64,039,26,75,14,286,29,76,15,239,18,84,36,095,38*61
$GLGSV,2,2,06,,,,22,,,,24*65
$GNGLL,3651.98906,S,17443.43137,E,033359.00,A,A*6D
$GNZDA,033359.00,26,01,2018,00,00*79
$AAMTW,26.6,C*11
$AAXDR,C,26.6,C,ENV_SEA_T*0C
$AAMDA,,I,,B,,C,26.6,C,,,,C,,T,,M,,N,,M*06
$GNRMC,033400.00,A,3651.98898,S,17443.43134,E,0.265,,260118,,,A*77
$GNVTG,,T,,M,0.265,N,0.491,K,A*30
$GNGGA,033400.00,3651.98898,S,17443.43134,E,1,08,1.24,18.1,M,28.1,M,,*6A
$GNGSA,A,3,05,13,12,02,15,,,,,,,,1.95,1.24,1.50*10
$GNGSA,A,3,70,84,75,,,,,,,,,,1.95,1.24,1.50*1B
$GPGSV,3,1,09,02,46,121,38,05,81,089,32,06,,,27,12,38,332,35*48
$AAMTW,26.6,C*11
$AAXDR,C,26.6,C,ENV_SEA_T*0C
$AAMDA,,I,,B,,C,26.6,C,,,,C,,T,,M,,N,,M*06
$GPGSV,3,2,09,13,13,033,39,15,06,003,32,19,04,055,27,20,,,27*45
$GPGSV,3,3,09,25,44,276,26*40
$GLGSV,2,1,06,70,64,039,25,75,14,286,28,76,15,239,,84,36,095,38*6A
$GLGSV,2,2,06,,,,23,,,,25*65
$GNGLL,3651.98898,S,17443.43134,E,033400.00,A,A*63
$GNZDA,033400.00,26,01,2018,00,00*72
$AAMTW,26.6,C*11
$AAXDR,C,26.6,C,ENV_SEA_T*0C
$AAMDA,,I,,B,,C,26.6,C,,,,C,,T,,M,,N,,M*06
$GNRMC,033401.00,A,3651.98891,S,17443.43130,E,0.160,,260118,,,A*7D
$GNVTG,,T,,M,0.160,N,0.295,K,A*34
$GNGGA,033401.00,3651.98891,S,17443.43130,E,1,09,1.21,18.2,M,28.1,M,,*61
$GNGSA,A,3,05,13,12,02,15,20,,,,,,,1.88,1.21,1.44*1E
$GNGSA,A,3,70,84,75,,,,,,,,,,1.88,1.21,1.44*17
$GPGSV,3,1,09,02,46,121,38,05,81,089,33,06,,,27,12,38,332,35*49
$AAMTW,26.6,C*11
$AAXDR,C,26.6,C,ENV_SEA_T*0C
$AAMDA,,I,,B,,C,26.6,C,,,,C,,T,,M,,N,,M*06
$GPGSV,3,2,09,13,13,033,39,15,06,003,33,19,04,055,28,20,37,319,29*7A
$GPGSV,3,3,09,25,44,276,26*40
$GLGSV,2,1,06,70,64,039,26,75,14,286,28,76,15,239,25,84,36,095,39*6F
$GLGSV,2,2,06,,,,24,,,,23*64
$GNGLL,3651.98891,S,17443.43130,E,033401.00,A,A*6F
$GNZDA,033401.00,26,01,2018,00,00*73
$AAMTW,26.6,C*11
$AAXDR,C,26.6,C,ENV_SEA_T*0C
$AAMDA,,I,,B,,C,26.6,C,,,,C,,T,,M,,N,,M*06
$GNRMC,033402.00,A,3651.98885,S,17443.43133,E,0.156,,260118,,,A*7D
$GNVTG,,T,,M,0.156,N,0.289,K,A*3C
$GNGGA,033402.00,3651.98885,S,17443.43133,E,1,09,1.21,18.3,M,28.1,M,,*65
$GNGSA,A,3,05,13,12,02,15,20,,,,,,,1.88,1.21,1.44*1E
$GNGSA,A,3,70,84,75,,,,,,,,,,1.88,1.21,1.44*17
$GPGSV,3,1,09,02,46,121,37,05,81,089,33,06,,,28,12,38,332,35*49
$AAMTW,26.6,C*11
$AAXDR,C,26.6,C,ENV_SEA_T*0C
$AAMDA,,I,,B,,C,26.6,C,,,,C,,T,,M,,N,,M*06
$GPGSV,3,2,09,13,13,033,36,15,06,003,32,19,04,055,28,20,37,319,30*7C
$GPGSV,3,3,09,25,44,276,26*40
$GLGSV,2,1,06,70,64,039,26,75,14,286,27,76,15,239,26,84,36,095,38*62
$GLGSV,2,2,06,,,,23,,,,23*63
$GNGLL,3651.98885,S,17443.43133,E,033402.00,A,A*6A
$GNZDA,033402.00,26,01,2018,00,00*70
$AAMTW,26.6,C*11
$AAXDR,C,26.6,C,ENV_SEA_T*0C
$AAMDA,,I,,B,,C,26.6,C,,,,C,,T,,M,,N,,M*06
$GNRMC,033403.00,A,3651.98880,S,17443.43136,E,0.009,,260118,,,A*77
$GNVTG,,T,,M,0.009,N,0.017,K,A*32
$GNGGA,033403.00,3651.98880,S,17443.43136,E,1,09,1.21,18.3,M,28.1,M,,*64
$GNGSA,A,3,05,13,12,02,15,20,,,,,,,1.88,1.21,1.44*1E
$GNGSA,A,3,70,84,75,,,,,,,,,,1.88,1.21,1.44*17
$GPGSV,3,1,09,02,46,121,36,05,81,089,32,06,,,29,12,38,332,34*49
$AAMTW,26.6,C*11
$AAXDR,C,26.6,C,ENV_SEA_T*0C
$AAMDA,,I,,B,,C,26.6,C,,,,C,,T,,M,,N,,M*06
$GPGSV,3,2,09,13,13,033,37,15,06,003,32,19,04,055,28,20,37,319,31*7C
$GPGSV,3,3,09,25,44,276,27*41
$GLGSV,2,1,06,70,64,039,26,75,14,286,27,76,15,239,24,84,36,095,38*60
$GLGSV,2,2,06,,,,22,,,,23*62
$GNGLL,3651.98880,S,17443.43136,E,033403.00,A,A*6B
$GNZDA,033403.00,26,01,2018,00,00*71
$AAMTW,26.6,C*11
$AAXDR,C,26.6,C,ENV_SEA_T*0C
$AAMDA,,I,,B,,C,26.6,C,,,,C,,T,,M,,N,,M*06
$GNRMC,033404.00,A,3651.98875,S,17443.43139,E,0.028,,260118,,,A*76
$GNVTG,,T,,M,0.028,N,0.052,K,A*30
$GNGGA,033404.00,3651.98875,S,17443.43139,E,1,09,1.21,18.4,M,28.1,M,,*61
$GNGSA,A,3,05,13,12,02,15,20,,,,,,,1.88,1.21,1.44*1E
$GNGSA,A,3,70,84,75,,,,,,,,,,1.88,1.21,1.44*17
$GPGSV,3,1,09,02,46,121,36,05,81,089,31,06,,,29,12,38,332,34*4A
$AAMTW,26.6,C*11
$AAXDR,C,26.6,C,ENV_SEA_T*0C
$AAMDA,,I,,B,,C,26.6,C,,,,C,,T,,M,,N,,M*06
$GPGSV,3,2,09,13,13,033,36,15,06,003,32,19,04,055,28,20,37,319,31*7D
$GPGSV,3,3,09,25,44,277,27*40
$GLGSV,2,1,06,70,64,039,26,75,14,286,27,76,15,239,21,84,36,095,38*65
$GLGSV,2,2,06,,,,20,,,,30*62
$GNGLL,3651.98875,S,17443.43139,E,033404.00,A,A*69
$GNZDA,033404.00,26,01,2018,00,00*76
$AAMTW,26.6,C*11
$AAXDR,C,26.6,C,ENV_SEA_T*0C
$AAMDA,,I,,B,,C,26.6,C,,,,C,,T,,M,,N,,M*06
$GNRMC,033405.00,A,3651.98866,S,17443.43145,E,0.110,,260118,,,A*74
$GNVTG,,T,,M,0.110,N,0.203,K,A*3C
$GNGGA,033405.00,3651.98866,S,17443.43145,E,1,09,1.21,18.6,M,28.1,M,,*6B
$GNGSA,A,3,05,13,12,02,15,20,,,,,,,1.88,1.21,1.44*1E
$GNGSA,A,3,70,84,75,,,,,,,,,,1.88,1.21,1.44*17
$AAMTW,26.6,C*11
$GPGSV,3,1,09,02,46,121,35,05,81,089,25,06,,,30,12,38,332,34*44
$AAXDR,C,26.6,C,ENV_SEA_T*0C
$AAMDA,,I,,B,,C,26.6,C,,,,C,,T,,M,,N,,M*06
$GPGSV,3,2,09,13,13,033,36,15,06,003,31,19,04,055,29,20,37,319,30*7E
$GPGSV,3,3,09,25,44,277,27*40
$GLGSV,2,1,06,70,64,039,31,75,14,286,28,76,15,239,,84,36,095,38*6F
$GLGSV,2,2,06,,,,19,,,,18*62
$GNGLL,3651.98866,S,17443.43145,E,033405.00,A,A*61
$GNZDA,033405.00,26,01,2018,00,00*77
$AAMTW,26.6,C*11
$AAXDR,C,26.6,C,ENV_SEA_T*0C
$AAMDA,,I,,B,,C,26.6,C,,,,C,,T,,M,,N,,M*06
$GNRMC,033406.00,A,3651.98857,S,17443.43151,E,0.041,,260118,,,A*75
$GNVTG,,T,,M,0.041,N,0.075,K,A*3A
$GNGGA,033406.00,3651.98857,S,17443.43151,E,1,09,1.21,18.9,M,28.1,M,,*60
$GNGSA,A,3,05,13,12,02,15,20,,,,,,,1.88,1.21,1.44*1E
$GNGSA,A,3,70,84,75,,,,,,,,,,1.88,1.21,1.44*17
$AAMTW,26.6,C*11
$AAXDR,C,26.6,C,ENV_SEA_T*0C
$AAMDA,,I,,B,,C,26.6,C,,,,C,,T,,M,,N,,M*06
$GPGSV,3,1,09,02,46,121,35,05,81,089,29,06,,,31,12,38,332,36*4B
$GPGSV,3,2,09,13,13,033,34,15,06,003,32,19,04,055,29,20,37,319,29*77
$GPGSV,3,3,09,25,44,277,26*41
$GLGSV,2,1,06,70,64,039,30,75,14,286,28,76,15,239,,84,36,095,40*61
$GLGSV,2,2,06,,,,20,,,,28*6B
$GNGLL,3651.98857,S,17443.43151,E,033406.00,A,A*65
$GNZDA,033406.00,26,01,2018,00,00*74
