$GLGSV,3,2,10,75,09,253,21,76,04,209,21,83,22,072,34,84,63,136,34*67
$GLGSV,3,3,10,85,32,215,38,,,,41*50
$AADPT,1.81,0.00*48
$AADBT,5.9,f,1.81,M,0.9,F*2C
$AADBS,5.9,f,1.81,M,0.9,F*2B
$AAMTW,21.7,C*17
$AAXDR,C,21.7,C,ENV_SEA_T*0A
$AAMDA,,I,,B,,C,21.7,C,,,,C,,T,,M,,N,,M*00
$AADPT,1.81,0.00*48
$GNGLL,3651.91110,S,17443.41687,E,034403.00,A,A*6A
$GNZDA,034403.00,02,02,2018,00,00*73
$GNRMC,034404.00,A,3651.91093,S,17443.41715,E,1.103,56.52,020218,,,A*54
$GNVTG,56.52,T,,M,1.103,N,2.042,K,A*10
$GNGGA,034404.00,3651.91093,S,17443.41715,E,1,12,0.65,13.4,M,28.1,M,,*65
$GNGSA,A,3,29,05,25,12,15,13,20,02,,,,,1.23,0.65,1.04*16
$AADPT,1.83,0.00*4A
$AADBT,6.0,f,1.83,M,1.0,F*2C
$AADBS,6.0,f,1.83,M,1.0,F*2B
$AAMTW,21.7,C*17
$AAXDR,C,21.7,C,ENV_SEA_T*0A
$AAMDA,,I,,B,,C,21.7,C,,,,C,,T,,M,,N,,M*00
$AADPT,1.83,0.00*4A
$GNGSA,A,3,68,69,85,83,84,75,70,,,,,,1.23,0.65,1.04*14
$GPGSV,3,1,12,02,34,105,35,04,,,30,05,66,133,43,06,03,094,14*46
$GPGSV,3,2,12,12,21,341,40,13,27,044,36,15,20,010,36,20,53,306,41*7D
$GPGSV,3,3,12,21,09,259,22,25,35,298,36,26,03,213,,29,60,223,44*70
$GLGSV,3,1,10,68,22,148,34,69,71,112,34,70,40,348,28,74,00,301,*69
$GLGSV,3,2,10,75,09,253,20,76,04,209,21,83,22,072,33,84,63,136,34*61
$GLGSV,3,3,10,85,32,215,38,,,,41*50
$AADPT,1.83,0.00*4A
$AADBT,6.0,f,1.83,M,1.0,F*2C
$AADBS,6.0,f,1.83,M,1.0,F*2B
$AAMTW,21.7,C*17
$AAXDR,C,21.7,C,ENV_SEA_T*0A
$AAMDA,,I,,B,,C,21.7,C,,,,C,,T,,M,,N,,M*00
$AADPT,1.83,0.00*4A
$GNGLL,3651.91093,S,17443.41715,E,034404.00,A,A*6D
$GNZDA,034404.00,02,02,2018,00,00*74
$GNRMC,034405.00,A,3651.91071,S,17443.41736,E,0.995,46.74,020218,,,A*5B
$GNVTG,46.74,T,,M,0.995,N,1.843,K,A*19
$GNGGA,034405.00,3651.91071,S,17443.41736,E,1,12,0.65,13.4,M,28.1,M,,*69
$AADPT,1.83,0.00*4A
$GNGSA,A,3,29,05,25,12,15,13,20,02,,,,,1.23,0.65,1.04*16
$GNGSA,A,3,68,69,85,83,84,75,70,,,,,,1.23,0.65,1.04*14
$AADBT,6.0,f,1.83,M,1.0,F*2C
$AADBS,6.0,f,1.83,M,1.0,F*2B
$AAMTW,21.7,C*17
$AAXDR,C,21.7,C,ENV_SEA_T*0A
$AAMDA,,I,,B,,C,21.7,C,,,,C,,T,,M,,N,,M*00
$AADPT,1.83,0.00*4A
$GPGSV,3,1,12,02,34,105,38,04,,,27,05,66,133,44,06,03,094,10*4E
$GPGSV,3,2,12,12,21,341,40,13,27,044,36,15,20,010,37,20,53,306,38*72
$GPGSV,3,3,12,21,09,259,22,25,35,298,38,26,03,213,,29,60,223,44*7E
$GLGSV,3,1,10,68,22,148,35,69,71,112,34,70,40,348,30,74,00,301,*61
$GLGSV,3,2,10,75,09,253,22,76,04,209,15,83,22,072,26,84,63,136,34*60
$GLGSV,3,3,10,85,32,215,38,,,,38*5E
$GNGLL,3651.91071,S,17443.41736,E,034405.00,A,A*61
$AADPT,1.83,0.00*4A
$AADBT,6.0,f,1.83,M,1.0,F*2C
$AADBS,6.0,f,1.83,M,1.0,F*2B
$AAMTW,21.7,C*17
$AAXDR,C,21.7,C,ENV_SEA_T*0A
$AAMDA,,I,,B,,C,21.7,C,,,,C,,T,,M,,N,,M*00
$AADPT,1.83,0.00*4A
$GNZDA,034405.00,02,02,2018,00,00*75
$GNRMC,034406.00,A,3651.91051,S,17443.41753,E,0.836,42.55,020218,,,A*56
$GNVTG,42.55,T,,M,0.836,N,1.548,K,A*10
$GNGGA,034406.00,3651.91051,S,17443.41753,E,1,12,0.65,13.3,M,28.1,M,,*6C
$AADPT,1.78,0.00*4E
$GNGSA,A,3,29,05,25,12,15,13,20,02,,,,,1.23,0.65,1.04*16
$GNGSA,A,3,68,69,85,83,84,75,70,,,,,,1.23,0.65,1.04*14
$AADBT,5.8,f,1.78,M,0.9,F*2B
$AADBS,5.8,f,1.78,M,0.9,F*2C
$AAMTW,21.7,C*17
$AAXDR,C,21.7,C,ENV_SEA_T*0A
$AAMDA,,I,,B,,C,21.7,C,,,,C,,T,,M,,N,,M*00
$AADPT,1.78,0.00*4E
$GPGSV,3,1,12,02,34,105,40,04,,,29,05,66,133,42,06,03,094,16*4F
$GPGSV,3,2,12,12,21,341,38,13,27,044,35,15,20,010,32,20,53,306,38*7B
$GPGSV,3,3,12,21,09,259,22,25,35,298,29,26,03,213,,29,60,223,42*78
$GLGSV,3,1,10,68,22,148,34,69,71,112,33,70,40,348,36,74,00,301,*61
$GLGSV,3,2,10,75,09,253,24,76,04,209,15,83,22,072,35,84,63,136,32*62
$GLGSV,3,3,10,85,32,215,34,,,,35*5F
$AADPT,1.78,0.00*4E
$AADBT,5.8,f,1.78,M,0.9,F*2B
$AADBS,5.8,f,1.78,M,0.9,F*2C
$AAMTW,21.7,C*17
$AAXDR,C,21.7,C,ENV_SEA_T*0A
$AAMDA,,I,,B,,C,21.7,C,,,,C,,T,,M,,N,,M*00
$AADPT,1.78,0.00*4E
$GNGLL,3651.91051,S,17443.41753,E,034406.00,A,A*63
$GNZDA,034406.00,02,02,2018,00,00*76
$GNRMC,034407.00,A,3651.91034,S,17443.41765,E,0.782,37.99,020218,,,A*53
$GNVTG,37.99,T,,M,0.782,N,1.448,K,A*13
$GNGGA,034407.00,3651.91034,S,17443.41765,E,1,12,0.65,13.3,M,28.1,M,,*6B
$AADPT,1.81,0.00*48
$AADBT,5.9,f,1.81,M,0.9,F*2C
$GNGSA,A,3,29,05,25,12,15,13,20,02,,,,,1.23,0.65,1.04*16
$GNGSA,A,3,68,69,85,83,84,75,70,,,,,,1.23,0.65,1.04*14
$AADBS,5.9,f,1.81,M,0.9,F*2B
$AAMTW,21.7,C*17
$AAXDR,C,21.7,C,ENV_SEA_T*0A
$AAMDA,,I,,B,,C,21.7,C,,,,C,,T,,M,,N,,M*00
$AADPT,1.81,0.00*48
$GPGSV,3,1,12,02,34,105,40,04,,,31,05,66,133,43,06,03,094,11*40
$GPGSV,3,2,12,12,21,341,38,13,27,044,36,15,20,010,31,20,53,306,38*7B
$GPGSV,3,3,12,21,09,259,23,25,35,298,29,26,03,213,,29,60,223,42*79
$GLGSV,3,1,10,68,22,148,32,69,71,112,32,70,40,348,38,74,00,301,*68
$GLGSV,3,2,10,75,09,253,28,76,04,209,15,83,22,072,37,84,63,136,30*6E
$GLGSV,3,3,10,85,32,215,33,,,,31*5C
$GNGLL,3651.91034,S,17443.41765,E,034407.00,A,A*64
$AADPT,1.81,0.00*48
$AADBT,5.9,f,1.81,M,0.9,F*2C
$AADBS,5.9,f,1.81,M,0.9,F*2B
$AAMTW,21.7,C*17
$AAXDR,C,21.7,C,ENV_SEA_T*0A
$AAMDA,,I,,B,,C,21.7,C,,,,C,,T,,M,,N,,M*00
$AADPT,1.81,0.00*48
$GNZDA,034407.00,02,02,2018,00,00*77
$GNRMC,034408.00,A,3651.91019,S,17443.41774,E,0.684,31.70,020218,,,A*55
$GNVTG,31.70,T,,M,0.684,N,1.266,K,A*1F
$GNGGA,034408.00,3651.91019,S,17443.41774,E,1,12,0.65,13.3,M,28.1,M,,*6B
$GNGSA,A,3,29,05,25,12,15,13,20,02,,,,,1.23,0.65,1.04*16
$AADPT,1.81,0.00*48
$AADBT,5.9,f,1.81,M,0.9,F*2C
$AADBS,5.9,f,1.81,M,0.9,F*2B
$AAMTW,21.7,C*17
$AAXDR,C,21.7,C,ENV_SEA_T*0A
$AAMDA,,I,,B,,C,21.7,C,,,,C,,T,,M,,N,,M*00
$AADPT,1.81,0.00*48
$GNGSA,A,3,68,69,85,83,84,75,70,,,,,,1.23,0.65,1.04*14
$GPGSV,3,1,12,02,34,105,38,04,,,32,05,66,133,42,06,03,094,11*4D
$GPGSV,3,2,12,12,21,341,38,13,27,044,37,15,20,010,33,20,53,306,38*78
$GPGSV,3,3,12,21,09,259,21,25,35,298,36,26,03,213,,29,60,223,41*76
$GLGSV,3,1,10,68,22,148,33,69,71,112,31,70,40,348,39,74,00,301,*6B
$GLGSV,3,2,10,75,09,253,32,76,04,209,15,83,22,072,37,84,63,136,28*6C
$GLGSV,3,3,10,85,32,215,32,,,,34*58
$GNGLL,3651.91019,S,17443.41774,E,034408.00,A,A*64
$AADPT,1.81,0.00*48
$AADBT,5.9,f,1.81,M,0.9,F*2C
$AADBS,5.9,f,1.81,M,0.9,F*2B
$AAMTW,21.7,C*17
$AAXDR,C,21.7,C,ENV_SEA_T*0A
$AAMDA,,I,,B,,C,21.7,C,,,,C,,T,,M,,N,,M*00
$AADPT,1.81,0.00*48
$GNZDA,034408.00,02,02,2018,00,00*78
$GNRMC,034409.00,A,3651.91005,S,17443.41783,E,0.588,29.83,020218,,,A*5B
$GNVTG,29.83,T,,M,0.588,N,1.089,K,A*16
$GNGGA,034409.00,3651.91005,S,17443.41783,E,1,12,0.65,13.2,M,28.1,M,,*6E
$GNGSA,A,3,29,05,25,12,15,13,20,02,,,,,1.23,0.65,1.04*16
$AADPT,1.87,0.00*4E
$AADBT,6.1,f,1.87,M,1.0,F*29
$AADBS,6.1,f,1.87,M,1.0,F*2E
$AAMTW,21.7,C*17
$AAXDR,C,21.7,C,ENV_SEA_T*0A
$AAMDA,,I,,B,,C,21.7,C,,,,C,,T,,M,,N,,M*00
$AADPT,1.87,0.00*4E
$GNGSA,A,3,68,69,85,83,84,75,70,,,,,,1.23,0.65,1.04*14
$GPGSV,3,1,12,02,34,105,38,04,,,32,05,66,133,42,06,03,094,12*4E
$GPGSV,3,2,12,12,21,341,34,13,27,044,37,15,20,010,33,20,53,306,38*74
$GPGSV,3,3,12,21,09,259,20,25,35,298,38,26,03,213,,29,60,223,42*7A
$GLGSV,3,1,09,68,22,148,33,69,71,112,30,70,40,348,40,74,00,301,*6C
$GLGSV,3,2,09,75,09,253,31,76,04,209,13,83,22,072,36,84,63,136,27*6F
$GLGSV,3,3,09,85,32,215,32*57
$AADPT,1.87,0.00*4E
$AADBT,6.1,f,1.87,M,1.0,F*29
$AADBS,6.1,f,1.87,M,1.0,F*2E
$AAMTW,21.7,C*17
$AAXDR,C,21.7,C,ENV_SEA_T*0A
$AAMDA,,I,,B,,C,21.7,C,,,,C,,T,,M,,N,,M*00
$AADPT,1.87,0.00*4E
$GNGLL,3651.91005,S,17443.41783,E,034409.00,A,A*60
$GNZDA,034409.00,02,02,2018,00,00*79
$GNRMC,034410.00,A,3651.90994,S,17443.41789,E,0.391,,020218,,,A*79
$GNVTG,,T,,M,0.391,N,0.724,K,A*37
$GNGGA,034410.00,3651.90994,S,17443.41789,E,1,12,0.65,13.2,M,28.1,M,,*6C
$AADPT,1.31,0.00*43
$GNGSA,A,3,29,05,25,12,15,13,20,02,,,,,1.23,0.65,1.04*16
$AADBT,4.2,f,1.31,M,0.7,F*23
$GNGSA,A,3,68,69,85,83,84,75,70,,,,,,1.23,0.65,1.04*14
$AADBS,4.2,f,1.31,M,0.7,F*24
$AAMTW,21.7,C*17
$AAXDR,C,21.7,C,ENV_SEA_T*0A
$AAMDA,,I,,B,,C,21.7,C,,,,C,,T,,M,,N,,M*00
$AADPT,1.31,0.00*43
$GPGSV,3,1,12,02,34,105,36,04,,,32,05,66,133,42,06,03,094,11*43
$GPGSV,3,2,12,12,21,341,33,13,27,044,36,15,20,010,32,20,53,306,38*73
$GPGSV,3,3,12,21,09,259,,25,35,298,39,26,03,213,,29,60,223,41*7A
$GLGSV,3,1,09,68,22,148,33,69,71,112,28,70,40,348,40,74,00,301,*65
$GLGSV,3,2,09,75,09,253,29,76,04,209,13,83,22,072,36,84,63,136,26*67
$GLGSV,3,3,09,85,32,215,32*57
$AADPT,1.31,0.00*43
$AADBT,4.2,f,1.31,M,0.7,F*23
$AADBS,4.2,f,1.31,M,0.7,F*24
$AAMTW,21.7,C*17
$AAXDR,C,21.7,C,ENV_SEA_T*0A
$AAMDA,,I,,B,,C,21.7,C,,,,C,,T,,M,,N,,M*00
$AADPT,1.31,0.00*43
$GNGLL,3651.90994,S,17443.41789,E,034410.00,A,A*62
$GNZDA,034410.00,02,02,2018,00,00*71
$GNRMC,034411.00,A,3651.90985,S,17443.41797,E,0.285,,020218,,,A*73
$GNVTG,,T,,M,0.285,N,0.529,K,A*3C
$GNGGA,034411.00,3651.90985,S,17443.41797,E,1,12,0.65,13.2,M,28.1,M,,*62
$AADPT,1.78,0.00*4E
$GNGSA,A,3,29,05,25,12,15,13,20,02,,,,,1.23,0.65,1.04*16
$AADBT,5.8,f,1.78,M,0.9,F*2B
$GNGSA,A,3,68,69,85,83,84,75,70,,,,,,1.23,0.65,1.04*14
$AADBS,5.8,f,1.78,M,0.9,F*2C
$AAMTW,21.7,C*17
$AAXDR,C,21.7,C,ENV_SEA_T*0A
$AAMDA,,I,,B,,C,21.7,C,,,,C,,T,,M,,N,,M*00
$AADPT,1.78,0.00*4E
$GPGSV,3,1,12,02,34,105,34,04,,,30,05,66,133,41,06,03,094,07*47
$GPGSV,3,2,12,12,21,341,32,13,27,044,34,15,20,010,30,20,53,306,36*7C
$GPGSV,3,3,12,21,09,259,,25,35,298,37,26,03,213,,29,60,223,39*7B
$GLGSV,3,1,09,68,22,148,36,69,71,112,31,70,40,348,41,74,00,301,*69
$GLGSV,3,2,09,75,09,253,27,76,04,209,18,83,22,072,39,84,63,136,31*6B
$GLGSV,3,3,09,85,32,215,33*56
$AADPT,1.78,0.00*4E
$AADBT,5.8,f,1.78,M,0.9,F*2B
$AADBS,5.8,f,1.78,M,0.9,F*2C
$AAMTW,21.7,C*17
$AAXDR,C,21.7,C,ENV_SEA_T*0A
$AAMDA,,I,,B,,C,21.7,C,,,,C,,T,,M,,N,,M*00
$AADPT,1.78,0.00*4E
$GNGLL,3651.90985,S,17443.41797,E,034411.00,A,A*6C
$GNZDA,034411.00,02,02,2018,00,00*70
$GNRMC,034412.00,A,3651.90972,S,17443.41804,E,0.409,21.11,020218,,,A*52
$GNVTG,21.11,T,,M,0.409,N,0.758,K,A*17
$GNGGA,034412.00,3651.90972,S,17443.41804,E,1,12,0.65,13.2,M,28.1,M,,*6C
$AADPT,1.83,0.00*4A
$AADBT,6.0,f,1.83,M,1.0,F*2C
$AADBS,6.0,f,1.83,M,1.0,F*2B
$AAMTW,21.7,C*17
$GNGSA,A,3,29,05,25,12,15,13,20,02,,,,,1.23,0.65,1.04*16
$AAXDR,C,21.7,C,ENV_SEA_T*0A
$AAMDA,,I,,B,,C,21.7,C,,,,C,,T,,M,,N,,M*00
$AADPT,1.83,0.00*4A
$GNGSA,A,3,68,69,85,83,84,75,70,,,,,,1.23,0.65,1.04*14
$GPGSV,3,1,12,02,34,105,34,04,,,30,05,66,133,41,06,03,094,10*41
$GPGSV,3,2,12,12,21,341,32,13,27,044,34,15,20,010,31,20,53,306,36*7D
$GPGSV,3,3,12,21,09,259,,25,35,298,38,26,03,213,,29,60,223,40*7A
$GLGSV,3,1,10,68,22,148,36,69,71,114,30,70,40,348,41,74,00,301,*66
$GLGSV,3,2,10,75,09,253,31,76,04,209,15,83,22,072,40,84,63,136,30*66
$GLGSV,3,3,10,85,32,215,34,,,,35*5F
$AADPT,1.83,0.00*4A
$AADBT,6.0,f,1.83,M,1.0,F*2C
$AADBS,6.0,f,1.83,M,1.0,F*2B
$AAMTW,21.7,C*17
$AAXDR,C,21.7,C,ENV_SEA_T*0A
$AAMDA,,I,,B,,C,21.7,C,,,,C,,T,,M,,N,,M*00
$AADPT,1.83,0.00*4A
$GNGLL,3651.90972,S,17443.41804,E,034412.00,A,A*62
$GNZDA,034412.00,02,02,2018,00,00*73
$GNRMC,034413.00,A,3651.90957,S,17443.41810,E,0.398,15.77,020218,,,A*59
$GNVTG,15.77,T,,M,0.398,N,0.736,K,A*17
$GNGGA,034413.00,3651.90957,S,17443.41810,E,1,12,0.65,13.4,M,28.1,M,,*69
$AADPT,1.83,0.00*4A
$AADBT,6.0,f,1.83,M,1.0,F*2C
$AADBS,6.0,f,1.83,M,1.0,F*2B
$AAMTW,21.7,C*17
$AAXDR,C,21.7,C,ENV_SEA_T*0A
$AAMDA,,I,,B,,C,21.7,C,,,,C,,T,,M,,N,,M*00
$GNGSA,A,3,29,05,25,12,15,13,20,02,,,,,1.23,0.65,1.04*16
$AADPT,1.83,0.00*4A
$GNGSA,A,3,68,69,85,83,84,75,70,,,,,,1.23,0.65,1.04*14
$GPGSV,3,1,12,02,34,105,34,04,,,31,05,66,133,41,06,03,094,08*49
$GPGSV,3,2,12,12,21,341,32,13,27,044,35,15,20,010,30,20,53,306,36*7D
$GPGSV,3,3,12,21,09,259,,25,35,298,37,26,03,213,,29,60,223,40*75
$GLGSV,3,1,10,68,22,148,37,69,71,114,30,70,41,347,41,74,00,301,*69
$GLGSV,3,2,10,75,09,253,24,76,04,209,17,83,22,072,41,84,63,136,31*60
$GLGSV,3,3,10,85,32,215,34,,,,37*5D
$GNGLL,3651.90957,S,17443.41810,E,034413.00,A,A*61
$AADPT,1.83,0.00*4A
$AADBT,6.0,f,1.83,M,1.0,F*2C
$AADBS,6.0,f,1.83,M,1.0,F*2B
$AAMTW,21.7,C*17
$AAXDR,C,21.7,C,ENV_SEA_T*0A
$AAMDA,,I,,B,,C,21.7,C,,,,C,,T,,M,,N,,M*00
$AADPT,1.83,0.00*4A
$GNZDA,034413.00,02,02,2018,00,00*72
$GNRMC,034414.00,A,3651.90945,S,17443.41815,E,0.411,,020218,,,A*74
$GNVTG,,T,,M,0.411,N,0.761,K,A*39
$GNGGA,034414.00,3651.90945,S,17443.41815,E,1,12,0.73,13.4,M,28.1,M,,*6F
$AADPT,1.83,0.00*4A
$AADBT,6.0,f,1.83,M,1.0,F*2C
$AADBS,6.0,f,1.83,M,1.0,F*2B
$AAMTW,21.7,C*17
$GNGSA,A,3,29,05,25,12,15,13,20,02,,,,,1.44,0.73,1.24*12
$GNGSA,A,3,68,69,85,83,84,75,70,,,,,,1.44,0.73,1.24*10
$AAXDR,C,21.7,C,ENV_SEA_T*0A
$AAMDA,,I,,B,,C,21.7,C,,,,C,,T,,M,,N,,M*00
$AADPT,1.83,0.00*4A
$GPGSV,3,1,12,02,34,105,34,04,,,32,05,66,133,42,06,03,094,09*48
$GPGSV,3,2,12,12,21,341,32,13,27,044,36,15,20,010,31,20,53,306,37*7E
$GPGSV,3,3,12,21,09,259,,25,35,298,37,26,03,213,,29,60,223,40*75
$GLGSV,3,1,10,68,22,148,36,69,71,114,29,70,41,347,41,74,00,301,*60
$GLGSV,3,2,10,75,09,253,30,76,04,209,17,83,22,072,39,84,63,136,26*6C
$GLGSV,3,3,10,85,32,215,34,,,,35*5F
$AADPT,1.83,0.00*4A
$AADBT,6.0,f,1.83,M,1.0,F*2C
$AADBS,6.0,f,1.83,M,1.0,F*2B
$AAMTW,21.7,C*17
$AAXDR,C,21.7,C,ENV_SEA_T*0A
$AAMDA,,I,,B,,C,21.7,C,,,,C,,T,,M,,N,,M*00
$AADPT,1.83,0.00*4A
$GNGLL,3651.90945,S,17443.41815,E,034414.00,A,A*60
$GNZDA,034414.00,02,02,2018,00,00*75
$GNRMC,034415.00,A,3651.90934,S,17443.41816,E,0.378,,020218,,,A*78
$GNVTG,,T,,M,0.378,N,0.700,K,A*36
$GNGGA,034415.00,3651.90934,S,17443.41816,E,1,12,0.73,13.4,M,28.1,M,,*6B
$AADPT,1.78,0.00*4E
$AADBT,5.8,f,1.78,M,0.9,F*2B
$AADBS,5.8,f,1.78,M,0.9,F*2C
$GNGSA,A,3,29,05,25,12,15,13,20,02,,,,,1.44,0.73,1.24*12
$AAMTW,21.7,C*17
$GNGSA,A,3,68,69,85,83,84,75,70,,,,,,1.44,0.73,1.24*10
$AAXDR,C,21.7,C,ENV_SEA_T*0A
$AAMDA,,I,,B,,C,21.7,C,,,,C,,T,,M,,N,,M*00
$AADPT,1.78,0.00*4E
$GPGSV,3,1,12,02,34,105,34,04,,,32,05,66,133,41,06,03,094,08*4A
$GPGSV,3,2,12,12,21,341,32,13,27,044,35,15,20,010,31,20,53,306,37*7D
$GPGSV,3,3,12,21,09,259,,25,35,298,38,26,03,213,,29,60,223,40*7A
$GLGSV,3,1,10,68,22,148,37,69,71,114,30,70,41,347,41,74,00,301,*69
$GLGSV,3,2,10,75,09,253,25,76,04,209,17,83,22,072,39,84,63,136,33*6C
$GLGSV,3,3,10,85,32,215,36,,,,38*50
$AADPT,1.78,0.00*4E
$AADBT,5.8,f,1.78,M,0.9,F*2B
$AADBS,5.8,f,1.78,M,0.9,F*2C
$AAMTW,21.7,C*17
$AAXDR,C,21.7,C,ENV_SEA_T*0A
$AAMDA,,I,,B,,C,21.7,C,,,,C,,T,,M,,N,,M*00
$AADPT,1.78,0.00*4E
$GNGLL,3651.90934,S,17443.41816,E,034415.00,A,A*64
$GNZDA,034415.00,02,02,2018,00,00*74
$GNRMC,034416.00,A,3651.90923,S,17443.41818,E,0.438,9.91,020218,,,A*6F
$GNVTG,9.91,T,,M,0.438,N,0.812,K,A*26
$GNGGA,034416.00,3651.90923,S,17443.41818,E,1,12,0.73,13.4,M,28.1,M,,*60
$AADPT,1.83,0.00*4A
$AADBT,6.0,f,1.83,M,1.0,F*2C
$AADBS,6.0,f,1.83,M,1.0,F*2B
$AAMTW,21.7,C*17
$AAXDR,C,21.7,C,ENV_SEA_T*0A
$GNGSA,A,3,29,05,25,12,15,13,20,02,,,,,1.44,0.73,1.24*12
$GNGSA,A,3,68,69,85,83,84,75,70,,,,,,1.44,0.73,1.24*10
$AAMDA,,I,,B,,C,21.7,C,,,,C,,T,,M,,N,,M*00
$AADPT,1.83,0.00*4A
$GPGSV,3,1,12,02,34,105,34,04,,,33,05,66,133,42,06,03,094,10*41
$GPGSV,3,2,12,12,21,341,28,13,27,044,34,15,20,010,31,20,53,306,38*78
$GPGSV,3,3,12,21,09,259,,25,35,298,38,26,03,213,,29,60,223,41*7B
$GLGSV,3,1,10,68,22,148,37,69,71,114,30,70,41,347,41,74,00,301,*69
$GLGSV,3,2,10,75,09,253,24,76,04,209,15,83,22,072,40,84,63,136,30*62
$GLGSV,3,3,10,85,32,215,33,,,,35*58
$AADPT,1.83,0.00*4A
$AADBT,6.0,f,1.83,M,1.0,F*2C
$AADBS,6.0,f,1.83,M,1.0,F*2B
$AAMTW,21.7,C*17
$AAXDR,C,21.7,C,ENV_SEA_T*0A
$AAMDA,,I,,B,,C,21.7,C,,,,C,,T,,M,,N,,M*00
$AADPT,1.83,0.00*4A
$GNGLL,3651.90923,S,17443.41818,E,034416.00,A,A*6F
$GNZDA,034416.00,02,02,2018,00,00*77
$GNRMC,034417.00,A,3651.90911,S,17443.41824,E,0.481,14.58,020218,,,A*5B
$GNVTG,14.58,T,,M,0.481,N,0.891,K,A*16
$GNGGA,034417.00,3651.90911,S,17443.41824,E,1,12,0.73,13.4,M,28.1,M,,*6F
$AADPT,1.78,0.00*4E
$AADBT,5.8,f,1.78,M,0.9,F*2B
$AADBS,5.8,f,1.78,M,0.9,F*2C
$AAMTW,21.7,C*17
$AAXDR,C,21.7,C,ENV_SEA_T*0A
$AAMDA,,I,,B,,C,21.7,C,,,,C,,T,,M,,N,,M*00
$AADPT,1.78,0.00*4E
$GNGSA,A,3,29,05,25,12,15,13,20,02,,,,,1.44,0.73,1.24*12
$GNGSA,A,3,68,69,85,83,84,75,70,,,,,,1.44,0.73,1.24*10
$GPGSV,3,1,12,02,34,105,34,04,,,34,05,66,133,42,06,03,094,11*47
$GPGSV,3,2,12,12,21,341,32,13,27,044,34,15,20,010,30,20,53,306,37*7D
$GPGSV,3,3,12,21,09,259,,25,35,298,38,26,03,213,,29,60,223,41*7B
$GLGSV,3,1,10,68,22,148,36,69,71,114,30,70,41,347,42,74,00,301,*6B
$GLGSV,3,2,10,75,09,253,23,76,04,209,09,83,22,072,40,84,63,136,31*69
$AADPT,1.78,0.00*4E
$GLGSV,3,3,10,85,32,215,34,,,,35*5F
$GNGLL,3651.90911,S,17443.41824,E,034417.00,A,A*60
$AADBT,5.8,f,1.78,M,0.9,F*2B
$AADBS,5.8,f,1.78,M,0.9,F*2C
$AAMTW,21.7,C*17
$AAXDR,C,21.7,C,ENV_SEA_T*0A
$AAMDA,,I,,B,,C,21.7,C,,,,C,,T,,M,,N,,M*00
$AADPT,1.78,0.00*4E
$GNZDA,034417.00,02,02,2018,00,00*76
$GNRMC,034418.00,A,3651.90902,S,17443.41831,E,0.364,,020218,,,A*78
$GNVTG,,T,,M,0.364,N,0.673,K,A*3E
$GNGGA,034418.00,3651.90902,S,17443.41831,E,1,12,0.73,13.4,M,28.1,M,,*66
$AADPT,1.81,0.00*48
$AADBT,5.9,f,1.81,M,0.9,F*2C
$AADBS,5.9,f,1.81,M,0.9,F*2B
$AAMTW,21.7,C*17
$AAXDR,C,21.7,C,ENV_SEA_T*0A
$AAMDA,,I,,B,,C,21.7,C,,,,C,,T,,M,,N,,M*00
$AADPT,1.81,0.00*48
$GNGSA,A,3,29,05,25,12,15,13,20,02,,,,,1.44,0.73,1.24*12
$GNGSA,A,3,68,69,85,83,84,75,70,,,,,,1.44,0.73,1.24*10
$GPGSV,3,1,12,02,34,105,35,04,,,33,05,66,133,41,06,03,094,07*45
$GPGSV,3,2,12,12,21,341,34,13,27,044,34,15,20,010,29,20,53,306,37*73
$GPGSV,3,3,12,21,09,259,,25,35,298,38,26,03,213,,29,60,223,42*78
$GLGSV,3,1,10,68,22,148,36,69,71,114,30,70,41,347,42,74,00,301,*6B
$GLGSV,3,2,10,75,09,254,23,76,04,209,17,83,22,072,40,84,63,136,30*60
$GLGSV,3,3,10,85,32,215,34,,,,36*5C
$AADPT,1.81,0.00*48
$AADBT,5.9,f,1.81,M,0.9,F*2C
$AADBS,5.9,f,1.81,M,0.9,F*2B
$AAMTW,21.7,C*17
$AAXDR,C,21.7,C,ENV_SEA_T*0A
$AAMDA,,I,,B,,C,21.7,C,,,,C,,T,,M,,N,,M*00
$AADPT,1.81,0.00*48
$GNGLL,3651.90902,S,17443.41831,E,034418.00,A,A*69
$GNZDA,034418.00,02,02,2018,00,00*79
$GNRMC,034419.00,A,3651.90891,S,17443.41840,E,0.451,20.60,020218,,,A*5F
$GNVTG,20.60,T,,M,0.451,N,0.835,K,A*19
$GNGGA,034419.00,3651.90891,S,17443.41840,E,1,12,0.65,13.4,M,28.1,M,,*6D
$AADPT,1.83,0.00*4A
$AADBT,6.0,f,1.83,M,1.0,F*2C
$AADBS,6.0,f,1.83,M,1.0,F*2B
$AAMTW,21.7,C*17
$AAXDR,C,21.7,C,ENV_SEA_T*0A
$AAMDA,,I,,B,,C,21.7,C,,,,C,,T,,M,,N,,M*00
$AADPT,1.83,0.00*4A
$GNGSA,A,3,29,05,25,12,15,13,20,02,,,,,1.23,0.65,1.04*16
$GNGSA,A,3,68,69,85,83,84,75,70,,,,,,1.23,0.65,1.04*14
$GPGSV,3,1,12,02,34,105,35,04,,,33,05,66,133,42,06,03,094,10*40
$GPGSV,3,2,12,12,21,341,34,13,27,044,35,15,20,010,31,20,53,306,37*7B
$GPGSV,3,3,12,21,09,259,,25,35,298,38,26,03,213,,29,60,223,41*7B
$GLGSV,3,1,10,68,22,148,36,69,71,114,30,70,41,347,41,74,00,301,*68
$GLGSV,3,2,10,75,09,254,25,76,04,209,18,83,22,072,40,84,63,136,30*69
$AADPT,1.83,0.00*4A
$GLGSV,3,3,10,85,32,215,36,,,,35*5D
$AADBT,6.0,f,1.83,M,1.0,F*2C
$GNGLL,3651.90891,S,17443.41840,E,034419.00,A,A*65
$AADBS,6.0,f,1.83,M,1.0,F*2B
$AAMTW,21.7,C*17
$AAXDR,C,21.7,C,ENV_SEA_T*0A
$AAMDA,,I,,B,,C,21.7,C,,,,C,,T,,M,,N,,M*00
$AADPT,1.83,0.00*4A
$GNZDA,034419.00,02,02,2018,00,00*78
$GNRMC,034420.00,A,3651.90884,S,17443.41846,E,0.389,21.59,020218,,,A*5E
$GNVTG,21.59,T,,M,0.389,N,0.721,K,A*1A
$GNGGA,034420.00,3651.90884,S,17443.41846,E,1,12,0.73,13.3,M,28.1,M,,*65
$AADPT,1.78,0.00*4E
$AADBT,5.8,f,1.78,M,0.9,F*2B
$AADBS,5.8,f,1.78,M,0.9,F*2C
$AAMTW,21.7,C*17
$AAXDR,C,21.7,C,ENV_SEA_T*0A
$AAMDA,,I,,B,,C,21.7,C,,,,C,,T,,M,,N,,M*00
$AADPT,1.78,0.00*4E
$GNGSA,A,3,29,05,25,12,15,13,20,02,,,,,1.44,0.73,1.24*12
$GNGSA,A,3,68,69,85,83,84,75,70,,,,,,1.44,0.73,1.24*10
$GPGSV,3,1,12,02,34,105,33,04,,,34,05,66,133,42,06,03,094,08*48
$GPGSV,3,2,12,12,21,341,34,13,27,044,35,15,20,010,31,20,53,306,37*7B
$GPGSV,3,3,12,21,09,259,,25,35,298,38,26,03,213,,29,60,223,41*7B
$GLGSV,3,1,10,68,22,148,34,69,71,114,29,70,41,347,42,74,00,301,*61
$GLGSV,3,2,10,75,09,254,24,76,04,209,17,83,22,072,39,84,63,136,33*6A
$GLGSV,3,3,10,85,32,215,34,,,,36*5C
$AADPT,1.78,0.00*4E
$AADBT,5.8,f,1.78,M,0.9,F*2B
$AADBS,5.8,f,1.78,M,0.9,F*2C
$AAMTW,21.7,C*17
$AAXDR,C,21.7,C,ENV_SEA_T*0A
$AAMDA,,I,,B,,C,21.7,C,,,,C,,T,,M,,N,,M*00
$AADPT,1.78,0.00*4E
$GNGLL,3651.90884,S,17443.41846,E,034420.00,A,A*6D
$GNZDA,034420.00,02,02,2018,00,00*72
$GNRMC,034421.00,A,3651.90875,S,17443.41853,E,0.425,23.38,020218,,,A*51
$GNVTG,23.38,T,,M,0.425,N,0.787,K,A*12
$GNGGA,034421.00,3651.90875,S,17443.41853,E,1,12,0.73,13.4,M,28.1,M,,*69
$AADPT,1.81,0.00*48
$AADBT,5.9,f,1.81,M,0.9,F*2C
$AADBS,5.9,f,1.81,M,0.9,F*2B
$AAMTW,21.7,C*17
$AAXDR,C,21.7,C,ENV_SEA_T*0A
$AAMDA,,I,,B,,C,21.7,C,,,,C,,T,,M,,N,,M*00
$AADPT,1.81,0.00*48
$GNGSA,A,3,29,05,25,12,15,13,20,02,,,,,1.44,0.73,1.24*12
$GNGSA,A,3,68,69,85,83,84,75,70,,,,,,1.44,0.73,1.24*10
$GPGSV,3,1,12,02,34,105,34,04,,,34,05,66,133,42,06,03,094,13*45
$GPGSV,3,2,12,12,21,341,33,13,27,044,35,15,20,010,31,20,53,306,38*73
$GPGSV,3,3,12,21,09,259,,25,35,298,38,26,03,213,,29,60,223,41*7B
$GLGSV,3,1,10,68,22,148,36,69,71,114,29,70,41,347,42,74,00,301,*63
$AADPT,1.81,0.00*48
$AADBT,5.9,f,1.81,M,0.9,F*2C
$GLGSV,3,2,10,75,09,254,22,76,04,209,16,83,22,072,38,84,63,136,29*67
$GLGSV,3,3,10,85,32,215,34,,,,35*5F
$AADBS,5.9,f,1.81,M,0.9,F*2B
$GNGLL,3651.90875,S,17443.41853,E,034421.00,A,A*66
$AAMTW,21.7,C*17
$AAXDR,C,21.7,C,ENV_SEA_T*0A
$AAMDA,,I,,B,,C,21.7,C,,,,C,,T,,M,,N,,M*00
$AADPT,1.81,0.00*48
$GNZDA,034421.00,02,02,2018,00,00*73
$GNRMC,034422.00,A,3651.90870,S,17443.41860,E,0.247,,020218,,,A*71
$GNVTG,,T,,M,0.247,N,0.457,K,A*3A
$GNGGA,034422.00,3651.90870,S,17443.41860,E,1,12,0.73,13.4,M,28.1,M,,*6F
$AADPT,1.81,0.00*48
$AADBT,5.9,f,1.81,M,0.9,F*2C
$AADBS,5.9,f,1.81,M,0.9,F*2B
$AAMTW,21.7,C*17
$AAXDR,C,21.7,C,ENV_SEA_T*0A
$AAMDA,,I,,B,,C,21.7,C,,,,C,,T,,M,,N,,M*00
$AADPT,1.81,0.00*48
$GNGSA,A,3,29,05,25,12,15,13,20,02,,,,,1.44,0.73,1.24*12
$GNGSA,A,3,68,69,85,83,84,75,70,,,,,,1.44,0.73,1.24*10
$GPGSV,3,1,12,02,34,105,34,04,,,34,05,66,133,42,06,03,094,09*4E
$GPGSV,3,2,12,12,21,341,32,13,27,044,34,15,20,010,30,20,53,306,37*7D
$GPGSV,3,3,12,21,09,259,20,25,35,298,38,26,03,213,,29,60,223,41*79
$GLGSV,3,1,10,68,22,148,36,69,71,114,29,70,41,347,40,74,00,301,*61
$GLGSV,3,2,10,75,09,254,23,76,04,209,11,83,22,072,38,84,63,136,30*69
$GLGSV,3,3,10,85,32,215,31,,,,35*5A
$AADPT,1.81,0.00*48
$AADBT,5.9,f,1.81,M,0.9,F*2C
$AADBS,5.9,f,1.81,M,0.9,F*2B
$AAMTW,21.7,C*17
$AAXDR,C,21.7,C,ENV_SEA_T*0A
$AAMDA,,I,,B,,C,21.7,C,,,,C,,T,,M,,N,,M*00
$AADPT,1.81,0.00*48
$GNGLL,3651.90870,S,17443.41860,E,034422.00,A,A*60
$GNZDA,034422.00,02,02,2018,00,00*70
$GNRMC,034423.00,A,3651.90862,S,17443.41869,E,0.433,29.13,020218,,,A*58
$GNVTG,29.13,T,,M,0.433,N,0.803,K,A*15
$GNGGA,034423.00,3651.90862,S,17443.41869,E,1,12,0.65,13.4,M,28.1,M,,*63
$AADPT,1.81,0.00*48
$AADBT,5.9,f,1.81,M,0.9,F*2C
$AADBS,5.9,f,1.81,M,0.9,F*2B
$AAMTW,21.7,C*17
$AAXDR,C,21.7,C,ENV_SEA_T*0A
$AAMDA,,I,,B,,C,21.7,C,,,,C,,T,,M,,N,,M*00
$AADPT,1.81,0.00*48
$GNGSA,A,3,29,05,25,12,15,13,20,02,,,,,1.22,0.65,1.04*17
$GNGSA,A,3,68,69,85,83,84,75,70,,,,,,1.22,0.65,1.04*15
$GPGSV,3,1,12,02,34,105,32,04,,,33,05,66,133,42,06,03,094,11*46
$GPGSV,3,2,12,12,21,341,34,13,27,044,34,15,20,010,24,20,53,306,38*71
$GPGSV,3,3,12,21,09,259,18,25,35,298,38,26,03,213,,29,60,223,41*72
$GLGSV,3,1,10,68,22,148,36,69,71,114,30,70,41,347,41,74,00,301,*68
$GLGSV,3,2,10,75,09,254,26,76,04,209,10,83,22,072,39,84,63,136,30*6C
$GLGSV,3,3,10,85,32,215,34,,,,34*5E
$AADPT,1.81,0.00*48
$AADBT,5.9,f,1.81,M,0.9,F*2C
$AADBS,5.9,f,1.81,M,0.9,F*2B
$AAMTW,21.7,C*17
$AAXDR,C,21.7,C,ENV_SEA_T*0A
$AAMDA,,I,,B,,C,21.7,C,,,,C,,T,,M,,N,,M*00
$AADPT,1.81,0.00*48
$GNGLL,3651.90862,S,17443.41869,E,034423.00,A,A*6B
$GNZDA,034423.00,02,02,2018,00,00*71
$GNRMC,034424.00,A,3651.90856,S,17443.41879,E,0.330,,020218,,,A*7A
$GNVTG,,T,,M,0.330,N,0.612,K,A*38
$GNGGA,034424.00,3651.90856,S,17443.41879,E,1,12,0.73,13.3,M,28.1,M,,*62
$AADPT,1.83,0.00*4A
$AADBT,6.0,f,1.83,M,1.0,F*2C
$AADBS,6.0,f,1.83,M,1.0,F*2B
$AAMTW,21.7,C*17
$AAXDR,C,21.7,C,ENV_SEA_T*0A
$AAMDA,,I,,B,,C,21.7,C,,,,C,,T,,M,,N,,M*00
$AADPT,1.83,0.00*4A
$GNGSA,A,3,29,05,25,12,15,13,20,02,,,,,1.44,0.73,1.24*12
$GNGSA,A,3,68,69,85,83,84,75,70,,,,,,1.44,0.73,1.24*10
$GPGSV,3,1,12,02,34,105,36,04,,,34,05,66,133,42,06,03,094,08*4D
$GPGSV,3,2,12,12,21,341,34,13,27,044,34,15,20,010,26,20,53,306,38*73
$GPGSV,3,3,12,21,09,259,18,25,35,298,38,26,03,213,,29,60,223,41*72
$GLGSV,3,1,10,68,22,148,36,69,71,114,30,70,41,347,41,74,00,301,*68
$AADPT,1.83,0.00*4A
$AADBT,6.0,f,1.83,M,1.0,F*2C
$GLGSV,3,2,10,75,09,254,26,76,04,209,14,83,22,072,40,84,63,136,29*6E
$GLGSV,3,3,10,85,32,215,31,,,,33*5C
$AADBS,6.0,f,1.83,M,1.0,F*2B
$AAMTW,21.7,C*17
$AAXDR,C,21.7,C,ENV_SEA_T*0A
$AAMDA,,I,,B,,C,21.7,C,,,,C,,T,,M,,N,,M*00
$AADPT,1.83,0.00*4A
$GNGLL,3651.90856,S,17443.41879,E,034424.00,A,A*6A
$GNZDA,034424.00,02,02,2018,00,00*76
$GNRMC,034425.00,A,3651.90847,S,17443.41891,E,0.393,35.00,020218,,,A*5C
$GNVTG,35.00,T,,M,0.393,N,0.728,K,A*11
$AADPT,1.81,0.00*48
$AADBT,5.9,f,1.81,M,0.9,F*2C
$GNGGA,034425.00,3651.90847,S,17443.41891,E,1,12,0.65,13.4,M,28.1,M,,*65
$AADBS,5.9,f,1.81,M,0.9,F*2B
$AAMTW,21.7,C*17
$AAXDR,C,21.7,C,ENV_SEA_T*0A
$AAMDA,,I,,B,,C,21.7,C,,,,C,,T,,M,,N,,M*00
$AADPT,1.81,0.00*48
$GNGSA,A,3,29,05,25,12,15,13,20,02,,,,,1.22,0.65,1.03*10
$GNGSA,A,3,68,69,85,83,84,75,70,,,,,,1.22,0.65,1.03*12
$GPGSV,3,1,12,02,34,105,35,04,,,33,05,66,133,42,06,03,094,09*48
$GPGSV,3,2,12,12,21,341,32,13,27,044,34,15,20,010,27,20,53,306,38*74
$GPGSV,3,3,12,21,09,259,18,25,35,298,36,26,03,213,,29,60,223,40*7D
$GLGSV,3,1,10,68,22,148,36,69,71,114,25,70,41,347,42,74,00,301,*6F
$AADPT,1.81,0.00*48
$AADBT,5.9,f,1.81,M,0.9,F*2C
$AADBS,5.9,f,1.81,M,0.9,F*2B
$AAMTW,21.7,C*17
$GLGSV,3,2,10,75,09,254,27,76,04,209,19,83,22,072,40,84,63,136,29*62
$AAXDR,C,21.7,C,ENV_SEA_T*0A
$GLGSV,3,3,10,85,32,215,32,,,,34*58
$GNGLL,3651.90847,S,17443.41891,E,034425.00,A,A*6D
$AAMDA,,I,,B,,C,21.7,C,,,,C,,T,,M,,N,,M*00
$AADPT,1.81,0.00*48
$GNZDA,034425.00,02,02,2018,00,00*77
$GNRMC,034426.00,A,3651.90839,S,17443.41901,E,0.297,,020218,,,A*73
$GNVTG,,T,,M,0.297,N,0.551,K,A*30
$AADPT,1.81,0.00*48
$GNGGA,034426.00,3651.90839,S,17443.41901,E,1,12,0.65,13.5,M,28.1,M,,*66
$AADBT,5.9,f,1.81,M,0.9,F*2C
$AADBS,5.9,f,1.81,M,0.9,F*2B
$AAMTW,21.7,C*17
$AAXDR,C,21.7,C,ENV_SEA_T*0A
$AAMDA,,I,,B,,C,21.7,C,,,,C,,T,,M,,N,,M*00
$AADPT,1.81,0.00*48
$GNGSA,A,3,29,05,25,12,15,13,20,02,,,,,1.22,0.65,1.03*10
$GNGSA,A,3,68,69,85,83,84,75,70,,,,,,1.22,0.65,1.03*12
$GPGSV,3,1,12,02,34,105,35,04,,,33,05,66,133,42,06,03,094,09*48
$GPGSV,3,2,12,12,21,341,31,13,27,044,33,15,20,010,28,20,53,306,37*70
$GPGSV,3,3,12,21,09,259,18,25,35,298,39,26,03,213,,29,60,223,40*72
$GLGSV,3,1,10,68,22,148,36,69,71,114,30,70,41,347,41,74,00,301,*68
$AADPT,1.81,0.00*48
$AADBT,5.9,f,1.81,M,0.9,F*2C
$GLGSV,3,2,10,75,09,254,26,76,04,209,14,83,22,071,39,84,63,136,33*68
$AADBS,5.9,f,1.81,M,0.9,F*2B
$GLGSV,3,3,10,85,32,215,33,,,,34*59
$AAMTW,21.7,C*17
$AAXDR,C,21.7,C,ENV_SEA_T*0A
$AAMDA,,I,,B,,C,21.7,C,,,,C,,T,,M,,N,,M*00
$AADPT,1.81,0.00*48
$GNGLL,3651.90839,S,17443.41901,E,034426.00,A,A*6F
$GNZDA,034426.00,02,02,2018,00,00*74
$GNRMC,034427.00,A,3651.90830,S,17443.41910,E,0.410,34.05,020218,,,A*5E
$GNVTG,34.05,T,,M,0.410,N,0.760,K,A*15
$AADPT,1.81,0.00*48
$AADBT,5.9,f,1.81,M,0.9,F*2C
$AADBS,5.9,f,1.81,M,0.9,F*2B
$GNGGA,034427.00,3651.90830,S,17443.41910,E,1,12,0.65,13.5,M,28.1,M,,*6E
$AAMTW,21.7,C*17
$AAXDR,C,21.7,C,ENV_SEA_T*0A
$AAMDA,,I,,B,,C,21.7,C,,,,C,,T,,M,,N,,M*00
$AADPT,1.81,0.00*48
$GNGSA,A,3,29,05,25,12,15,13,20,02,,,,,1.22,0.65,1.03*10
$GNGSA,A,3,68,69,85,83,84,75,70,,,,,,1.22,0.65,1.03*12
$GPGSV,3,1,12,02,34,105,34,04,,,33,05,66,133,42,06,03,094,11*40
$GPGSV,3,2,12,12,21,341,32,13,27,044,33,15,20,010,28,20,53,306,37*73
$GPGSV,3,3,12,21,09,259,18,25,35,298,38,26,03,213,,29,60,223,42*71
$GLGSV,3,1,10,68,22,148,36,69,71,114,29,70,41,347,43,74,00,301,*62
$GLGSV,3,2,10,75,09,254,26,76,04,209,11,83,22,071,39,84,63,135,30*6D
$AADPT,1.81,0.00*48
$AADBT,5.9,f,1.81,M,0.9,F*2C
$AADBS,5.9,f,1.81,M,0.9,F*2B
$AAMTW,21.7,C*17
$AAXDR,C,21.7,C,ENV_SEA_T*0A
$GLGSV,3,3,10,85,32,215,34,,,,35*5F
$GNGLL,3651.90830,S,17443.41910,E,034427.00,A,A*67
$AAMDA,,I,,B,,C,21.7,C,,,,C,,T,,M,,N,,M*00
$AADPT,1.81,0.00*48
$GNZDA,034427.00,02,02,2018,00,00*75
$GNRMC,034428.00,A,3651.90822,S,17443.41918,E,0.207,,020218,,,A*76
$GNVTG,,T,,M,0.207,N,0.383,K,A*30
$AADPT,1.81,0.00*48
$AADBT,5.9,f,1.81,M,0.9,F*2C
$AADBS,5.9,f,1.81,M,0.9,F*2B
$AAMTW,21.7,C*17
$AAXDR,C,21.7,C,ENV_SEA_T*0A
$AAMDA,,I,,B,,C,21.7,C,,,,C,,T,,M,,N,,M*00
$AADPT,1.81,0.00*48
$GNGGA,034428.00,3651.90822,S,17443.41918,E,1,12,0.65,13.7,M,28.1,M,,*68
$GNGSA,A,3,29,05,25,12,15,13,20,02,,,,,1.22,0.65,1.03*10
$GNGSA,A,3,68,69,85,83,84,75,70,,,,,,1.22,0.65,1.03*12
$GPGSV,3,1,12,02,34,105,37,04,,,33,05,66,133,42,06,03,094,07*44
$GPGSV,3,2,12,12,21,341,35,13,27,044,34,15,20,010,27,20,53,306,37*7C
$GPGSV,3,3,12,21,09,259,18,25,35,298,38,26,03,213,,29,60,223,42*71
$GLGSV,3,1,10,68,22,148,36,69,71,114,29,70,41,347,41,74,00,301,*60
$GLGSV,3,2,10,75,09,254,27,76,04,209,12,83,22,071,39,84,63,135,30*6F
$GLGSV,3,3,10,85,32,215,33,,,,34*59
$AADPT,1.81,0.00*48
$AADBT,5.9,f,1.81,M,0.9,F*2C
$AADBS,5.9,f,1.81,M,0.9,F*2B
$AAMTW,21.7,C*17
$AAXDR,C,21.7,C,ENV_SEA_T*0A
$AAMDA,,I,,B,,C,21.7,C,,,,C,,T,,M,,N,,M*00
$AADPT,1.81,0.00*48
$GNGLL,3651.90822,S,17443.41918,E,034428.00,A,A*63
$GNZDA,034428.00,02,02,2018,00,00*7A
$GNRMC,034429.00,A,3651.90817,S,17443.41924,E,0.268,,020218,,,A*77
$GNVTG,,T,,M,0.268,N,0.496,K,A*3A
$GNGGA,034429.00,3651.90817,S,17443.41924,E,1,12,0.73,13.7,M,28.1,M,,*67
$AADPT,1.83,0.00*4A
$AADBT,6.0,f,1.83,M,1.0,F*2C
$AADBS,6.0,f,1.83,M,1.0,F*2B
$AAMTW,21.7,C*17
$AAXDR,C,21.7,C,ENV_SEA_T*0A
$AAMDA,,I,,B,,C,21.7,C,,,,C,,T,,M,,N,,M*00
$AADPT,1.83,0.00*4A
$GNGSA,A,3,29,05,25,12,15,13,20,02,,,,,1.44,0.73,1.24*12
$GNGSA,A,3,68,69,85,83,84,75,70,,,,,,1.44,0.73,1.24*10
$GPGSV,3,1,12,02,34,105,33,04,,,34,05,66,133,42,06,03,094,07*47
$GPGSV,3,2,12,12,21,341,31,13,27,044,34,15,20,010,26,20,53,306,37*79
$GPGSV,3,3,12,21,09,259,18,25,35,298,38,26,03,213,,29,60,223,42*71
$GLGSV,3,1,10,68,22,148,36,69,71,114,29,70,41,347,41,74,00,301,*60
$AADPT,1.83,0.00*4A
$AADBT,6.0,f,1.83,M,1.0,F*2C
$AADBS,6.0,f,1.83,M,1.0,F*2B
$GLGSV,3,2,10,75,09,254,26,76,04,209,13,83,22,071,39,84,63,135,30*6F
$GLGSV,3,3,10,85,32,215,34,,,,36*5C
$AAMTW,21.7,C*17
$AAXDR,C,21.7,C,ENV_SEA_T*0A
$AAMDA,,I,,B,,C,21.7,C,,,,C,,T,,M,,N,,M*00
$AADPT,1.83,0.00*4A
$GNGLL,3651.90817,S,17443.41924,E,034429.00,A,A*6B
$GNZDA,034429.00,02,02,2018,00,00*7B
$GNRMC,034430.00,A,3651.90813,S,17443.41929,E,0.169,,020218,,,A*74
$AADPT,1.83,0.00*4A
$AADBT,6.0,f,1.83,M,1.0,F*2C
$GNVTG,,T,,M,0.169,N,0.312,K,A*33
$AADBS,6.0,f,1.83,M,1.0,F*2B
$GNGGA,034430.00,3651.90813,S,17443.41929,E,1,12,0.73,13.7,M,28.1,M,,*66
$AAMTW,21.7,C*17
$AAXDR,C,21.7,C,ENV_SEA_T*0A
$AAMDA,,I,,B,,C,21.7,C,,,,C,,T,,M,,N,,M*00
$AADPT,1.83,0.00*4A
$GNGSA,A,3,29,05,25,12,15,13,20,02,,,,,1.44,0.73,1.24*12
$GNGSA,A,3,68,69,85,83,84,75,70,,,,,,1.44,0.73,1.24*10
$GPGSV,3,1,12,02,34,105,35,04,,,31,05,66,133,42,06,03,094,11*43
$GPGSV,3,2,12,12,21,341,31,13,27,044,34,15,20,010,26,20,53,306,37*79
$GPGSV,3,3,12,21,09,259,18,25,35,298,37,26,03,213,,29,60,223,41*7D
$GLGSV,3,1,10,68,22,148,37,69,71,114,29,70,41,347,42,74,00,301,*62
$AADPT,1.83,0.00*4A
$AADBT,6.0,f,1.83,M,1.0,F*2C
$AADBS,6.0,f,1.83,M,1.0,F*2B
$AAMTW,21.7,C*17
$AAXDR,C,21.7,C,ENV_SEA_T*0A
$GLGSV,3,2,10,75,09,254,24,76,04,209,10,83,22,071,39,84,63,135,30*6E
$GLGSV,3,3,10,85,32,215,35,,,,32*59
$AAMDA,,I,,B,,C,21.7,C,,,,C,,T,,M,,N,,M*00
$AADPT,1.83,0.00*4A
$GNGLL,3651.90813,S,17443.41929,E,034430.00,A,A*6A
$GNZDA,034430.00,02,02,2018,00,00*73
$GNRMC,034431.00,A,3651.90807,S,17443.41945,E,0.732,69.68,020218,,,A*5D
$GNVTG,69.68,T,,M,0.732,N,1.356,K,A*15
$AADPT,1.87,0.00*4E
$AADBT,6.1,f,1.87,M,1.0,F*29
$AADBS,6.1,f,1.87,M,1.0,F*2E
$AAMTW,21.7,C*17
$AAXDR,C,21.7,C,ENV_SEA_T*0A
$GNGGA,034431.00,3651.90807,S,17443.41945,E,1,12,0.73,13.8,M,28.1,M,,*67
$AAMDA,,I,,B,,C,21.7,C,,,,C,,T,,M,,N,,M*00
$AADPT,1.87,0.00*4E
$GNGSA,A,3,29,05,25,12,15,13,20,02,,,,,1.44,0.73,1.24*12
$GNGSA,A,3,68,69,85,83,84,75,70,,,,,,1.44,0.73,1.24*10
$GPGSV,3,1,12,02,34,105,38,04,,,31,05,66,133,42,06,03,094,07*49
$GPGSV,3,2,12,12,21,341,37,13,27,044,35,15,20,010,35,20,53,306,37*7C
$GPGSV,3,3,12,21,09,259,27,25,35,298,27,26,03,213,,29,60,223,42*73
$GLGSV,3,1,10,68,22,148,37,69,71,114,34,70,41,347,37,74,00,301,*6C
$GLGSV,3,2,10,75,09,254,25,76,04,209,10,83,22,071,38,84,63,135,37*69
$AADPT,1.87,0.00*4E
$AADBT,6.1,f,1.87,M,1.0,F*29
$AADBS,6.1,f,1.87,M,1.0,F*2E
$AAMTW,21.7,C*17
$AAXDR,C,21.7,C,ENV_SEA_T*0A
$AAMDA,,I,,B,,C,21.7,C,,,,C,,T,,M,,N,,M*00
$AADPT,1.87,0.00*4E
$GLGSV,3,3,10,85,32,215,38,,,,41*50
$GNGLL,3651.90807,S,17443.41945,E,034431.00,A,A*64
$GNZDA,034431.00,02,02,2018,00,00*72
$GNRMC,034432.00,A,3651.90805,S,17443.41959,E,0.411,,020218,,,A*7C
$GNVTG,,T,,M,0.411,N,0.760,K,A*38
$AADPT,1.87,0.00*4E
$AADBT,6.1,f,1.87,M,1.0,F*29
$AADBS,6.1,f,1.87,M,1.0,F*2E
$AAMTW,21.7,C*17
$AAXDR,C,21.7,C,ENV_SEA_T*0A
$AAMDA,,I,,B,,C,21.7,C,,,,C,,T,,M,,N,,M*00
$AADPT,1.87,0.00*4E
$GNGGA,034432.00,3651.90805,S,17443.41959,E,1,12,0.65,13.9,M,28.1,M,,*6D
$GNGSA,A,3,29,05,25,12,15,13,20,02,,,,,1.22,0.65,1.03*10
$GNGSA,A,3,68,69,85,83,84,75,70,,,,,,1.22,0.65,1.03*12
$GPGSV,3,1,12,02,34,105,36,04,,,25,05,66,133,42,06,03,094,08*4D
$GPGSV,3,2,12,12,21,341,41,13,27,044,37,15,20,010,32,20,53,306,40*78
$GPGSV,3,3,12,21,09,259,,25,35,298,33,26,03,213,,29,60,223,43*72
$GLGSV,3,1,10,68,22,148,39,69,71,114,35,70,41,347,35,74,00,301,*61
$GLGSV,3,2,10,75,09,254,25,76,04,209,10,83,22,071,29,84,63,135,37*69
$AADPT,1.87,0.00*4E
$GLGSV,3,3,10,85,32,215,39,,,,43*53
$AADBT,6.1,f,1.87,M,1.0,F*29
$AADBS,6.1,f,1.87,M,1.0,F*2E
$AAMTW,21.7,C*17
$AAXDR,C,21.7,C,ENV_SEA_T*0A
$AAMDA,,I,,B,,C,21.7,C,,,,C,,T,,M,,N,,M*00
$AADPT,1.87,0.00*4E
$GNGLL,3651.90805,S,17443.41959,E,034432.00,A,A*68
$GNZDA,034432.00,02,02,2018,00,00*71
$GNRMC,034433.00,A,3651.90807,S,17443.41993,E,1.358,94.83,020218,,,A*5A
$AADPT,1.89,0.00*40
$GNVTG,94.83,T,,M,1.358,N,2.515,K,A*19
$GNGGA,034433.00,3651.90807,S,17443.41993,E,1,12,0.65,14.1,M,28.1,M,,*67
$AADBT,6.2,f,1.89,M,1.0,F*24
$AADBS,6.2,f,1.89,M,1.0,F*23
$AAMTW,21.7,C*17
$AAXDR,C,21.7,C,ENV_SEA_T*0A
$AAMDA,,I,,B,,C,21.7,C,,,,C,,T,,M,,N,,M*00
$AADPT,1.89,0.00*40
$GNGSA,A,3,29,05,25,12,15,13,20,02,,,,,1.22,0.65,1.03*10
$GNGSA,A,3,68,69,85,83,84,75,70,,,,,,1.22,0.65,1.03*12
$GPGSV,3,1,12,02,33,104,36,04,,,26,05,66,133,41,06,03,094,11*43
$GPGSV,3,2,12,12,21,341,32,13,27,044,35,15,20,010,41,20,53,306,40*7A
$GPGSV,3,3,12,21,09,259,20,25,35,298,35,26,03,213,,29,60,223,42*77
$GLGSV,3,1,10,68,22,148,40,69,71,114,35,70,41,347,35,74,00,301,*6F
$AADPT,1.89,0.00*40
$AADBT,6.2,f,1.89,M,1.0,F*24
$AADBS,6.2,f,1.89,M,1.0,F*23
$GLGSV,3,2,10,75,09,254,25,76,04,209,13,83,22,071,34,84,63,135,37*66
$AAMTW,21.7,C*17
$GLGSV,3,3,10,85,32,215,37,,,,42*5C
$AAXDR,C,21.7,C,ENV_SEA_T*0A
$AAMDA,,I,,B,,C,21.7,C,,,,C,,T,,M,,N,,M*00
$AADPT,1.89,0.00*40
$GNGLL,3651.90807,S,17443.41993,E,034433.00,A,A*6D
$GNZDA,034433.00,02,02,2018,00,00*70
$GNRMC,034434.00,A,3651.90817,S,17443.42032,E,1.190,102.30,020218,,,A*6D
$AADPT,1.81,0.00*48
$AADBT,5.9,f,1.81,M,0.9,F*2C
$AADBS,5.9,f,1.81,M,0.9,F*2B
$GNVTG,102.30,T,,M,1.190,N,2.203,K,A*29
$GNGGA,034434.00,3651.90817,S,17443.42032,E,1,12,0.65,14.2,M,28.1,M,,*63
$AAMTW,21.7,C*17
$AAXDR,C,21.7,C,ENV_SEA_T*0A
$AAMDA,,I,,B,,C,21.7,C,,,,C,,T,,M,,N,,M*00
$AADPT,1.81,0.00*48
$GNGSA,A,3,29,05,25,12,15,13,20,02,,,,,1.22,0.65,1.03*10
$GNGSA,A,3,68,69,85,83,84,75,70,,,,,,1.22,0.65,1.03*12
$GPGSV,3,1,12,02,33,104,33,04,,,27,05,66,133,41,06,03,094,11*47
$GPGSV,3,2,12,12,21,341,32,13,27,044,35,15,20,010,38,20,53,306,39*7A
$GPGSV,3,3,12,21,09,259,28,25,35,298,37,26,03,213,,29,60,223,43*7C
$GLGSV,3,1,10,68,22,148,36,69,71,114,36,70,41,347,27,74,00,301,*6E
$AADPT,1.81,0.00*48
$AADBT,5.9,f,1.81,M,0.9,F*2C
$AADBS,5.9,f,1.81,M,0.9,F*2B
$AAMTW,21.7,C*17
$AAXDR,C,21.7,C,ENV_SEA_T*0A
$GLGSV,3,2,10,75,09,254,23,76,04,209,13,83,22,071,36,84,63,135,39*6C
$AAMDA,,I,,B,,C,21.7,C,,,,C,,T,,M,,N,,M*00
$GLGSV,3,3,10,85,32,215,40,,,,44*5A
$AADPT,1.81,0.00*48
$GNGLL,3651.90817,S,17443.42032,E,034434.00,A,A*6A
$GNZDA,034434.00,02,02,2018,00,00*77
$GNRMC,034435.00,A,3651.90833,S,17443.42067,E,1.307,114.89,020218,,,A*63
$GNVTG,114.89,T,,M,1.307,N,2.420,K,A*27
$AADPT,1.75,0.00*43
$AADBT,5.7,f,1.75,M,0.9,F*29
$AADBS,5.7,f,1.75,M,0.9,F*2E
$AAMTW,21.7,C*17
$AAXDR,C,21.7,C,ENV_SEA_T*0A
$GNGGA,034435.00,3651.90833,S,17443.42067,E,1,12,0.73,14.3,M,28.1,M,,*62
$AAMDA,,I,,B,,C,21.7,C,,,,C,,T,,M,,N,,M*00
$AADPT,1.75,0.00*43
$GNGSA,A,3,29,05,25,12,15,13,20,02,,,,,1.44,0.73,1.24*12
$GNGSA,A,3,68,69,85,83,84,75,70,,,,,,1.44,0.73,1.24*10
$GPGSV,3,1,12,02,33,104,36,04,,,26,05,66,134,41,06,03,094,12*47
$GPGSV,3,2,12,12,21,341,39,13,27,044,36,15,20,010,35,20,53,306,40*71
$GPGSV,3,3,12,21,09,259,25,25,35,298,33,26,03,213,,29,60,223,41*77
$GLGSV,3,1,10,68,22,148,40,69,71,114,35,70,41,347,36,74,00,301,*6C
$AADPT,1.75,0.00*43
$AADBT,5.7,f,1.75,M,0.9,F*29
$AADBS,5.7,f,1.75,M,0.9,F*2E
$AAMTW,21.7,C*17
$AAXDR,C,21.7,C,ENV_SEA_T*0A
$AAMDA,,I,,B,,C,21.7,C,,,,C,,T,,M,,N,,M*00
$AADPT,1.75,0.00*43
$GLGSV,3,2,10,75,09,254,24,76,04,209,13,83,22,071,34,84,63,135,37*67
$GLGSV,3,3,10,85,32,215,38,,,,41*50
$GNGLL,3651.90833,S,17443.42067,E,034435.00,A,A*6D
$GNZDA,034435.00,02,02,2018,00,00*76
$GNRMC,034436.00,A,3651.90849,S,17443.42103,E,1.243,118.53,020218,,,A*64
$AADPT,1.83,0.00*4A
$AADBT,6.0,f,1.83,M,1.0,F*2C
$AADBS,6.0,f,1.83,M,1.0,F*2B
$AAMTW,21.7,C*17
$GNVTG,118.53,T,,M,1.243,N,2.302,K,A*2A
$GNGGA,034436.00,3651.90849,S,17443.42103,E,1,12,0.65,14.4,M,28.1,M,,*6F
$AAXDR,C,21.7,C,ENV_SEA_T*0A
$AAMDA,,I,,B,,C,21.7,C,,,,C,,T,,M,,N,,M*00
$AADPT,1.83,0.00*4A
$GNGSA,A,3,29,05,25,12,15,13,20,02,,,,,1.22,0.65,1.03*10
$GNGSA,A,3,68,69,85,83,84,75,70,,,,,,1.22,0.65,1.03*12
$GPGSV,3,1,12,02,33,104,37,04,,,25,05,66,134,40,06,03,094,10*46
$GPGSV,3,2,12,12,21,341,29,13,27,044,33,15,20,010,41,20,53,306,41*77
$GPGSV,3,3,12,21,09,259,23,25,35,298,36,26,03,213,,29,60,223,41*74
$GLGSV,3,1,10,68,22,148,39,69,71,114,36,70,41,347,33,74,00,301,20*66
$AADPT,1.83,0.00*4A
$AADBT,6.0,f,1.83,M,1.0,F*2C
$AADBS,6.0,f,1.83,M,1.0,F*2B
$AAMTW,21.7,C*17
$AAXDR,C,21.7,C,ENV_SEA_T*0A
$AAMDA,,I,,B,,C,21.7,C,,,,C,,T,,M,,N,,M*00
$GLGSV,3,2,10,75,09,254,25,76,04,209,13,83,22,071,37,84,63,135,37*65
$AADPT,1.83,0.00*4A
$GLGSV,3,3,10,85,32,215,39,,,,43*53
$GNGLL,3651.90849,S,17443.42103,E,034436.00,A,A*60
$GNZDA,034436.00,02,02,2018,00,00*75
$GNRMC,034437.00,A,3651.90868,S,17443.42135,E,1.260,123.40,020218,,,A*68
$GNVTG,123.40,T,,M,1.260,N,2.334,K,A*24
$AADPT,1.95,0.00*4D
$AADBT,6.3,f,1.95,M,1.0,F*28
$AADBS,6.3,f,1.95,M,1.0,F*2F
$AAMTW,21.7,C*17
$AAXDR,C,21.7,C,ENV_SEA_T*0A
$AAMDA,,I,,B,,C,21.7,C,,,,C,,T,,M,,N,,M*00
$GNGGA,034437.00,3651.90868,S,17443.42135,E,1,12,0.74,14.5,M,28.1,M,,*69
$AADPT,1.95,0.00*4D
$GNGSA,A,3,29,05,25,12,15,13,20,02,,,,,1.44,0.74,1.24*15
$GNGSA,A,3,68,69,85,83,84,75,70,,,,,,1.44,0.74,1.24*17
$GPGSV,3,1,12,02,33,104,36,04,,,24,05,66,134,40,06,03,094,10*46
$GPGSV,3,2,12,12,21,341,39,13,27,044,37,15,20,010,38,20,53,306,40*7D
$GPGSV,3,3,12,21,09,259,,25,35,298,35,26,03,213,,29,60,223,41*76
$GLGSV,3,1,10,68,22,148,40,69,71,114,35,70,41,347,36,74,00,301,19*64
$AADPT,1.95,0.00*4D
$AADBT,6.3,f,1.95,M,1.0,F*28
$AADBS,6.3,f,1.95,M,1.0,F*2F
$AAMTW,21.7,C*17
$AAXDR,C,21.7,C,ENV_SEA_T*0A
$AAMDA,,I,,B,,C,21.7,C,,,,C,,T,,M,,N,,M*00
$AADPT,1.95,0.00*4D
$GLGSV,3,2,10,75,09,254,31,76,04,209,13,83,22,071,32,84,63,135,37*65
$GLGSV,3,3,10,85,32,215,37,,,,42*5C
$GNGLL,3651.90868,S,17443.42135,E,034437.00,A,A*67
$GNZDA,034437.00,02,02,2018,00,00*74
$GNRMC,034438.00,A,3651.90884,S,17443.42171,E,1.250,119.92,020218,,,A*60
$AADPT,1.98,0.00*40
$AADBT,6.4,f,1.98,M,1.0,F*22
$AADBS,6.4,f,1.98,M,1.0,F*25
$AAMTW,21.7,C*17
$GNVTG,119.92,T,,M,1.250,N,2.315,K,A*22
$AAXDR,C,21.7,C,ENV_SEA_T*0A
$GNGGA,034438.00,3651.90884,S,17443.42171,E,1,12,0.65,14.6,M,28.1,M,,*67
$AAMDA,,I,,B,,C,21.7,C,,,,C,,T,,M,,N,,M*00
$AADPT,1.98,0.00*40
$GNGSA,A,3,29,05,25,12,15,13,20,02,,,,,1.22,0.65,1.03*10
$GNGSA,A,3,68,69,85,83,84,75,70,,,,,,1.22,0.65,1.03*12
$GPGSV,3,1,12,02,33,104,36,04,,,25,05,66,134,40,06,03,094,11*46
$GPGSV,3,2,12,12,21,341,28,13,27,044,34,15,20,010,42,20,53,306,40*73
$GPGSV,3,3,12,21,09,259,,25,35,298,36,26,03,213,,29,60,223,41*75
$GLGSV,3,1,10,68,22,148,39,69,71,114,35,70,41,347,36,74,00,301,18*6B
$AADPT,1.98,0.00*40
$AADBT,6.4,f,1.98,M,1.0,F*22
$AADBS,6.4,f,1.98,M,1.0,F*25
$AAMTW,21.7,C*17
$AAXDR,C,21.7,C,ENV_SEA_T*0A
$AAMDA,,I,,B,,C,21.7,C,,,,C,,T,,M,,N,,M*00
$AADPT,1.98,0.00*40
$GLGSV,3,2,10,75,09,254,25,76,04,209,13,83,22,071,37,84,63,135,38*6A
$GLGSV,3,3,10,85,32,215,39,,,,43*53
$GNGLL,3651.90884,S,17443.42171,E,034438.00,A,A*6A
$GNZDA,034438.00,02,02,2018,00,00*7B
$GNRMC,034439.00,A,3651.90896,S,17443.42211,E,1.271,117.30,020218,,,A*62
$GNVTG,117.30,T,,M,1.271,N,2.354,K,A*22
$AADPT,1.92,0.00*4A
$AADBT,6.2,f,1.92,M,1.0,F*2E
$AADBS,6.2,f,1.92,M,1.0,F*29
$AAMTW,21.7,C*17
$AAXDR,C,21.7,C,ENV_SEA_T*0A
$AAMDA,,I,,B,,C,21.7,C,,,,C,,T,,M,,N,,M*00
$GNGGA,034439.00,3651.90896,S,17443.42211,E,1,12,0.65,14.7,M,28.1,M,,*61
$AADPT,1.92,0.00*4A
$GNGSA,A,3,29,05,25,12,15,13,20,02,,,,,1.22,0.65,1.03*10
$GNGSA,A,3,68,69,85,83,84,75,70,,,,,,1.22,0.65,1.03*12
$GPGSV,3,1,12,02,33,104,36,04,,,23,05,66,134,40,06,03,094,10*41
$GPGSV,3,2,12,12,21,341,34,13,27,044,35,15,20,010,42,20,53,306,40*7F
$GPGSV,3,3,12,21,09,259,,25,35,298,36,26,03,213,,29,60,223,41*75
$GLGSV,3,1,09,68,22,148,39,69,71,114,35,70,41,347,36,74,00,301,17*6C
$AADPT,1.92,0.00*4A
$AADBT,6.2,f,1.92,M,1.0,F*2E
$AADBS,6.2,f,1.92,M,1.0,F*29
$AAMTW,21.7,C*17
$AAXDR,C,21.7,C,ENV_SEA_T*0A
$AAMDA,,I,,B,,C,21.7,C,,,,C,,T,,M,,N,,M*00
$AADPT,1.92,0.00*4A
$GLGSV,3,2,09,75,09,254,26,76,04,209,19,83,22,071,37,84,63,135,38*6B
$GLGSV,3,3,09,85,32,215,35*50
$GNGLL,3651.90896,S,17443.42211,E,034439.00,A,A*6D
$GNZDA,034439.00,02,02,2018,00,00*7A
$GNRMC,034440.00,A,3651.90908,S,17443.42255,E,1.338,113.54,020218,,,A*60
$AADPT,1.83,0.00*4A
$AADBT,6.0,f,1.83,M,1.0,F*2C
$AADBS,6.0,f,1.83,M,1.0,F*2B
$AAMTW,21.7,C*17
$AAXDR,C,21.7,C,ENV_SEA_T*0A
$AAMDA,,I,,B,,C,21.7,C,,,,C,,T,,M,,N,,M*00
$GNVTG,113.54,T,,M,1.338,N,2.479,K,A*20
$GNGGA,034440.00,3651.90908,S,17443.42255,E,1,12,0.65,14.7,M,28.1,M,,*69
$AADPT,1.83,0.00*4A
$GNGSA,A,3,29,05,25,12,15,13,20,02,,,,,1.22,0.65,1.03*10
$GNGSA,A,3,68,69,85,83,84,75,70,,,,,,1.22,0.65,1.03*12
$GPGSV,3,1,12,02,33,104,36,04,,,21,05,66,134,42,06,03,094,10*41
$GPGSV,3,2,12,12,21,341,37,13,27,044,35,15,20,010,39,20,53,306,40*70
$GPGSV,3,3,12,21,09,259,,25,35,298,34,26,03,213,,29,60,223,42*74
$GLGSV,3,1,10,68,22,148,39,69,71,114,35,70,41,347,36,74,00,301,14*67
$AADPT,1.83,0.00*4A
$AADBT,6.0,f,1.83,M,1.0,F*2C
$AADBS,6.0,f,1.83,M,1.0,F*2B
$AAMTW,21.7,C*17
$AAXDR,C,21.7,C,ENV_SEA_T*0A
$AAMDA,,I,,B,,C,21.7,C,,,,C,,T,,M,,N,,M*00
$AADPT,1.83,0.00*4A
$GLGSV,3,2,10,75,09,254,27,76,04,209,19,83,22,071,36,84,63,135,38*63
$GLGSV,3,3,10,85,32,215,38,,,,42*53
$GNGLL,3651.90908,S,17443.42255,E,034440.00,A,A*65
$GNZDA,034440.00,02,02,2018,00,00*74
$GNRMC,034441.00,A,3651.90923,S,17443.42289,E,1.098,117.33,020218,,,A*65
$GNVTG,117.33,T,,M,1.098,N,2.034,K,A*21
$AADPT,1.95,0.00*4D
$AADBT,6.3,f,1.95,M,1.0,F*28
$AADBS,6.3,f,1.95,M,1.0,F*2F
$AAMTW,21.7,C*17
$AAXDR,C,21.7,C,ENV_SEA_T*0A
$AAMDA,,I,,B,,C,21.7,C,,,,C,,T,,M,,N,,M*00
$AADPT,1.95,0.00*4D
$GNGGA,034441.00,3651.90923,S,17443.42289,E,1,12,0.65,14.7,M,28.1,M,,*60
$GNGSA,A,3,29,05,25,12,15,13,20,02,,,,,1.22,0.65,1.03*10
$GNGSA,A,3,68,69,85,83,84,75,70,,,,,,1.22,0.65,1.03*12
$GPGSV,3,1,12,02,33,104,36,04,,,22,05,66,134,41,06,03,094,10*41
$GPGSV,3,2,12,12,21,341,39,13,27,044,36,15,20,010,38,20,53,306,39*72
$GPGSV,3,3,12,21,09,259,,25,35,298,33,26,03,213,,29,60,223,42*73
$GLGSV,3,1,10,68,22,148,39,69,71,114,35,70,41,347,36,74,00,301,12*61
$AADPT,1.95,0.00*4D
$AADBT,6.3,f,1.95,M,1.0,F*28
$AADBS,6.3,f,1.95,M,1.0,F*2F
$AAMTW,21.7,C*17
$AAXDR,C,21.7,C,ENV_SEA_T*0A
$AAMDA,,I,,B,,C,21.7,C,,,,C,,T,,M,,N,,M*00
$AADPT,1.95,0.00*4D
$GLGSV,3,2,10,75,09,254,28,76,04,209,19,83,22,071,33,84,63,135,38*69
$GLGSV,3,3,10,85,32,215,40,,,,43*5D
$GNGLL,3651.90923,S,17443.42289,E,034441.00,A,A*6C
$GNZDA,034441.00,02,02,2018,00,00*75
$GNRMC,034442.00,A,3651.90936,S,17443.42328,E,1.266,112.32,020218,,,A*6F
$AADPT,1.89,0.00*40
$AADBT,6.2,f,1.89,M,1.0,F*24
$AADBS,6.2,f,1.89,M,1.0,F*23
$AAMTW,21.7,C*17
$AAXDR,C,21.7,C,ENV_SEA_T*0A
$AAMDA,,I,,B,,C,21.7,C,,,,C,,T,,M,,N,,M*00
$AADPT,1.89,0.00*40
$GNVTG,112.32,T,,M,1.266,N,2.344,K,A*22
$GNGGA,034442.00,3651.90936,S,17443.42328,E,1,12,0.65,14.7,M,28.1,M,,*6D
$GNGSA,A,3,29,05,25,12,15,13,20,02,,,,,1.22,0.65,1.03*10
$GNGSA,A,3,68,69,85,83,84,75,70,,,,,,1.22,0.65,1.03*12
$GPGSV,3,1,12,02,33,104,36,04,,,22,05,66,134,40,06,03,094,09*48
$GPGSV,3,2,12,12,21,341,31,13,27,044,36,15,20,010,41,20,53,306,40*7A
$GPGSV,3,3,12,21,09,259,24,25,35,298,36,26,03,213,,29,60,223,40*72
$GLGSV,3,1,10,68,22,148,39,69,71,114,36,70,41,347,36,74,00,301,10*60
$AADPT,1.89,0.00*40
$AADBT,6.2,f,1.89,M,1.0,F*24
$AADBS,6.2,f,1.89,M,1.0,F*23
$AAMTW,21.7,C*17
$AAXDR,C,21.7,C,ENV_SEA_T*0A
$AAMDA,,I,,B,,C,21.7,C,,,,C,,T,,M,,N,,M*00
$AADPT,1.89,0.00*40
$GLGSV,3,2,10,75,09,254,28,76,04,209,21,83,22,071,37,84,63,135,39*67
$GLGSV,3,3,10,85,32,215,39,,,,43*53
$GNGLL,3651.90936,S,17443.42328,E,034442.00,A,A*61
$GNZDA,034442.00,02,02,2018,00,00*76
$GNRMC,034443.00,A,3651.90955,S,17443.42361,E,1.135,117.31,020218,,,A*65
$GNVTG,117.31,T,,M,1.135,N,2.102,K,A*21
$AADPT,1.81,0.00*48
$AADBT,5.9,f,1.81,M,0.9,F*2C
$AADBS,5.9,f,1.81,M,0.9,F*2B
$AAMTW,21.7,C*17
$AAXDR,C,21.7,C,ENV_SEA_T*0A
$AAMDA,,I,,B,,C,21.7,C,,,,C,,T,,M,,N,,M*00
$AADPT,1.81,0.00*48
$GNGGA,034443.00,3651.90955,S,17443.42361,E,1,12,0.65,14.8,M,28.1,M,,*6B
$GNGSA,A,3,29,05,25,12,15,13,20,02,,,,,1.22,0.65,1.03*10
$GNGSA,A,3,68,69,85,83,84,75,70,,,,,,1.22,0.65,1.03*12
$GPGSV,3,1,12,02,33,104,36,04,,,22,05,66,134,42,06,03,094,13*41
$GPGSV,3,2,12,12,21,341,41,13,28,045,39,15,20,010,38,20,53,306,40*72
$GPGSV,3,3,12,21,09,259,22,25,35,298,33,26,03,213,,29,60,223,41*70
$GLGSV,3,1,10,68,22,148,38,69,71,114,32,70,41,347,38,74,00,301,14*6F
$AADPT,1.81,0.00*48
$AADBT,5.9,f,1.81,M,0.9,F*2C
$AADBS,5.9,f,1.81,M,0.9,F*2B
$AAMTW,21.7,C*17
$AAXDR,C,21.7,C,ENV_SEA_T*0A
$AAMDA,,I,,B,,C,21.7,C,,,,C,,T,,M,,N,,M*00
$AADPT,1.81,0.00*48
$GLGSV,3,2,10,75,09,254,27,76,04,209,23,83,22,071,33,84,63,135,38*6F
$GLGSV,3,3,10,85,32,215,37,,,,42*5C
$GNGLL,3651.90955,S,17443.42361,E,034443.00,A,A*68
$GNZDA,034443.00,02,02,2018,00,00*77
$AADPT,1.81,0.00*48
$AADBT,5.9,f,1.81,M,0.9,F*2C
$GNRMC,034444.00,A,3651.90970,S,17443.42399,E,1.312,114.80,020218,,,A*6C
$GNVTG,114.80,T,,M,1.312,N,2.430,K,A*2B
$AADBS,5.9,f,1.81,M,0.9,F*2B
$AAMTW,21.7,C*17
$AAXDR,C,21.7,C,ENV_SEA_T*0A
$AAMDA,,I,,B,,C,21.7,C,,,,C,,T,,M,,N,,M*00
$AADPT,1.81,0.00*48
$GNGGA,034444.00,3651.90970,S,17443.42399,E,1,12,0.65,14.8,M,28.1,M,,*6C
$GNGSA,A,3,29,05,25,12,15,13,20,02,,,,,1.22,0.65,1.03*10
$GNGSA,A,3,68,69,85,83,84,75,70,,,,,,1.22,0.65,1.03*12
$GPGSV,3,1,12,02,33,104,36,04,,,24,05,66,134,41,06,03,094,15*42
$GPGSV,3,2,12,12,21,341,33,13,28,045,35,15,20,010,43,20,53,306,39*79
$GPGSV,3,3,12,21,09,259,24,25,35,298,34,26,03,213,,29,60,223,41*71
$AADPT,1.81,0.00*48
$AADBT,5.9,f,1.81,M,0.9,F*2C
$AADBS,5.9,f,1.81,M,0.9,F*2B
$AAMTW,21.7,C*17
$GLGSV,3,1,10,68,22,148,37,69,71,114,34,70,41,347,34,74,00,301,13*6D
$GLGSV,3,2,10,75,09,254,29,76,04,209,23,83,22,071,33,84,63,135,35*6C
$AAXDR,C,21.7,C,ENV_SEA_T*0A
$AAMDA,,I,,B,,C,21.7,C,,,,C,,T,,M,,N,,M*00
$AADPT,1.81,0.00*48
$GLGSV,3,3,10,85,32,215,35,,,,41*5D
$GNGLL,3651.90970,S,17443.42399,E,034444.00,A,A*6F
$GNZDA,034444.00,02,02,2018,00,00*70
$GNRMC,034445.00,A,3651.90989,S,17443.42436,E,1.279,120.12,020218,,,A*69
$AADPT,1.81,0.00*48
$AADBT,5.9,f,1.81,M,0.9,F*2C
$AADBS,5.9,f,1.81,M,0.9,F*2B
$AAMTW,21.7,C*17
$AAXDR,C,21.7,C,ENV_SEA_T*0A
$AAMDA,,I,,B,,C,21.7,C,,,,C,,T,,M,,N,,M*00
$AADPT,1.81,0.00*48
$GNVTG,120.12,T,,M,1.279,N,2.369,K,A*20
$GNGGA,034445.00,3651.90989,S,17443.42436,E,1,12,0.65,14.8,M,28.1,M,,*69
$GNGSA,A,3,29,05,25,12,15,13,20,02,,,,,1.22,0.65,1.03*10
$GNGSA,A,3,68,69,85,83,84,75,70,,,,,,1.22,0.65,1.03*12
$GPGSV,3,1,12,02,33,104,37,04,,,24,05,66,134,41,06,03,094,14*42
$GPGSV,3,2,12,12,21,341,40,13,28,045,38,15,21,010,38,20,53,306,41*72
$GPGSV,3,3,12,21,09,259,22,25,35,298,34,26,03,213,,29,60,223,41*77
$GLGSV,3,1,10,68,22,148,36,69,71,114,34,70,41,347,35,74,00,301,13*6D
$AADPT,1.81,0.00*48
$AADBT,5.9,f,1.81,M,0.9,F*2C
$AADBS,5.9,f,1.81,M,0.9,F*2B
$AAMTW,21.7,C*17
$AAXDR,C,21.7,C,ENV_SEA_T*0A
$AAMDA,,I,,B,,C,21.7,C,,,,C,,T,,M,,N,,M*00
$GLGSV,3,2,10,75,09,254,27,76,04,209,22,83,22,071,32,84,63,135,35*62
$AADPT,1.81,0.00*48
$GLGSV,3,3,10,85,32,215,36,,,,40*5F
$GNGLL,3651.90989,S,17443.42436,E,034445.00,A,A*6A
$GNZDA,034445.00,02,02,2018,00,00*71
$GNRMC,034446.00,A,3651.91008,S,17443.42471,E,1.230,121.49,020218,,,A*6A
$AADPT,1.83,0.00*4A
$AADBT,6.0,f,1.83,M,1.0,F*2C
$AADBS,6.0,f,1.83,M,1.0,F*2B
$AAMTW,21.7,C*17
$AAXDR,C,21.7,C,ENV_SEA_T*0A
$AAMDA,,I,,B,,C,21.7,C,,,,C,,T,,M,,N,,M*00
$AADPT,1.83,0.00*4A
$GNVTG,121.49,T,,M,1.230,N,2.279,K,A*22
$GNGGA,034446.00,3651.91008,S,17443.42471,E,1,12,0.65,14.7,M,28.1,M,,*67
$GNGSA,A,3,29,05,25,12,15,13,20,02,,,,,1.22,0.65,1.03*10
$GNGSA,A,3,68,69,85,83,84,75,70,,,,,,1.22,0.65,1.03*12
$GPGSV,3,1,12,02,33,104,37,04,,,21,05,66,134,40,06,03,094,14*46
$GPGSV,3,2,12,12,21,341,32,13,28,045,34,15,21,010,42,20,53,306,40*77
$GPGSV,3,3,12,21,09,259,22,25,35,298,36,26,03,213,,29,60,223,41*75
$GLGSV,3,1,10,68,22,148,37,69,71,114,34,70,41,347,34,74,00,301,12*6C
$AADPT,1.83,0.00*4A
$AADBT,6.0,f,1.83,M,1.0,F*2C
$AADBS,6.0,f,1.83,M,1.0,F*2B
$AAMTW,21.7,C*17
$AAXDR,C,21.7,C,ENV_SEA_T*0A
$AAMDA,,I,,B,,C,21.7,C,,,,C,,T,,M,,N,,M*00
$AADPT,1.83,0.00*4A
$GLGSV,3,2,10,75,09,254,26,76,04,209,21,83,22,071,34,84,63,135,35*66
$GLGSV,3,3,10,85,32,215,36,,,,40*5F
$GNGLL,3651.91008,S,17443.42471,E,034446.00,A,A*6B
$GNZDA,034446.00,02,02,2018,00,00*72
$GNRMC,034447.00,A,3651.91030,S,17443.42508,E,1.385,122.81,020218,,,A*67
$GNVTG,122.81,T,,M,1.385,N,2.565,K,A*20
$AADPT,1.87,0.00*4E
$AADBT,6.1,f,1.87,M,1.0,F*29
$AADBS,6.1,f,1.87,M,1.0,F*2E
$AAMTW,21.7,C*17
$AAXDR,C,21.7,C,ENV_SEA_T*0A
$AAMDA,,I,,B,,C,21.7,C,,,,C,,T,,M,,N,,M*00
$AADPT,1.87,0.00*4E
$GNGGA,034447.00,3651.91030,S,17443.42508,E,1,12,0.65,14.7,M,28.1,M,,*62
$GNGSA,A,3,29,05,25,12,15,13,20,02,,,,,1.22,0.65,1.03*10
$GNGSA,A,3,68,69,85,83,84,75,70,,,,,,1.22,0.65,1.03*12
$GPGSV,3,1,12,02,33,104,38,04,,,22,05,66,134,42,06,03,094,12*4E
$GPGSV,3,2,12,12,21,341,38,13,28,045,39,15,21,010,41,20,53,306,40*73
$GPGSV,3,3,12,21,09,259,21,25,35,298,37,26,03,213,,29,60,223,44*72
$AADPT,1.87,0.00*4E
$AADBT,6.1,f,1.87,M,1.0,F*29
$GLGSV,3,1,10,68,22,148,37,69,71,114,34,70,41,347,35,74,00,301,13*6C
$AADBS,6.1,f,1.87,M,1.0,F*2E
$AAMTW,21.7,C*17
$AAXDR,C,21.7,C,ENV_SEA_T*0A
$AAMDA,,I,,B,,C,21.7,C,,,,C,,T,,M,,N,,M*00
$AADPT,1.87,0.00*4E
$GLGSV,3,2,10,75,09,254,26,76,04,209,22,83,22,071,33,84,63,135,35*62
$GLGSV,3,3,10,85,32,215,36,,,,40*5F
$GNGLL,3651.91030,S,17443.42508,E,034447.00,A,A*6E
$GNZDA,034447.00,02,02,2018,00,00*73
$GNRMC,034448.00,A,3651.91043,S,17443.42555,E,1.572,110.36,020218,,,A*67
$AADPT,1.31,0.00*43
$AADBT,4.2,f,1.31,M,0.7,F*23
$AADBS,4.2,f,1.31,M,0.7,F*24
$AAMTW,21.7,C*17
$AAXDR,C,21.7,C,ENV_SEA_T*0A
$AAMDA,,I,,B,,C,21.7,C,,,,C,,T,,M,,N,,M*00
$AADPT,1.31,0.00*43
$GNVTG,110.36,T,,M,1.572,N,2.912,K,A*2F
$GNGGA,034448.00,3651.91043,S,17443.42555,E,1,12,0.65,14.6,M,28.1,M,,*60
$GNGSA,A,3,29,05,25,12,15,13,20,02,,,,,1.22,0.65,1.03*10
$GNGSA,A,3,68,69,85,83,84,75,70,,,,,,1.22,0.65,1.03*12
$GPGSV,3,1,12,02,33,104,34,04,,,32,05,66,134,43,06,03,094,17*47
$GPGSV,3,2,12,12,21,341,42,13,28,045,36,15,21,010,40,20,53,306,40*70
$AADPT,1.31,0.00*43
$GPGSV,3,3,12,21,09,259,,25,35,298,37,26,03,213,24,29,60,223,45*76
$AADBT,4.2,f,1.31,M,0.7,F*23
$GLGSV,3,1,10,68,22,148,33,69,71,114,34,70,41,347,28,74,00,301,11*66
$AADBS,4.2,f,1.31,M,0.7,F*24
$AAMTW,21.7,C*17
$AAXDR,C,21.7,C,ENV_SEA_T*0A
$AAMDA,,I,,B,,C,21.7,C,,,,C,,T,,M,,N,,M*00
$AADPT,1.31,0.00*43
$GLGSV,3,2,10,75,09,254,25,76,04,209,23,83,22,071,33,84,63,135,35*60
$GLGSV,3,3,10,85,32,215,39,,,,42*52
$GNGLL,3651.91043,S,17443.42555,E,034448.00,A,A*6D
$GNZDA,034448.00,02,02,2018,00,00*7C
$AADPT,1.87,0.00*4E
$AADBT,6.1,f,1.87,M,1.0,F*29
$AADBS,6.1,f,1.87,M,1.0,F*2E
$GNRMC,034449.00,A,3651.91036,S,17443.42600,E,1.291,90.48,020218,,,A*5D
$AAMTW,21.7,C*17
$GNVTG,90.48,T,,M,1.291,N,2.392,K,A*17
$AAXDR,C,21.7,C,ENV_SEA_T*0A
$AAMDA,,I,,B,,C,21.7,C,,,,C,,T,,M,,N,,M*00
$AADPT,1.87,0.00*4E
$GNGGA,034449.00,3651.91036,S,17443.42600,E,1,12,0.65,14.6,M,28.1,M,,*60
$GNGSA,A,3,29,05,25,12,15,13,20,02,,,,,1.22,0.65,1.03*10
$GNGSA,A,3,68,69,85,83,84,75,70,,,,,,1.22,0.65,1.03*12
$GPGSV,3,1,12,02,33,104,39,04,,,33,05,66,134,41,06,03,094,15*4B
$GPGSV,3,2,12,12,21,341,38,13,28,045,35,15,21,010,35,20,53,306,37*7C
$GPGSV,3,3,12,21,09,259,20,25,35,298,33,26,03,213,22,29,60,223,40*73
$AADPT,1.87,0.00*4E
$AADBT,6.1,f,1.87,M,1.0,F*29
$AADBS,6.1,f,1.87,M,1.0,F*2E
$AAMTW,21.7,C*17
$AAXDR,C,21.7,C,ENV_SEA_T*0A
$GLGSV,3,1,10,68,22,148,33,69,71,114,28,70,41,347,40,74,00,301,11*65
$AAMDA,,I,,B,,C,21.7,C,,,,C,,T,,M,,N,,M*00
$AADPT,1.87,0.00*4E
$GLGSV,3,2,10,75,09,254,33,76,04,209,21,83,22,071,37,84,63,135,30*64
$GLGSV,3,3,10,85,32,215,36,,,,34*5C
$GNGLL,3651.91036,S,17443.42600,E,034449.00,A,A*6D
$GNZDA,034449.00,02,02,2018,00,00*7D
$AADPT,1.81,0.00*48
$AADBT,5.9,f,1.81,M,0.9,F*2C
$AADBS,5.9,f,1.81,M,0.9,F*2B
$AAMTW,21.7,C*17
$GNRMC,034450.00,A,3651.91028,S,17443.42636,E,1.121,84.75,020218,,,A*5C
$GNVTG,84.75,T,,M,1.121,N,2.077,K,A*1C
$AAXDR,C,21.7,C,ENV_SEA_T*0A
$AAMDA,,I,,B,,C,21.7,C,,,,C,,T,,M,,N,,M*00
$AADPT,1.81,0.00*48
$GNGGA,034450.00,3651.91028,S,17443.42636,E,1,12,0.65,14.5,M,28.1,M,,*61
$GNGSA,A,3,29,05,25,12,15,13,20,02,,,,,1.22,0.65,1.03*10
$GNGSA,A,3,68,69,85,83,84,75,70,,,,,,1.22,0.65,1.03*12
$GPGSV,3,1,12,02,33,104,39,04,,,33,05,66,134,42,06,03,094,13*4E
$GPGSV,3,2,12,12,21,341,40,13,28,045,36,15,21,010,34,20,54,305,38*7A
$GPGSV,3,3,12,21,09,259,19,25,35,298,27,26,03,213,20,29,60,223,42*7C
$AADPT,1.81,0.00*48
$AADBT,5.9,f,1.81,M,0.9,F*2C
$AADBS,5.9,f,1.81,M,0.9,F*2B
$AAMTW,21.7,C*17
$AAXDR,C,21.7,C,ENV_SEA_T*0A
$AAMDA,,I,,B,,C,21.7,C,,,,C,,T,,M,,N,,M*00
$GLGSV,3,1,10,68,22,148,32,69,71,114,35,70,41,347,39,74,00,301,12*65
$AADPT,1.81,0.00*48
$GLGSV,3,2,10,75,09,254,33,76,04,209,19,83,22,071,37,84,63,135,29*67
$GLGSV,3,3,10,85,32,215,35,,,,38*53
$GNGLL,3651.91028,S,17443.42636,E,034450.00,A,A*6F
$GNZDA,034450.00,02,02,2018,00,00*75
$GNRMC,034451.00,A,3651.91033,S,17443.42661,E,0.683,92.65,020218,,,A*5D
$AADPT,1.81,0.00*48
$AADBT,5.9,f,1.81,M,0.9,F*2C
$AADBS,5.9,f,1.81,M,0.9,F*2B
$AAMTW,21.7,C*17
$AAXDR,C,21.7,C,ENV_SEA_T*0A
$AAMDA,,I,,B,,C,21.7,C,,,,C,,T,,M,,N,,M*00
$AADPT,1.81,0.00*48
$GNVTG,92.65,T,,M,0.683,N,1.265,K,A*16
$GNGGA,034451.00,3651.91033,S,17443.42661,E,1,12,0.65,14.4,M,28.1,M,,*69
$GNGSA,A,3,29,05,25,12,15,13,20,02,,,,,1.22,0.65,1.03*10
$GNGSA,A,3,68,69,85,83,84,75,70,,,,,,1.22,0.65,1.03*12
$GPGSV,3,1,12,02,33,104,36,04,,,25,05,66,134,42,06,03,094,14*41
$GPGSV,3,2,12,12,21,341,37,13,28,045,36,15,21,010,40,20,54,305,41*77
$GPGSV,3,3,12,21,09,259,,25,35,298,37,26,03,213,19,29,60,223,42*7F
$GLGSV,3,1,10,68,22,148,36,69,71,114,34,70,41,347,32,74,00,301,11*68
$AADPT,1.81,0.00*48
$AADBT,5.9,f,1.81,M,0.9,F*2C
$AADBS,5.9,f,1.81,M,0.9,F*2B
$AAMTW,21.7,C*17
$AAXDR,C,21.7,C,ENV_SEA_T*0A
$AAMDA,,I,,B,,C,21.7,C,,,,C,,T,,M,,N,,M*00
$AADPT,1.81,0.00*48
$GLGSV,3,2,10,75,09,254,25,76,04,209,20,83,22,071,33,84,63,135,35*63
$GLGSV,3,3,10,85,32,215,36,,,,43*5C
$GNGLL,3651.91033,S,17443.42661,E,034451.00,A,A*66
$GNZDA,034451.00,02,02,2018,00,00*74
$GNRMC,034452.00,A,3651.91048,S,17443.42691,E,1.136,113.67,020218,,,A*6F
$AADPT,1.81,0.00*48
$AADBT,5.9,f,1.81,M,0.9,F*2C
$AADBS,5.9,f,1.81,M,0.9,F*2B
$AAMTW,21.7,C*17
$AAXDR,C,21.7,C,ENV_SEA_T*0A
$AAMDA,,I,,B,,C,21.7,C,,,,C,,T,,M,,N,,M*00
$AADPT,1.81,0.00*48
$GNVTG,113.67,T,,M,1.136,N,2.103,K,A*24
$GNGGA,034452.00,3651.91048,S,17443.42691,E,1,12,0.65,14.3,M,28.1,M,,*6E
$GNGSA,A,3,29,05,25,12,15,13,20,02,,,,,1.22,0.65,1.03*10
$GNGSA,A,3,68,69,85,83,84,75,70,,,,,,1.22,0.65,1.03*12
$GPGSV,3,1,12,02,33,104,35,04,,,32,05,66,134,40,06,03,094,11*43
$GPGSV,3,2,12,12,21,341,42,13,28,045,38,15,21,010,28,20,54,305,40*74
$AADPT,1.81,0.00*48
$GPGSV,3,3,12,21,09,259,,25,35,298,37,26,03,213,18,29,60,223,41*7D
$AADBT,5.9,f,1.81,M,0.9,F*2C
$GLGSV,3,1,10,68,22,148,33,69,71,114,34,70,41,347,36,74,00,301,*69
$AADBS,5.9,f,1.81,M,0.9,F*2B
$AAMTW,21.7,C*17
$AAXDR,C,21.7,C,ENV_SEA_T*0A
$AAMDA,,I,,B,,C,21.7,C,,,,C,,T,,M,,N,,M*00
$AADPT,1.81,0.00*48
$GLGSV,3,2,10,75,09,254,34,76,04,209,17,83,22,071,29,84,63,135,34*6D
$GLGSV,3,3,10,85,32,215,37,,,,41*5F
$GNGLL,3651.91048,S,17443.42691,E,034452.00,A,A*66
$GNZDA,034452.00,02,02,2018,00,00*77
$AADPT,1.87,0.00*4E
$AADBT,6.1,f,1.87,M,1.0,F*29
$GNRMC,034453.00,A,3651.91057,S,17443.42729,E,1.296,100.68,020218,,,A*66
$GNVTG,100.68,T,,M,1.296,N,2.400,K,A*26
$AADBS,6.1,f,1.87,M,1.0,F*2E
$AAMTW,21.7,C*17
$AAXDR,C,21.7,C,ENV_SEA_T*0A
$AAMDA,,I,,B,,C,21.7,C,,,,C,,T,,M,,N,,M*00
$AADPT,1.87,0.00*4E
$GNGGA,034453.00,3651.91057,S,17443.42729,E,1,12,0.65,14.2,M,28.1,M,,*62
$GNGSA,A,3,29,05,25,12,15,13,20,02,,,,,1.22,0.65,1.03*10
$GNGSA,A,3,68,69,85,83,84,75,70,,,,,,1.22,0.65,1.03*12
$GPGSV,3,1,12,02,33,104,32,04,,,31,05,66,134,41,06,03,094,13*44
$GPGSV,3,2,12,12,21,341,42,13,28,045,35,15,21,010,38,20,54,305,39*76
$GPGSV,3,3,12,21,09,259,,25,35,298,39,26,03,213,18,29,60,223,43*71
$AADPT,1.87,0.00*4E
$AADBT,6.1,f,1.87,M,1.0,F*29
$AADBS,6.1,f,1.87,M,1.0,F*2E
$AAMTW,21.7,C*17
$GLGSV,3,1,10,68,22,148,33,69,71,114,34,70,41,347,30,74,00,301,*6F
$AAXDR,C,21.7,C,ENV_SEA_T*0A
$AAMDA,,I,,B,,C,21.7,C,,,,C,,T,,M,,N,,M*00
$AADPT,1.87,0.00*4E
$GLGSV,3,2,10,75,09,254,27,76,04,209,22,83,22,071,29,84,63,135,35*68
$GLGSV,3,3,10,85,32,215,39,,,,41*51
$GNGLL,3651.91057,S,17443.42729,E,034453.00,A,A*6B
$GNZDA,034453.00,02,02,2018,00,00*76
$AADPT,1.87,0.00*4E
$GNRMC,034454.00,A,3651.91049,S,17443.42761,E,1.033,81.93,020218,,,A*53
$AADBT,6.1,f,1.87,M,1.0,F*29
$AADBS,6.1,f,1.87,M,1.0,F*2E
$AAMTW,21.7,C*17
$AAXDR,C,21.7,C,ENV_SEA_T*0A
$AAMDA,,I,,B,,C,21.7,C,,,,C,,T,,M,,N,,M*00
$AADPT,1.87,0.00*4E
$GNVTG,81.93,T,,M,1.033,N,1.913,K,A*1B
$GNGGA,034454.00,3651.91049,S,17443.42761,E,1,12,0.65,14.2,M,28.1,M,,*66
$GNGSA,A,3,29,05,25,12,15,13,20,02,,,,,1.22,0.65,1.03*10
$GNGSA,A,3,68,69,85,83,84,75,70,,,,,,1.22,0.65,1.03*12
$GPGSV,3,1,12,02,33,104,28,04,,,39,05,66,134,41,06,03,094,14*40
$GPGSV,3,2,12,12,21,341,33,13,28,045,35,15,21,010,30,20,54,305,37*76
$AADPT,1.87,0.00*4E
$AADBT,6.1,f,1.87,M,1.0,F*29
$AADBS,6.1,f,1.87,M,1.0,F*2E
$AAMTW,21.7,C*17
$GPGSV,3,3,12,21,09,259,,25,35,298,37,26,03,213,18,29,60,223,39*72
$GLGSV,3,1,10,68,22,148,34,69,71,114,28,70,41,347,41,74,00,301,*63
$AAXDR,C,21.7,C,ENV_SEA_T*0A
$AAMDA,,I,,B,,C,21.7,C,,,,C,,T,,M,,N,,M*00
$AADPT,1.87,0.00*4E
$GLGSV,3,2,10,75,09,254,26,76,04,209,21,83,22,071,35,84,63,135,29*6A
$GLGSV,3,3,10,85,32,215,32,,,,35*59
$GNGLL,3651.91049,S,17443.42761,E,034454.00,A,A*6F
$GNZDA,034454.00,02,02,2018,00,00*71
$AADPT,1.81,0.00*48
$AADBT,5.9,f,1.81,M,0.9,F*2C
$AADBS,5.9,f,1.81,M,0.9,F*2B
$AAMTW,21.7,C*17
$GNRMC,034455.00,A,3651.91042,S,17443.42793,E,1.081,75.42,020218,,,A*5A
$AAXDR,C,21.7,C,ENV_SEA_T*0A
$GNVTG,75.42,T,,M,1.081,N,2.001,K,A*1C
$AAMDA,,I,,B,,C,21.7,C,,,,C,,T,,M,,N,,M*00
$AADPT,1.81,0.00*48
$GNGGA,034455.00,3651.91042,S,17443.42793,E,1,12,0.65,14.1,M,28.1,M,,*62
$GNGSA,A,3,29,05,25,12,15,13,20,02,,,,,1.22,0.65,1.03*10
$GNGSA,A,3,68,69,85,83,84,75,70,,,,,,1.22,0.65,1.03*12
$GPGSV,3,1,12,02,33,104,39,04,,,34,05,66,134,42,06,03,094,11*4B
$GPGSV,3,2,12,12,21,341,37,13,28,045,35,15,21,010,32,20,54,305,38*7F
$GPGSV,3,3,12,21,09,259,,25,34,299,30,26,03,213,14,29,60,223,42*75
$AADPT,1.81,0.00*48
$AADBT,5.9,f,1.81,M,0.9,F*2C
$AADBS,5.9,f,1.81,M,0.9,F*2B
$AAMTW,21.7,C*17
$AAXDR,C,21.7,C,ENV_SEA_T*0A
$AAMDA,,I,,B,,C,21.7,C,,,,C,,T,,M,,N,,M*00
$AADPT,1.81,0.00*48
$GLGSV,3,1,10,68,22,148,33,69,71,114,35,70,41,347,39,74,00,301,*67
$GLGSV,3,2,10,75,09,254,34,76,04,209,16,83,22,071,40,84,63,135,32*65
$GLGSV,3,3,10,85,32,215,36,,,,40*5F
$GNGLL,3651.91042,S,17443.42793,E,034455.00,A,A*68
$GNZDA,034455.00,02,02,2018,00,00*70
$AADPT,1.81,0.00*48
$AADBT,5.9,f,1.81,M,0.9,F*2C
$AADBS,5.9,f,1.81,M,0.9,F*2B
$AAMTW,21.7,C*17
$AAXDR,C,21.7,C,ENV_SEA_T*0A
$AAMDA,,I,,B,,C,21.7,C,,,,C,,T,,M,,N,,M*00
$AADPT,1.81,0.00*48
$GNRMC,034456.00,A,3651.91037,S,17443.42817,E,0.481,80.65,020218,,,A*52
$GNVTG,80.65,T,,M,0.481,N,0.891,K,A*15
$GNGGA,034456.00,3651.91037,S,17443.42817,E,1,12,0.65,14.4,M,28.1,M,,*65
$GNGSA,A,3,29,05,25,12,15,13,20,02,,,,,1.22,0.65,1.03*10
$GNGSA,A,3,68,69,85,83,84,75,70,,,,,,1.22,0.65,1.03*12
$GPGSV,3,1,12,02,33,104,37,04,,,24,05,66,134,41,06,03,094,14*42
$GPGSV,3,2,12,12,21,341,42,13,28,045,38,15,21,010,35,20,54,305,41*79
$GPGSV,3,3,12,21,09,259,,25,34,299,32,26,03,213,14,29,60,223,42*77
$AADPT,1.81,0.00*48
$AADBT,5.9,f,1.81,M,0.9,F*2C
$AADBS,5.9,f,1.81,M,0.9,F*2B
$AAMTW,21.7,C*17
$AAXDR,C,21.7,C,ENV_SEA_T*0A
$AAMDA,,I,,B,,C,21.7,C,,,,C,,T,,M,,N,,M*00
$AADPT,1.81,0.00*48
$GLGSV,3,1,10,68,22,148,39,69,71,114,37,70,41,347,34,74,00,301,*62
