$GNRMC,025507.00,A,3651.98893,S,17443.43165,E,0.017,,260118,,,A*7E
$GNVTG,,T,,M,0.017,N,0.031,K,A*39
$GNGGA,025507.00,3651.98893,S,17443.43165,E,1,11,0.82,14.5,M,28.1,M,,*69
$GNGSA,A,3,02,06,19,05,12,25,,,,,,,1.29,0.82,1.00*10
$GNGSA,A,3,84,70,74,68,69,,,,,,,,1.29,0.82,1.00*14
$GPGSV,3,1,10,02,58,143,27,05,70,013,35,06,26,119,28,09,10,130,*7B
$GPGSV,3,2,10,12,55,316,29,13,01,023,,19,18,067,32,20,20,327,17*76
$GPGSV,3,3,10,25,44,250,25,29,27,229,08*70
$AAMTW,26.6,C*11
$AAXDR,C,26.6,C,ENV_SEA_T*0C
$AAMDA,,I,,B,,C,26.6,C,,,,C,,T,,M,,N,,M*06
$GLGSV,3,1,11,68,10,154,26,69,50,116,33,70,43,023,27,71,02,353,*65
$GLGSV,3,2,11,74,11,320,18,75,26,268,27,76,15,219,,83,03,083,13*6E
$GLGSV,3,3,11,84,45,121,31,85,45,207,,86,03,244,*5E
$GNGLL,3651.98893,S,17443.43165,E,025507.00,A,A*6D
$GNZDA,025507.00,26,01,2018,00,00*73
$AAMTW,26.6,C*11
$AAXDR,C,26.6,C,ENV_SEA_T*0C
$AAMDA,,I,,B,,C,26.6,C,,,,C,,T,,M,,N,,M*06
$GNRMC,025508.00,A,3651.98895,S,17443.43168,E,0.116,,260118,,,A*7A
$GNVTG,,T,,M,0.116,N,0.215,K,A*3D
$GNGGA,025508.00,3651.98895,S,17443.43168,E,1,12,0.71,14.6,M,28.1,M,,*61
$GNGSA,A,3,02,06,29,19,05,12,25,,,,,,1.22,0.71,0.99*1D
$GNGSA,A,3,84,70,74,68,69,,,,,,,,1.22,0.71,0.99*12
$GPGSV,3,1,10,02,58,143,30,05,70,013,35,06,26,119,27,09,10,130,*72
$GPGSV,3,2,10,12,55,316,28,13,01,023,,19,17,066,33,20,20,327,15*7A
$GPGSV,3,3,10,25,44,250,23,29,27,229,09*77
$AAMTW,26.6,C*11
$AAXDR,C,26.6,C,ENV_SEA_T*0C
$AAMDA,,I,,B,,C,26.6,C,,,,C,,T,,M,,N,,M*06
$GLGSV,3,1,11,68,10,154,25,69,50,116,33,70,43,023,28,71,02,353,*69
$GLGSV,3,2,11,74,11,320,16,75,26,268,25,76,15,219,,83,03,083,11*60
$GLGSV,3,3,11,84,45,121,32,85,45,207,,86,03,244,*5D
$GNGLL,3651.98895,S,17443.43168,E,025508.00,A,A*69
$GNZDA,025508.00,26,01,2018,00,00*7C
$AAMTW,26.6,C*11
$AAXDR,C,26.6,C,ENV_SEA_T*0C
$AAMDA,,I,,B,,C,26.6,C,,,,C,,T,,M,,N,,M*06
$GNRMC,025509.00,A,3651.98897,S,17443.43172,E,0.037,,260118,,,A*70
$GNVTG,,T,,M,0.037,N,0.068,K,A*37
$GNGGA,025509.00,3651.98897,S,17443.43172,E,1,12,0.71,14.6,M,28.1,M,,*69
$GNGSA,A,3,02,06,29,19,05,12,25,,,,,,1.22,0.71,0.99*1D
$GNGSA,A,3,84,70,74,68,69,,,,,,,,1.22,0.71,0.99*12
$GPGSV,3,1,10,02,58,143,31,05,70,013,35,06,26,119,27,09,10,130,*73
$GPGSV,3,2,10,12,55,316,28,13,01,023,,19,17,066,32,20,20,326,13*7C
$GPGSV,3,3,10,25,44,250,22,29,27,229,09*76
$AAMTW,26.6,C*11
$AAXDR,C,26.6,C,ENV_SEA_T*0C
$AAMDA,,I,,B,,C,26.6,C,,,,C,,T,,M,,N,,M*06
$GLGSV,3,1,11,68,10,154,25,69,50,116,32,70,43,023,28,71,02,353,*68
$GLGSV,3,2,11,74,11,320,17,75,26,268,24,76,15,219,,83,03,083,12*63
$GLGSV,3,3,11,84,45,121,31,85,45,207,,86,03,244,*5E
$GNGLL,3651.98897,S,17443.43172,E,025509.00,A,A*61
$GNZDA,025509.00,26,01,2018,00,00*7D
$AAMTW,26.6,C*11
$AAXDR,C,26.6,C,ENV_SEA_T*0C
$AAMDA,,I,,B,,C,26.6,C,,,,C,,T,,M,,N,,M*06
$GNRMC,025510.00,A,3651.98900,S,17443.43179,E,0.189,,260118,,,A*78
$GNVTG,,T,,M,0.189,N,0.350,K,A*3B
$GNGGA,025510.00,3651.98900,S,17443.43179,E,1,12,0.82,14.8,M,28.1,M,,*67
$GNGSA,A,3,02,06,29,19,05,12,25,,,,,,1.29,0.82,1.00*1B
$GNGSA,A,3,84,70,74,68,69,,,,,,,,1.29,0.82,1.00*14
$GPGSV,3,1,10,02,58,143,32,05,70,013,35,06,26,119,27,09,10,130,*70
$GPGSV,3,2,10,12,55,316,29,13,01,023,,19,17,066,32,20,20,326,12*7C
$GPGSV,3,3,10,25,44,250,21,29,27,229,10*7D
$AAMTW,26.6,C*11
$AAXDR,C,26.6,C,ENV_SEA_T*0C
$AAMDA,,I,,B,,C,26.6,C,,,,C,,T,,M,,N,,M*06
$GLGSV,3,1,11,68,10,154,24,69,50,116,32,70,43,023,28,71,02,353,*69
$GLGSV,3,2,11,74,11,320,16,75,26,268,22,76,15,219,,83,03,083,11*67
$GLGSV,3,3,11,84,45,121,31,85,45,207,,86,03,244,*5E
$GNGLL,3651.98900,S,17443.43179,E,025510.00,A,A*6D
$GNZDA,025510.00,26,01,2018,00,00*75
$AAMTW,26.6,C*11
$AAXDR,C,26.6,C,ENV_SEA_T*0C
$AAMDA,,I,,B,,C,26.6,C,,,,C,,T,,M,,N,,M*06
$GNRMC,025511.00,A,3651.98900,S,17443.43180,E,0.107,,260118,,,A*79
$GNVTG,,T,,M,0.107,N,0.198,K,A*3B
$GNGGA,025511.00,3651.98900,S,17443.43180,E,1,12,0.73,14.8,M,28.1,M,,*6E
$GNGSA,A,3,02,06,29,19,05,12,25,,,,,,1.25,0.73,1.02*1B
$GNGSA,A,3,84,70,74,68,69,,,,,,,,1.25,0.73,1.02*14
$GPGSV,3,1,10,02,58,143,32,05,70,013,34,06,26,119,26,09,10,130,08*78
$GPGSV,3,2,10,12,55,316,30,13,01,023,,19,17,066,33,20,20,326,09*7F
$GPGSV,3,3,10,25,44,250,19,29,27,229,10*76
$AAMTW,26.6,C*11
$AAXDR,C,26.6,C,ENV_SEA_T*0C
$AAMDA,,I,,B,,C,26.6,C,,,,C,,T,,M,,N,,M*06
$GLGSV,3,1,11,68,10,154,23,69,50,116,31,70,43,023,27,71,02,353,*62
$GLGSV,3,2,11,74,11,320,18,75,26,268,22,76,15,219,,83,03,083,10*68
$GLGSV,3,3,11,84,45,121,31,85,45,207,,86,03,244,*5E
$GNGLL,3651.98900,S,17443.43180,E,025511.00,A,A*6A
$GNZDA,025511.00,26,01,2018,00,00*74
$AAMTW,26.6,C*11
$AAXDR,C,26.6,C,ENV_SEA_T*0C
$AAMDA,,I,,B,,C,26.6,C,,,,C,,T,,M,,N,,M*06
$GNRMC,025512.00,A,3651.98903,S,17443.43181,E,0.028,,260118,,,A*74
$GNVTG,,T,,M,0.028,N,0.052,K,A*30
$GNGGA,025512.00,3651.98903,S,17443.43181,E,1,11,0.83,14.7,M,28.1,M,,*6C
$GNGSA,A,3,02,06,19,05,12,25,,,,,,,1.33,0.83,1.04*1E
$GNGSA,A,3,84,70,74,68,69,,,,,,,,1.33,0.83,1.04*1A
$GPGSV,3,1,10,02,58,143,32,05,70,013,35,06,26,119,27,09,10,130,13*72
$AAMTW,26.6,C*11
$AAXDR,C,26.6,C,ENV_SEA_T*0C
$GPGSV,3,2,10,12,55,316,31,13,01,023,,19,17,066,33,20,20,326,10*76
$GPGSV,3,3,10,25,44,250,17,29,27,229,07*7E
$AAMDA,,I,,B,,C,26.6,C,,,,C,,T,,M,,N,,M*06
$GLGSV,3,1,11,68,10,154,21,69,50,116,29,70,43,023,27,71,02,353,*69
$GLGSV,3,2,11,74,11,320,11,75,26,268,22,76,15,219,,83,03,083,10*61
$GLGSV,3,3,11,84,45,121,30,85,45,207,,86,03,244,*5F
$GNGLL,3651.98903,S,17443.43181,E,025512.00,A,A*6B
$GNZDA,025512.00,26,01,2018,00,00*77
$AAMTW,26.6,C*11
$AAXDR,C,26.6,C,ENV_SEA_T*0C
$AAMDA,,I,,B,,C,26.6,C,,,,C,,T,,M,,N,,M*06
$GNRMC,025513.00,A,3651.98901,S,17443.43184,E,0.169,,260118,,,A*76
$GNVTG,,T,,M,0.169,N,0.312,K,A*33
$GNGGA,025513.00,3651.98901,S,17443.43184,E,1,12,0.83,14.8,M,28.1,M,,*66
$GNGSA,A,3,02,06,29,19,20,05,12,25,,,,,1.33,0.83,1.04*17
$GNGSA,A,3,84,70,74,68,69,,,,,,,,1.33,0.83,1.04*1A
$GPGSV,3,1,10,02,58,143,32,05,70,013,34,06,26,119,27,09,10,130,18*78
$GPGSV,3,2,10,12,55,316,31,13,01,023,,19,17,066,29,20,20,326,11*7C
$AAMTW,26.6,C*11
$GPGSV,3,3,10,25,44,250,15,29,27,229,15*7F
$AAXDR,C,26.6,C,ENV_SEA_T*0C
$AAMDA,,I,,B,,C,26.6,C,,,,C,,T,,M,,N,,M*06
$GLGSV,3,1,11,68,10,154,20,69,50,116,30,70,43,023,27,71,02,353,*60
$GLGSV,3,2,11,74,11,320,11,75,26,268,22,76,15,219,,83,03,083,13*62
$GLGSV,3,3,11,84,45,121,31,85,45,207,,86,03,244,*5E
$GNGLL,3651.98901,S,17443.43184,E,025513.00,A,A*6D
$GNZDA,025513.00,26,01,2018,00,00*76
$AAMTW,26.6,C*11
$AAXDR,C,26.6,C,ENV_SEA_T*0C
$AAMDA,,I,,B,,C,26.6,C,,,,C,,T,,M,,N,,M*06
$GNRMC,025514.00,A,3651.98904,S,17443.43188,E,0.077,,260118,,,A*76
$GNVTG,,T,,M,0.077,N,0.143,K,A*3B
$GNGGA,025514.00,3651.98904,S,17443.43188,E,1,12,0.71,14.9,M,28.1,M,,*64
$GNGSA,A,3,02,06,29,19,20,05,09,12,25,,,,1.18,0.71,0.94*12
$GNGSA,A,3,84,70,74,68,69,,,,,,,,1.18,0.71,0.94*16
$GPGSV,3,1,10,02,58,143,35,05,70,013,35,06,26,119,27,09,10,130,18*7E
$AAMTW,26.6,C*11
$GPGSV,3,2,10,12,55,316,32,13,01,023,,19,17,066,28,20,20,326,12*7D
$AAXDR,C,26.6,C,ENV_SEA_T*0C
$GPGSV,3,3,10,25,44,251,10,29,27,229,15*7B
$AAMDA,,I,,B,,C,26.6,C,,,,C,,T,,M,,N,,M*06
$GLGSV,3,1,11,68,10,154,21,69,50,116,32,70,43,023,29,71,02,353,*6D
$GLGSV,3,2,11,74,11,320,15,75,26,268,22,76,15,219,,83,03,083,10*65
$GLGSV,3,3,11,84,45,121,32,85,45,207,,86,03,244,*5D
$GNGLL,3651.98904,S,17443.43188,E,025514.00,A,A*63
$GNZDA,025514.00,26,01,2018,00,00*71
$AAMTW,26.6,C*11
$AAXDR,C,26.6,C,ENV_SEA_T*0C
$AAMDA,,I,,B,,C,26.6,C,,,,C,,T,,M,,N,,M*06
$GNRMC,025515.00,A,3651.98911,S,17443.43188,E,0.040,,260118,,,A*77
$GNVTG,,T,,M,0.040,N,0.073,K,A*3D
$GNGGA,025515.00,3651.98911,S,17443.43188,E,1,12,0.71,15.0,M,28.1,M,,*69
$GNGSA,A,3,02,06,29,19,20,05,09,12,25,,,,1.18,0.71,0.94*12
$GNGSA,A,3,84,70,74,68,69,,,,,,,,1.18,0.71,0.94*16
$GPGSV,3,1,10,02,58,143,34,05,70,013,34,06,26,119,27,09,10,130,18*7E
$AAMTW,26.6,C*11
$GPGSV,3,2,10,12,55,316,32,13,01,023,,19,17,066,28,20,20,326,12*7D
$AAXDR,C,26.6,C,ENV_SEA_T*0C
$GPGSV,3,3,10,25,44,251,11,29,27,229,15*7A
$AAMDA,,I,,B,,C,26.6,C,,,,C,,T,,M,,N,,M*06
$GLGSV,3,1,11,68,10,154,22,69,50,116,30,70,43,023,29,71,02,353,*6C
$GLGSV,3,2,11,74,11,320,15,75,26,268,22,76,15,219,,83,03,083,11*64
$GLGSV,3,3,11,84,45,121,31,85,45,207,,86,03,244,*5E
$GNGLL,3651.98911,S,17443.43188,E,025515.00,A,A*66
$GNZDA,025515.00,26,01,2018,00,00*70
$AAMTW,26.6,C*11
$AAXDR,C,26.6,C,ENV_SEA_T*0C
$AAMDA,,I,,B,,C,26.6,C,,,,C,,T,,M,,N,,M*06
$GNRMC,025516.00,A,3651.98915,S,17443.43191,E,0.081,,260118,,,A*75
$GNVTG,,T,,M,0.081,N,0.151,K,A*31
$GNGGA,025516.00,3651.98915,S,17443.43191,E,1,12,0.76,15.1,M,28.1,M,,*60
$GNGSA,A,3,02,06,29,19,20,05,09,12,25,,,,1.21,0.76,0.95*1E
$GNGSA,A,3,84,70,74,68,69,,,,,,,,1.21,0.76,0.95*1A
$GPGSV,3,1,10,02,58,143,35,05,70,013,34,06,26,119,27,09,10,130,17*70
$AAMTW,26.6,C*11
$AAXDR,C,26.6,C,ENV_SEA_T*0C
$GPGSV,3,2,10,12,55,316,32,13,01,023,,19,17,066,27,20,20,326,15*75
$GPGSV,3,3,10,25,44,251,16,29,27,229,14*7C
$AAMDA,,I,,B,,C,26.6,C,,,,C,,T,,M,,N,,M*06
$GLGSV,3,1,11,68,10,154,22,69,50,116,31,70,43,023,29,71,02,353,*6D
$GLGSV,3,2,11,74,11,320,12,75,26,268,22,76,15,219,22,83,03,083,07*64
$GLGSV,3,3,11,84,45,121,31,85,45,207,,86,03,244,*5E
$GNGLL,3651.98915,S,17443.43191,E,025516.00,A,A*69
$GNZDA,025516.00,26,01,2018,00,00*73
$AAMTW,26.6,C*11
$AAXDR,C,26.6,C,ENV_SEA_T*0C
$AAMDA,,I,,B,,C,26.6,C,,,,C,,T,,M,,N,,M*06
$GNRMC,025517.00,A,3651.98918,S,17443.43189,E,0.035,,260118,,,A*7F
$GNVTG,,T,,M,0.035,N,0.065,K,A*38
$GNGGA,025517.00,3651.98918,S,17443.43189,E,1,12,0.69,15.1,M,28.1,M,,*6B
$GNGSA,A,3,02,06,29,19,20,05,09,12,25,,,,1.15,0.69,0.91*13
$GNGSA,A,3,84,70,74,68,69,,,,,,,,1.15,0.69,0.91*17
$GPGSV,3,1,10,02,58,143,35,05,70,013,35,06,26,119,27,09,10,130,17*71
$AAMTW,26.6,C*11
$AAXDR,C,26.6,C,ENV_SEA_T*0C
$GPGSV,3,2,10,12,55,316,32,13,01,023,,19,17,066,26,20,20,326,16*77
$AAMDA,,I,,B,,C,26.6,C,,,,C,,T,,M,,N,,M*06
$GPGSV,3,3,10,25,44,251,12,29,27,229,16*7A
$GLGSV,3,1,11,68,10,154,23,69,50,116,31,70,43,023,29,71,02,353,*6C
$GLGSV,3,2,11,74,11,320,10,75,26,268,22,76,15,219,,83,03,083,08*69
$GLGSV,3,3,11,84,45,121,31,85,45,207,,86,03,244,*5E
$GNGLL,3651.98918,S,17443.43189,E,025517.00,A,A*6C
$GNZDA,025517.00,26,01,2018,00,00*72
$AAMTW,26.6,C*11
$AAXDR,C,26.6,C,ENV_SEA_T*0C
$AAMDA,,I,,B,,C,26.6,C,,,,C,,T,,M,,N,,M*06
$GNRMC,025518.00,A,3651.98922,S,17443.43183,E,0.142,,260118,,,A*72
$GNVTG,,T,,M,0.142,N,0.262,K,A*3C
$GNGGA,025518.00,3651.98922,S,17443.43183,E,1,12,0.69,14.9,M,28.1,M,,*6E
$GNGSA,A,3,02,06,29,19,20,05,09,12,25,,,,1.15,0.69,0.91*13
$GNGSA,A,3,84,70,74,68,69,,,,,,,,1.15,0.69,0.91*17
$GPGSV,3,1,10,02,58,143,35,05,70,013,35,06,26,119,26,09,10,130,17*70
$AAMTW,26.6,C*11
$AAXDR,C,26.6,C,ENV_SEA_T*0C
$AAMDA,,I,,B,,C,26.6,C,,,,C,,T,,M,,N,,M*06
$GPGSV,3,2,10,12,55,316,33,13,01,023,,19,17,066,24,20,20,326,16*74
$GPGSV,3,3,10,25,44,251,14,29,27,229,16*7C
$GLGSV,3,1,11,68,10,154,23,69,50,116,32,70,43,023,29,71,02,353,*6F
$GLGSV,3,2,11,74,11,320,10,75,26,268,23,76,15,219,,83,03,083,12*63
$GLGSV,3,3,11,84,45,121,32,85,45,207,,86,03,244,*5D
$GNGLL,3651.98922,S,17443.43183,E,025518.00,A,A*60
$GNZDA,025518.00,26,01,2018,00,00*7D
$AAMTW,26.6,C*11
$AAXDR,C,26.6,C,ENV_SEA_T*0C
$AAMDA,,I,,B,,C,26.6,C,,,,C,,T,,M,,N,,M*06
$GNRMC,025519.00,A,3651.98930,S,17443.43179,E,0.178,,260118,,,A*7C
$GNVTG,,T,,M,0.178,N,0.330,K,A*33
$GNGGA,025519.00,3651.98930,S,17443.43179,E,1,12,0.75,14.8,M,28.1,M,,*65
$GNGSA,A,3,02,06,29,19,20,05,09,12,25,,,,1.30,0.75,1.06*16
$GNGSA,A,3,84,70,74,68,69,,,,,,,,1.30,0.75,1.06*12
$GPGSV,3,1,10,02,58,143,35,05,70,013,35,06,26,119,27,09,10,130,17*71
$AAMTW,26.6,C*11
$AAXDR,C,26.6,C,ENV_SEA_T*0C
$AAMDA,,I,,B,,C,26.6,C,,,,C,,T,,M,,N,,M*06
$GPGSV,3,2,10,12,55,316,33,13,01,023,,19,17,066,21,20,20,326,15*72
$GPGSV,3,3,10,25,44,251,15,29,27,229,10*7B
$GLGSV,3,1,11,68,10,154,23,69,50,116,33,70,43,023,29,71,02,353,*6E
$GLGSV,3,2,11,74,11,320,09,75,26,268,23,76,15,219,,83,03,083,12*6B
$GLGSV,3,3,11,84,45,121,32,85,45,207,,86,03,244,*5D
$GNGLL,3651.98930,S,17443.43179,E,025519.00,A,A*67
$GNZDA,025519.00,26,01,2018,00,00*7C
$AAMTW,26.6,C*11
$AAXDR,C,26.6,C,ENV_SEA_T*0C
$AAMDA,,I,,B,,C,26.6,C,,,,C,,T,,M,,N,,M*06
$GNRMC,025520.00,A,3651.98936,S,17443.43177,E,0.111,,260118,,,A*71
$GNVTG,,T,,M,0.111,N,0.206,K,A*38
$GNGGA,025520.00,3651.98936,S,17443.43177,E,1,12,0.88,14.7,M,28.1,M,,*6A
$GNGSA,A,3,02,06,19,20,05,09,12,25,,,,,1.36,0.88,1.04*1B
$GNGSA,A,3,84,70,74,68,69,,,,,,,,1.36,0.88,1.04*14
$GPGSV,3,1,10,02,58,143,35,05,70,013,35,06,26,119,27,09,10,130,17*71
$AAMTW,26.6,C*11
$AAXDR,C,26.6,C,ENV_SEA_T*0C
$AAMDA,,I,,B,,C,26.6,C,,,,C,,T,,M,,N,,M*06
$GPGSV,3,2,10,12,55,316,33,13,01,023,,19,17,066,19,20,20,326,15*79
$GPGSV,3,3,10,25,44,251,15,29,27,229,10*7B
$GLGSV,3,1,11,68,10,154,24,69,50,116,33,70,43,023,29,71,02,353,*69
$GLGSV,3,2,11,74,11,320,12,75,26,268,24,76,15,219,,83,03,083,10*64
$GLGSV,3,3,11,84,45,121,32,85,45,207,,86,03,244,*5D
$AAMTW,26.6,C*11
$GNGLL,3651.98936,S,17443.43177,E,025520.00,A,A*65
$AAXDR,C,26.6,C,ENV_SEA_T*0C
$GNZDA,025520.00,26,01,2018,00,00*76
$AAMDA,,I,,B,,C,26.6,C,,,,C,,T,,M,,N,,M*06
$GNRMC,025521.00,A,3651.98944,S,17443.43174,E,0.050,,260118,,,A*72
$GNVTG,,T,,M,0.050,N,0.092,K,A*33
$GNGGA,025521.00,3651.98944,S,17443.43174,E,1,12,0.73,14.6,M,28.1,M,,*68
$GNGSA,A,3,02,06,29,19,20,05,09,12,25,,,,1.24,0.73,1.00*13
$GNGSA,A,3,84,70,74,68,69,,,,,,,,1.24,0.73,1.00*17
$GPGSV,3,1,10,02,58,143,35,05,70,013,36,06,26,119,27,09,10,130,16*73
$AAMTW,26.6,C*11
$AAXDR,C,26.6,C,ENV_SEA_T*0C
$AAMDA,,I,,B,,C,26.6,C,,,,C,,T,,M,,N,,M*06
$GPGSV,3,2,10,12,55,316,33,13,01,023,,19,17,066,17,20,20,326,17*75
$GPGSV,3,3,10,25,44,251,15,29,27,229,13*78
$GLGSV,3,1,11,68,10,154,23,69,50,116,33,70,43,023,30,71,02,353,*66
$GLGSV,3,2,11,74,11,320,10,75,26,268,23,76,15,219,,83,03,083,13*62
$GLGSV,3,3,11,84,45,121,31,85,45,207,,86,03,244,*5E
$AAMTW,26.6,C*11
$GNGLL,3651.98944,S,17443.43174,E,025521.00,A,A*62
$AAXDR,C,26.6,C,ENV_SEA_T*0C
$GNZDA,025521.00,26,01,2018,00,00*77
$AAMDA,,I,,B,,C,26.6,C,,,,C,,T,,M,,N,,M*06
$GNRMC,025522.00,A,3651.98953,S,17443.43170,E,0.052,,260118,,,A*71
$GNVTG,,T,,M,0.052,N,0.097,K,A*34
$GNGGA,025522.00,3651.98953,S,17443.43170,E,1,12,0.73,14.5,M,28.1,M,,*6A
$GNGSA,A,3,02,06,29,19,20,05,09,12,25,,,,1.24,0.73,1.00*13
$GNGSA,A,3,84,70,74,68,69,,,,,,,,1.24,0.73,1.00*17
$GPGSV,3,1,10,02,58,143,35,05,70,013,36,06,26,119,27,09,10,130,15*70
$AAMTW,26.6,C*11
$AAXDR,C,26.6,C,ENV_SEA_T*0C
$AAMDA,,I,,B,,C,26.6,C,,,,C,,T,,M,,N,,M*06
$GPGSV,3,2,10,12,55,316,33,13,01,023,,19,17,066,16,20,20,326,17*74
$GPGSV,3,3,10,25,44,251,15,29,27,229,15*7E
$GLGSV,3,1,11,68,10,154,22,69,50,116,32,70,43,023,31,71,02,353,*67
$GLGSV,3,2,11,74,11,320,12,75,26,268,23,76,15,219,,83,03,083,13*60
$GLGSV,3,3,11,84,45,121,31,85,45,207,,86,03,244,*5E
$AAMTW,26.6,C*11
$AAXDR,C,26.6,C,ENV_SEA_T*0C
$GNGLL,3651.98953,S,17443.43170,E,025522.00,A,A*63
$GNZDA,025522.00,26,01,2018,00,00*74
$AAMDA,,I,,B,,C,26.6,C,,,,C,,T,,M,,N,,M*06
$GNRMC,025523.00,A,3651.98964,S,17443.43167,E,0.124,,260118,,,A*72
$GNVTG,,T,,M,0.124,N,0.230,K,A*3B
$GNGGA,025523.00,3651.98964,S,17443.43167,E,1,12,0.73,14.3,M,28.1,M,,*6F
$GNGSA,A,3,02,06,29,19,20,05,09,12,25,,,,1.24,0.73,1.00*13
$GNGSA,A,3,84,70,74,68,69,,,,,,,,1.24,0.73,1.00*17
$GPGSV,3,1,10,02,58,143,35,05,70,013,35,06,26,119,27,09,10,130,11*77
$AAMTW,26.6,C*11
$AAXDR,C,26.6,C,ENV_SEA_T*0C
$AAMDA,,I,,B,,C,26.6,C,,,,C,,T,,M,,N,,M*06
$GPGSV,3,2,10,12,55,316,32,13,01,023,,19,17,066,18,20,20,326,15*79
$GPGSV,3,3,10,25,44,251,15,29,27,229,15*7E
$GLGSV,3,1,11,68,10,154,21,69,50,116,33,70,43,023,31,71,02,353,*65
$GLGSV,3,2,11,74,11,320,14,75,26,268,22,76,15,219,,83,03,083,15*61
$GLGSV,3,3,11,84,45,121,32,85,45,207,,86,03,244,*5D
$AAMTW,26.6,C*11
$AAXDR,C,26.6,C,ENV_SEA_T*0C
$GNGLL,3651.98964,S,17443.43167,E,025523.00,A,A*60
$AAMDA,,I,,B,,C,26.6,C,,,,C,,T,,M,,N,,M*06
$GNZDA,025523.00,26,01,2018,00,00*75
$GNRMC,025524.00,A,3651.98970,S,17443.43163,E,0.090,,260118,,,A*7A
$GNVTG,,T,,M,0.090,N,0.166,K,A*35
$GNGGA,025524.00,3651.98970,S,17443.43163,E,1,12,0.72,14.1,M,28.1,M,,*6A
$GNGSA,A,3,02,06,29,19,20,05,09,12,25,,,,1.23,0.72,0.99*14
$GNGSA,A,3,84,70,74,68,69,,,,,,,,1.23,0.72,0.99*10
$GPGSV,3,1,10,02,58,143,34,05,70,013,35,06,26,119,27,09,10,130,12*75
$AAMTW,26.6,C*11
$AAXDR,C,26.6,C,ENV_SEA_T*0C
$AAMDA,,I,,B,,C,26.6,C,,,,C,,T,,M,,N,,M*06
$GPGSV,3,2,10,12,55,316,33,13,01,023,,19,17,066,21,20,20,326,16*71
$GPGSV,3,3,10,25,44,251,09,29,27,229,14*72
$GLGSV,3,1,11,68,10,154,21,69,50,116,33,70,43,023,30,71,02,353,*64
$GLGSV,3,2,11,74,11,320,15,75,26,268,23,76,15,219,,83,03,083,14*60
$GLGSV,3,3,11,84,45,121,32,85,45,207,,86,03,244,*5D
$AAMTW,26.6,C*11
$AAXDR,C,26.6,C,ENV_SEA_T*0C
$AAMDA,,I,,B,,C,26.6,C,,,,C,,T,,M,,N,,M*06
$GNGLL,3651.98970,S,17443.43163,E,025524.00,A,A*66
$GNZDA,025524.00,26,01,2018,00,00*72
$GNRMC,025525.00,A,3651.98978,S,17443.43160,E,0.181,,260118,,,A*71
$GNVTG,,T,,M,0.181,N,0.335,K,A*30
$GNGGA,025525.00,3651.98978,S,17443.43160,E,1,12,0.77,14.1,M,28.1,M,,*65
$GNGSA,A,3,02,06,29,19,20,05,09,12,25,,,,1.26,0.77,1.00*15
$GNGSA,A,3,84,70,74,68,69,,,,,,,,1.26,0.77,1.00*11
$GPGSV,3,1,10,02,58,143,33,05,70,013,36,06,26,119,27,09,10,130,12*71
$AAMTW,26.6,C*11
$AAXDR,C,26.6,C,ENV_SEA_T*0C
$AAMDA,,I,,B,,C,26.6,C,,,,C,,T,,M,,N,,M*06
$GPGSV,3,2,10,12,55,316,33,13,01,023,,19,17,066,22,20,20,326,17*73
$GPGSV,3,3,10,25,44,251,10,29,27,229,15*7B
$GLGSV,3,1,11,68,10,154,21,69,50,116,33,70,43,023,30,71,02,353,*64
$GLGSV,3,2,11,74,11,320,16,75,26,268,23,76,15,219,,83,03,083,16*61
$GLGSV,3,3,11,84,45,121,32,85,45,207,,86,03,244,*5D
$AAMTW,26.6,C*11
$AAXDR,C,26.6,C,ENV_SEA_T*0C
$GNGLL,3651.98978,S,17443.43160,E,025525.00,A,A*6C
$AAMDA,,I,,B,,C,26.6,C,,,,C,,T,,M,,N,,M*06
$GNZDA,025525.00,26,01,2018,00,00*73
$GNRMC,025526.00,A,3651.98982,S,17443.43155,E,0.135,,260118,,,A*7E
$GNVTG,,T,,M,0.135,N,0.249,K,A*35
$GNGGA,025526.00,3651.98982,S,17443.43155,E,1,12,0.78,13.9,M,28.1,M,,*65
$GNGSA,A,3,02,06,29,19,20,05,09,12,25,,,,1.40,0.78,1.17*1C
$GNGSA,A,3,84,70,74,68,69,,,,,,,,1.40,0.78,1.17*18
$GPGSV,3,1,10,02,58,143,33,05,70,013,35,06,26,119,27,09,10,130,15*75
$AAMTW,26.6,C*11
$AAXDR,C,26.6,C,ENV_SEA_T*0C
$AAMDA,,I,,B,,C,26.6,C,,,,C,,T,,M,,N,,M*06
$GPGSV,3,2,10,12,55,316,34,13,01,023,,19,17,066,25,20,20,326,17*73
$GPGSV,3,3,10,25,44,251,10,29,27,229,15*7B
$GLGSV,3,1,11,68,10,154,21,69,50,116,33,70,43,023,30,71,02,353,*64
$GLGSV,3,2,11,74,11,320,11,75,26,268,24,76,15,219,,83,03,083,14*63
$GLGSV,3,3,11,84,45,121,32,85,45,207,,86,03,244,*5D
$AAMTW,26.6,C*11
$AAXDR,C,26.6,C,ENV_SEA_T*0C
$AAMDA,,I,,B,,C,26.6,C,,,,C,,T,,M,,N,,M*06
$GNGLL,3651.98982,S,17443.43155,E,025526.00,A,A*6C
$GNZDA,025526.00,26,01,2018,00,00*70
$GNRMC,025527.00,A,3651.98985,S,17443.43155,E,0.095,,260118,,,A*73
$GNVTG,,T,,M,0.095,N,0.177,K,A*30
$GNGGA,025527.00,3651.98985,S,17443.43155,E,1,12,0.78,13.7,M,28.1,M,,*6D
$GNGSA,A,3,02,06,29,19,20,05,09,12,25,,,,1.40,0.78,1.17*1C
$GNGSA,A,3,84,70,74,68,69,,,,,,,,1.40,0.78,1.17*18
$GPGSV,3,1,10,02,58,143,34,05,70,013,35,06,26,119,27,09,10,130,10*77
$AAMTW,26.6,C*11
$AAXDR,C,26.6,C,ENV_SEA_T*0C
$AAMDA,,I,,B,,C,26.6,C,,,,C,,T,,M,,N,,M*06
$GPGSV,3,2,10,12,55,316,33,13,01,023,,19,17,066,30,20,20,326,17*70
$GPGSV,3,3,10,25,44,251,12,29,27,229,17*7B
$GLGSV,3,1,11,68,10,154,21,69,50,116,32,70,43,023,31,71,02,353,*64
$GLGSV,3,2,11,74,11,320,22,75,26,268,22,76,15,219,,83,03,083,14*65
$GLGSV,3,3,11,84,45,121,31,85,45,207,,86,03,244,*5E
$AAMTW,26.6,C*11
$AAXDR,C,26.6,C,ENV_SEA_T*0C
$AAMDA,,I,,B,,C,26.6,C,,,,C,,T,,M,,N,,M*06
$GNGLL,3651.98985,S,17443.43155,E,025527.00,A,A*6A
$GNZDA,025527.00,26,01,2018,00,00*71
$GNRMC,025528.00,A,3651.98991,S,17443.43156,E,0.123,,260118,,,A*76
$GNVTG,,T,,M,0.123,N,0.228,K,A*35
$GNGGA,025528.00,3651.98991,S,17443.43156,E,1,12,0.72,13.6,M,28.1,M,,*6F
$GNGSA,A,3,02,06,29,19,20,05,09,12,25,,,,1.23,0.72,0.99*14
$GNGSA,A,3,84,70,74,68,69,,,,,,,,1.23,0.72,0.99*10
$GPGSV,3,1,10,02,58,143,35,05,70,013,37,06,26,119,29,09,10,130,13*79
$AAMTW,26.6,C*11
$AAXDR,C,26.6,C,ENV_SEA_T*0C
$AAMDA,,I,,B,,C,26.6,C,,,,C,,T,,M,,N,,M*06
$GPGSV,3,2,10,12,55,316,33,13,01,023,,19,17,066,30,20,20,326,19*7E
$GPGSV,3,3,10,25,44,251,13,29,27,229,17*7A
$GLGSV,3,1,11,68,10,154,21,69,50,116,33,70,43,023,31,71,02,353,*65
$GLGSV,3,2,11,74,11,320,16,75,26,268,20,76,15,219,,83,03,083,18*6C
$GLGSV,3,3,11,84,45,121,31,85,45,207,,86,03,244,*5E
$AAMTW,26.6,C*11
$AAXDR,C,26.6,C,ENV_SEA_T*0C
$AAMDA,,I,,B,,C,26.6,C,,,,C,,T,,M,,N,,M*06
$GNGLL,3651.98991,S,17443.43156,E,025528.00,A,A*63
$GNZDA,025528.00,26,01,2018,00,00*7E
$GNRMC,025529.00,A,3651.99006,S,17443.43153,E,0.098,,260118,,,A*75
$GNVTG,,T,,M,0.098,N,0.182,K,A*37
$GNGGA,025529.00,3651.99006,S,17443.43153,E,1,12,0.78,13.5,M,28.1,M,,*64
$GNGSA,A,3,02,06,29,19,20,05,09,12,25,,,,1.43,0.78,1.19*11
$GNGSA,A,3,84,70,74,68,69,,,,,,,,1.43,0.78,1.19*15
$GPGSV,3,1,10,02,58,143,37,05,70,013,34,06,26,119,29,09,10,130,14*7F
$AAMTW,26.6,C*11
$AAXDR,C,26.6,C,ENV_SEA_T*0C
$AAMDA,,I,,B,,C,26.6,C,,,,C,,T,,M,,N,,M*06
$GPGSV,3,2,10,12,55,316,33,13,01,023,,19,17,066,31,20,20,326,18*7E
$GPGSV,3,3,10,25,44,251,22,29,27,229,19*76
$GLGSV,3,1,11,68,10,154,21,69,50,116,33,70,43,023,31,71,02,353,*65
$GLGSV,3,2,11,74,11,320,16,75,26,268,22,76,15,219,,83,03,083,16*60
$GLGSV,3,3,11,84,45,121,30,85,45,207,,86,03,244,*5F
$AAMTW,26.6,C*11
$AAXDR,C,26.6,C,ENV_SEA_T*0C
$AAMDA,,I,,B,,C,26.6,C,,,,C,,T,,M,,N,,M*06
$GNGLL,3651.99006,S,17443.43153,E,025529.00,A,A*61
$GNZDA,025529.00,26,01,2018,00,00*7F
$GNRMC,025530.00,A,3651.99022,S,17443.43153,E,0.076,,260118,,,A*7B
$GNVTG,,T,,M,0.076,N,0.140,K,A*39
$GNGGA,025530.00,3651.99022,S,17443.43153,E,1,12,0.78,13.6,M,28.1,M,,*69
$GNGSA,A,3,02,06,29,19,20,05,09,12,25,,,,1.43,0.78,1.19*11
$GNGSA,A,3,84,70,74,68,69,,,,,,,,1.43,0.78,1.19*15
$GPGSV,3,1,10,02,58,143,38,05,70,013,34,06,26,119,29,09,10,130,13*77
$AAMTW,26.6,C*11
$AAXDR,C,26.6,C,ENV_SEA_T*0C
$AAMDA,,I,,B,,C,26.6,C,,,,C,,T,,M,,N,,M*06
$GPGSV,3,2,10,12,55,316,34,13,01,023,,19,17,066,23,20,20,326,20*71
$GPGSV,3,3,10,25,44,251,22,29,27,229,19*76
$GLGSV,3,1,11,68,10,154,21,69,50,116,32,70,43,023,31,71,02,353,*64
$GLGSV,3,2,11,74,11,320,17,75,26,268,25,76,15,219,,83,03,083,13*63
$GLGSV,3,3,11,84,45,121,30,85,45,207,,86,03,244,*5F
$AAMTW,26.6,C*11
$AAXDR,C,26.6,C,ENV_SEA_T*0C
$AAMDA,,I,,B,,C,26.6,C,,,,C,,T,,M,,N,,M*06
$GNGLL,3651.99022,S,17443.43153,E,025530.00,A,A*6F
$GNZDA,025530.00,26,01,2018,00,00*77
$GNRMC,025531.00,A,3651.99039,S,17443.43148,E,0.093,,260118,,,A*71
$GNVTG,,T,,M,0.093,N,0.172,K,A*33
$GNGGA,025531.00,3651.99039,S,17443.43148,E,1,12,0.78,13.6,M,28.1,M,,*68
$GNGSA,A,3,02,06,29,19,20,05,09,12,25,,,,1.43,0.78,1.19*11
$GNGSA,A,3,84,70,74,68,69,,,,,,,,1.43,0.78,1.19*15
$GPGSV,3,1,10,02,58,143,38,05,70,013,36,06,26,119,30,09,10,130,11*7F
$AAMTW,26.6,C*11
$AAXDR,C,26.6,C,ENV_SEA_T*0C
$AAMDA,,I,,B,,C,26.6,C,,,,C,,T,,M,,N,,M*06
$GPGSV,3,2,10,12,55,316,33,13,01,023,,19,17,066,26,20,20,326,20*73
$GPGSV,3,3,10,25,44,251,22,29,27,229,19*76
$GLGSV,3,1,11,68,10,154,20,69,50,116,32,70,43,023,31,71,02,353,*65
$GLGSV,3,2,11,74,11,320,16,75,26,268,26,76,15,219,,83,03,083,17*65
$GLGSV,3,3,11,84,45,121,30,85,45,207,,86,03,244,*5F
$AAMTW,26.6,C*11
$AAXDR,C,26.6,C,ENV_SEA_T*0C
$AAMDA,,I,,B,,C,26.6,C,,,,C,,T,,M,,N,,M*06
$GNGLL,3651.99039,S,17443.43148,E,025531.00,A,A*6E
$GNZDA,025531.00,26,01,2018,00,00*76
$GNRMC,025532.00,A,3651.99055,S,17443.43141,E,0.149,,260118,,,A*77
$GNVTG,,T,,M,0.149,N,0.276,K,A*32
$GNGGA,025532.00,3651.99055,S,17443.43141,E,1,12,0.70,13.4,M,28.1,M,,*62
$GNGSA,A,3,02,06,29,19,20,05,09,12,25,,,,1.20,0.70,0.98*14
$GNGSA,A,3,84,70,74,68,69,,,,,,,,1.20,0.70,0.98*10
$GPGSV,3,1,10,02,58,143,36,05,70,013,39,06,26,119,30,09,10,130,14*7B
$AAMTW,26.6,C*11
$AAXDR,C,26.6,C,ENV_SEA_T*0C
$AAMDA,,I,,B,,C,26.6,C,,,,C,,T,,M,,N,,M*06
$GPGSV,3,2,10,12,55,316,33,13,01,023,,19,17,066,33,20,20,326,18*7C
$GPGSV,3,3,10,25,44,251,23,29,27,229,18*76
$GLGSV,3,1,11,68,10,154,18,69,50,116,33,70,43,023,31,71,02,353,*6F
$GLGSV,3,2,11,74,11,320,09,75,26,268,26,76,15,219,,83,03,083,17*6B
$GLGSV,3,3,11,84,45,121,29,85,45,207,,86,03,244,*57
$AAMTW,26.6,C*11
$AAXDR,C,26.6,C,ENV_SEA_T*0C
$AAMDA,,I,,B,,C,26.6,C,,,,C,,T,,M,,N,,M*06
$GNGLL,3651.99055,S,17443.43141,E,025532.00,A,A*6E
$GNZDA,025532.00,26,01,2018,00,00*75
$GNRMC,025533.00,A,3651.99070,S,17443.43134,E,0.132,,260118,,,A*7F
$GNVTG,,T,,M,0.132,N,0.245,K,A*3E
$GNGGA,025533.00,3651.99070,S,17443.43134,E,1,12,0.70,13.3,M,28.1,M,,*61
$GNGSA,A,3,02,06,29,19,20,05,12,25,,,,,1.20,0.70,0.98*1D
$GNGSA,A,3,84,70,74,68,69,,,,,,,,1.20,0.70,0.98*10
$GPGSV,3,1,10,02,58,143,36,05,70,013,39,06,26,119,30,09,10,130,08*76
$AAMTW,26.6,C*11
$AAXDR,C,26.6,C,ENV_SEA_T*0C
$AAMDA,,I,,B,,C,26.6,C,,,,C,,T,,M,,N,,M*06
$GPGSV,3,2,10,12,55,316,33,13,01,023,,19,17,066,34,20,20,326,15*76
$GPGSV,3,3,10,25,44,251,23,29,27,229,16*78
$GLGSV,3,1,11,68,10,154,19,69,50,116,33,70,43,023,31,71,02,353,*6E
$GLGSV,3,2,11,74,11,320,13,75,26,268,27,76,15,219,,83,03,083,15*63
$GLGSV,3,3,11,84,45,121,28,85,45,207,,86,03,244,*56
$AAMTW,26.6,C*11
$AAXDR,C,26.6,C,ENV_SEA_T*0C
$AAMDA,,I,,B,,C,26.6,C,,,,C,,T,,M,,N,,M*06
$GNGLL,3651.99070,S,17443.43134,E,025533.00,A,A*6A
$GNZDA,025533.00,26,01,2018,00,00*74
$GNRMC,025534.00,A,3651.99079,S,17443.43133,E,0.056,,260118,,,A*75
$GNVTG,,T,,M,0.056,N,0.103,K,A*3C
$GNGGA,025534.00,3651.99079,S,17443.43133,E,1,12,0.69,13.2,M,28.1,M,,*61
$GNGSA,A,3,02,06,29,19,20,05,09,12,25,,,,1.18,0.69,0.95*1A
$GNGSA,A,3,84,70,74,68,69,,,,,,,,1.18,0.69,0.95*1E
$GPGSV,3,1,10,02,58,143,35,05,70,013,39,06,26,119,30,09,10,130,12*7E
$AAMTW,26.6,C*11
$AAXDR,C,26.6,C,ENV_SEA_T*0C
$AAMDA,,I,,B,,C,26.6,C,,,,C,,T,,M,,N,,M*06
$GPGSV,3,2,10,12,55,316,33,13,01,023,,19,17,066,34,20,20,326,11*72
$GPGSV,3,3,10,25,44,251,23,29,27,229,15*7B
$GLGSV,3,1,11,68,10,154,21,69,50,116,33,70,43,023,31,71,02,353,*65
$GLGSV,3,2,11,74,11,320,09,75,26,268,27,76,15,219,,83,03,083,12*6F
$GLGSV,3,3,11,84,45,121,28,85,45,207,,86,03,244,*56
$AAMTW,26.6,C*11
$AAXDR,C,26.6,C,ENV_SEA_T*0C
$AAMDA,,I,,B,,C,26.6,C,,,,C,,T,,M,,N,,M*06
$GNGLL,3651.99079,S,17443.43133,E,025534.00,A,A*63
$GNZDA,025534.00,26,01,2018,00,00*73
$GNRMC,025535.00,A,3651.99084,S,17443.43133,E,0.031,,260118,,,A*77
$GNVTG,,T,,M,0.031,N,0.058,K,A*32
$GNGGA,025535.00,3651.99084,S,17443.43133,E,1,12,0.71,13.2,M,28.1,M,,*6B
$GNGSA,A,3,02,06,29,19,05,09,12,25,,,,,1.21,0.71,0.98*16
$GNGSA,A,3,84,70,74,68,69,,,,,,,,1.21,0.71,0.98*10
$GPGSV,3,1,10,02,58,143,36,05,70,013,39,06,26,119,29,09,10,130,16*71
$AAMTW,26.6,C*11
$AAXDR,C,26.6,C,ENV_SEA_T*0C
$AAMDA,,I,,B,,C,26.6,C,,,,C,,T,,M,,N,,M*06
$GPGSV,3,2,10,12,55,316,32,13,01,023,,19,17,066,33,20,20,326,*74
$GPGSV,3,3,10,25,44,251,23,29,27,229,09*76
$GLGSV,3,1,11,68,10,154,23,69,50,116,33,70,43,023,29,71,02,353,*6E
$GLGSV,3,2,11,74,11,320,12,75,26,268,27,76,15,219,,83,03,083,17*60
$GLGSV,3,3,11,84,45,121,29,85,45,207,,86,03,244,*57
$AAMTW,26.6,C*11
$AAXDR,C,26.6,C,ENV_SEA_T*0C
$AAMDA,,I,,B,,C,26.6,C,,,,C,,T,,M,,N,,M*06
$GNGLL,3651.99084,S,17443.43133,E,025535.00,A,A*60
$GNZDA,025535.00,26,01,2018,00,00*72
$GNRMC,025536.00,A,3651.99088,S,17443.43134,E,0.053,,260118,,,A*7B
$GNVTG,,T,,M,0.053,N,0.099,K,A*3B
$GNGGA,025536.00,3651.99088,S,17443.43134,E,1,12,0.71,13.2,M,28.1,M,,*63
$GNGSA,A,3,02,06,29,19,05,09,12,25,,,,,1.21,0.71,0.98*16
$GNGSA,A,3,84,70,74,68,69,,,,,,,,1.21,0.71,0.98*10
$GPGSV,3,1,10,02,58,143,36,05,70,013,40,06,26,119,29,09,10,130,14*7D
$AAMTW,26.6,C*11
$AAXDR,C,26.6,C,ENV_SEA_T*0C
$AAMDA,,I,,B,,C,26.6,C,,,,C,,T,,M,,N,,M*06
$GPGSV,3,2,10,12,55,316,31,13,01,023,,19,17,066,33,20,20,326,*77
$GPGSV,3,3,10,25,44,251,23,29,27,229,11*7F
$GLGSV,3,1,11,68,10,154,26,69,49,117,33,70,43,023,29,71,02,353,*62
$GLGSV,3,2,11,74,11,320,10,75,26,268,27,76,15,219,,83,03,083,19*6C
$GLGSV,3,3,11,84,45,121,29,85,45,207,,86,03,244,*57
$AAMTW,26.6,C*11
$AAXDR,C,26.6,C,ENV_SEA_T*0C
$AAMDA,,I,,B,,C,26.6,C,,,,C,,T,,M,,N,,M*06
$GNGLL,3651.99088,S,17443.43134,E,025536.00,A,A*68
$GNZDA,025536.00,26,01,2018,00,00*71
$GNRMC,025537.00,A,3651.99088,S,17443.43133,E,0.095,,260118,,,A*77
$GNVTG,,T,,M,0.095,N,0.177,K,A*30
$GNGGA,025537.00,3651.99088,S,17443.43133,E,1,12,0.82,13.5,M,28.1,M,,*6E
$GNGSA,A,3,02,06,29,19,05,12,25,,,,,,1.29,0.82,1.00*1B
$GNGSA,A,3,84,70,74,68,69,,,,,,,,1.29,0.82,1.00*14
$GPGSV,3,1,10,02,58,143,33,05,70,013,34,06,26,119,28,09,10,130,*7F
$AAMTW,26.6,C*11
$AAXDR,C,26.6,C,ENV_SEA_T*0C
$AAMDA,,I,,B,,C,26.6,C,,,,C,,T,,M,,N,,M*06
$GPGSV,3,2,10,12,55,316,29,13,01,023,,19,17,066,35,20,20,326,04*7C
$GPGSV,3,3,10,25,44,251,21,29,27,229,13*7F
$GLGSV,3,1,11,68,10,154,26,69,49,117,34,70,43,023,29,71,02,353,*65
$GLGSV,3,2,11,74,11,320,14,75,26,268,25,76,15,219,,83,03,083,17*64
$GLGSV,3,3,11,84,45,121,29,85,45,207,,86,03,244,*57
$AAMTW,26.6,C*11
$AAXDR,C,26.6,C,ENV_SEA_T*0C
$AAMDA,,I,,B,,C,26.6,C,,,,C,,T,,M,,N,,M*06
$GNGLL,3651.99088,S,17443.43133,E,025537.00,A,A*6E
$GNZDA,025537.00,26,01,2018,00,00*70
$GNRMC,025538.00,A,3651.99090,S,17443.43141,E,0.116,,260118,,,A*7E
$GNVTG,,T,,M,0.116,N,0.215,K,A*3D
$GNGGA,025538.00,3651.99090,S,17443.43141,E,1,12,0.71,14.0,M,28.1,M,,*63
$GNGSA,A,3,02,06,29,19,05,12,25,,,,,,1.21,0.71,0.98*1F
$GNGSA,A,3,84,70,74,68,69,,,,,,,,1.21,0.71,0.98*10
$AAMTW,26.6,C*11
$GPGSV,3,1,10,02,58,143,33,05,70,013,31,06,26,119,29,09,10,130,*7B
$AAXDR,C,26.6,C,ENV_SEA_T*0C
$AAMDA,,I,,B,,C,26.6,C,,,,C,,T,,M,,N,,M*06
$GPGSV,3,2,10,12,55,316,23,13,01,023,,19,17,066,37,20,20,326,23*71
$GPGSV,3,3,10,25,44,251,20,29,27,229,12*7F
$GLGSV,3,1,11,68,10,154,26,69,49,117,33,70,43,023,30,71,02,354,*6D
$GLGSV,3,2,11,74,11,320,19,75,26,268,26,76,15,219,,83,03,083,16*6B
$GLGSV,3,3,11,84,45,121,28,85,45,207,,86,03,244,*56
$AAMTW,26.6,C*11
$AAXDR,C,26.6,C,ENV_SEA_T*0C
$AAMDA,,I,,B,,C,26.6,C,,,,C,,T,,M,,N,,M*06
$GNGLL,3651.99090,S,17443.43141,E,025538.00,A,A*6D
$GNZDA,025538.00,26,01,2018,00,00*7F
$GNRMC,025539.00,A,3651.99097,S,17443.43139,E,0.120,,260118,,,A*72
$GNVTG,,T,,M,0.120,N,0.223,K,A*3D
$GNGGA,025539.00,3651.99097,S,17443.43139,E,1,12,0.78,14.0,M,28.1,M,,*63
$GNGSA,A,3,02,06,29,19,20,05,12,25,,,,,1.40,0.78,1.17*15
$GNGSA,A,3,84,70,74,68,69,,,,,,,,1.40,0.78,1.17*18
$AAMTW,26.6,C*11
$AAXDR,C,26.6,C,ENV_SEA_T*0C
$GPGSV,3,1,10,02,58,143,31,05,70,013,32,06,26,119,30,09,10,130,*72
$AAMDA,,I,,B,,C,26.6,C,,,,C,,T,,M,,N,,M*06
$GPGSV,3,2,10,12,55,316,22,13,01,023,,19,17,066,37,20,20,326,24*77
$GPGSV,3,3,10,25,44,251,18,29,27,229,16*70
$GLGSV,3,1,11,68,10,154,27,69,49,117,33,70,43,023,29,71,02,354,*64
$GLGSV,3,2,11,74,11,320,16,75,26,268,26,76,15,219,,83,03,083,16*64
$GLGSV,3,3,11,84,45,121,27,85,45,207,,86,03,244,*59
$AAMTW,26.6,C*11
$AAXDR,C,26.6,C,ENV_SEA_T*0C
$AAMDA,,I,,B,,C,26.6,C,,,,C,,T,,M,,N,,M*06
$GNGLL,3651.99097,S,17443.43139,E,025539.00,A,A*64
$GNZDA,025539.00,26,01,2018,00,00*7E
$GNRMC,025540.00,A,3651.99098,S,17443.43143,E,0.078,,260118,,,A*72
$GNVTG,,T,,M,0.078,N,0.145,K,A*32
$GNGGA,025540.00,3651.99098,S,17443.43143,E,1,12,0.70,14.2,M,28.1,M,,*65
$GNGSA,A,3,02,06,29,19,20,05,12,25,,,,,1.20,0.70,0.98*1D
$GNGSA,A,3,84,70,74,68,69,,,,,,,,1.20,0.70,0.98*10
$AAMTW,26.6,C*11
$AAXDR,C,26.6,C,ENV_SEA_T*0C
$AAMDA,,I,,B,,C,26.6,C,,,,C,,T,,M,,N,,M*06
$GPGSV,3,1,10,02,58,143,31,05,70,013,27,06,26,119,31,09,10,130,*77
$GPGSV,3,2,10,12,55,316,24,13,01,023,,19,17,066,34,20,20,326,24*72
$GPGSV,3,3,10,25,44,251,15,29,27,229,11*7A
$GLGSV,3,1,11,68,10,154,27,69,49,117,34,70,43,023,29,71,02,354,*63
$GLGSV,3,2,11,74,11,320,17,75,26,268,25,76,15,219,,83,03,083,18*68
$GLGSV,3,3,11,84,45,121,27,85,45,207,,86,03,244,*59
$AAMTW,26.6,C*11
$AAXDR,C,26.6,C,ENV_SEA_T*0C
$AAMDA,,I,,B,,C,26.6,C,,,,C,,T,,M,,N,,M*06
$GNGLL,3651.99098,S,17443.43143,E,025540.00,A,A*68
$GNZDA,025540.00,26,01,2018,00,00*70
$GNRMC,025541.00,A,3651.99096,S,17443.43150,E,0.076,,260118,,,A*71
$GNVTG,,T,,M,0.076,N,0.140,K,A*39
$GNGGA,025541.00,3651.99096,S,17443.43150,E,1,12,0.70,14.5,M,28.1,M,,*6F
$GNGSA,A,3,02,06,29,19,20,05,12,25,,,,,1.20,0.70,0.98*1D
$GNGSA,A,3,84,70,74,68,69,,,,,,,,1.20,0.70,0.98*10
$AAMTW,26.6,C*11
$AAXDR,C,26.6,C,ENV_SEA_T*0C
$GPGSV,3,1,10,02,58,143,32,05,70,013,26,06,26,119,31,09,10,130,*75
$AAMDA,,I,,B,,C,26.6,C,,,,C,,T,,M,,N,,M*06
$GPGSV,3,2,10,12,55,316,24,13,01,023,,19,17,066,36,20,20,326,23*77
$GPGSV,3,3,10,25,44,251,16,29,27,229,13*7B
$GLGSV,3,1,11,68,10,154,27,69,49,117,33,70,43,023,29,71,02,354,*64
$GLGSV,3,2,11,74,10,320,19,75,26,268,25,76,15,219,,83,03,083,17*68
$GLGSV,3,3,11,84,45,121,25,85,45,207,,86,03,244,*5B
$AAMTW,26.6,C*11
$AAXDR,C,26.6,C,ENV_SEA_T*0C
$AAMDA,,I,,B,,C,26.6,C,,,,C,,T,,M,,N,,M*06
$GNGLL,3651.99096,S,17443.43150,E,025541.00,A,A*65
$GNZDA,025541.00,26,01,2018,00,00*71
$GNRMC,025542.00,A,3651.99092,S,17443.43154,E,0.101,,260118,,,A*73
$GNVTG,,T,,M,0.101,N,0.186,K,A*32
$GNGGA,025542.00,3651.99092,S,17443.43154,E,1,12,0.70,14.8,M,28.1,M,,*61
$GNGSA,A,3,02,06,29,19,20,05,12,25,,,,,1.20,0.70,0.98*1D
$GNGSA,A,3,84,70,74,68,69,,,,,,,,1.20,0.70,0.98*10
$AAMTW,26.6,C*11
$AAXDR,C,26.6,C,ENV_SEA_T*0C
$AAMDA,,I,,B,,C,26.6,C,,,,C,,T,,M,,N,,M*06
$GPGSV,3,1,10,02,58,143,33,05,70,013,26,06,26,119,30,09,10,130,*75
$GPGSV,3,2,10,12,55,316,23,13,01,023,,19,17,066,35,20,20,326,22*72
$GPGSV,3,3,10,25,44,251,16,29,27,229,11*79
$GLGSV,3,1,11,68,10,154,27,69,49,117,33,70,43,023,30,71,02,354,*6C
$GLGSV,3,2,11,74,10,320,21,75,25,269,25,76,15,219,,83,03,083,16*60
$GLGSV,3,3,11,84,45,121,25,85,45,207,,86,03,244,*5B
$AAMTW,26.6,C*11
$AAXDR,C,26.6,C,ENV_SEA_T*0C
$AAMDA,,I,,B,,C,26.6,C,,,,C,,T,,M,,N,,M*06
$GNGLL,3651.99092,S,17443.43154,E,025542.00,A,A*66
$GNZDA,025542.00,26,01,2018,00,00*72
$GNRMC,025543.00,A,3651.99090,S,17443.43164,E,0.035,,260118,,,A*75
$GNVTG,,T,,M,0.035,N,0.064,K,A*39
$GNGGA,025543.00,3651.99090,S,17443.43164,E,1,12,0.70,15.2,M,28.1,M,,*6A
$GNGSA,A,3,02,06,29,19,20,05,12,25,,,,,1.20,0.70,0.98*1D
$GNGSA,A,3,84,70,74,68,69,,,,,,,,1.20,0.70,0.98*10
$GPGSV,3,1,10,02,58,142,33,05,70,013,32,06,26,119,30,09,10,130,*71
$AAMTW,26.6,C*11
$AAXDR,C,26.6,C,ENV_SEA_T*0C
$AAMDA,,I,,B,,C,26.6,C,,,,C,,T,,M,,N,,M*06
$GPGSV,3,2,10,12,55,316,22,13,01,023,,19,17,066,35,20,20,326,22*73
$GPGSV,3,3,10,25,44,251,14,29,27,229,15*7F
$GLGSV,3,1,11,68,10,154,27,69,49,117,33,70,43,023,30,71,02,354,*6C
$GLGSV,3,2,11,74,10,320,20,75,25,269,25,76,15,219,,83,03,083,18*6F
$GLGSV,3,3,11,84,45,121,25,85,45,207,,86,03,244,*5B
$AAMTW,26.6,C*11
$AAXDR,C,26.6,C,ENV_SEA_T*0C
$AAMDA,,I,,B,,C,26.6,C,,,,C,,T,,M,,N,,M*06
$GNGLL,3651.99090,S,17443.43164,E,025543.00,A,A*66
$GNZDA,025543.00,26,01,2018,00,00*73
$GNRMC,025544.00,A,3651.99091,S,17443.43170,E,0.024,,260118,,,A*76
$GNVTG,,T,,M,0.024,N,0.044,K,A*3B
$GNGGA,025544.00,3651.99091,S,17443.43170,E,1,12,0.70,15.4,M,28.1,M,,*6F
$GNGSA,A,3,02,06,29,19,20,05,12,25,,,,,1.20,0.70,0.98*1D
$GNGSA,A,3,84,70,74,68,69,,,,,,,,1.20,0.70,0.98*10
$AAMTW,26.6,C*11
$AAXDR,C,26.6,C,ENV_SEA_T*0C
$AAMDA,,I,,B,,C,26.6,C,,,,C,,T,,M,,N,,M*06
$GPGSV,3,1,10,02,58,142,33,05,70,013,26,06,26,119,29,09,10,130,15*78
$GPGSV,3,2,10,12,55,316,23,13,01,023,,19,17,066,36,20,20,326,22*71
$GPGSV,3,3,10,25,44,251,15,29,27,229,16*7D
$GLGSV,3,1,11,68,10,154,27,69,49,117,34,70,43,023,30,71,02,354,*6B
$GLGSV,3,2,11,74,10,320,20,75,25,269,24,76,15,219,,83,03,083,17*61
$GLGSV,3,3,11,84,45,121,25,85,45,207,,86,03,244,*5B
$AAMTW,26.6,C*11
$AAXDR,C,26.6,C,ENV_SEA_T*0C
$AAMDA,,I,,B,,C,26.6,C,,,,C,,T,,M,,N,,M*06
$GNGLL,3651.99091,S,17443.43170,E,025544.00,A,A*65
$GNZDA,025544.00,26,01,2018,00,00*74
$GNRMC,025545.00,A,3651.99094,S,17443.43175,E,0.070,,260118,,,A*76
$GNVTG,,T,,M,0.070,N,0.130,K,A*38
$GNGGA,025545.00,3651.99094,S,17443.43175,E,1,12,0.70,15.6,M,28.1,M,,*6C
$GNGSA,A,3,02,06,29,19,20,05,12,25,,,,,1.20,0.70,0.98*1D
$GNGSA,A,3,84,70,74,68,69,,,,,,,,1.20,0.70,0.98*10
$AAMTW,26.6,C*11
$AAXDR,C,26.6,C,ENV_SEA_T*0C
$AAMDA,,I,,B,,C,26.6,C,,,,C,,T,,M,,N,,M*06
$GPGSV,3,1,10,02,58,142,33,05,70,013,27,06,26,119,29,09,10,130,12*7E
$GPGSV,3,2,10,12,55,316,24,13,01,023,,19,17,066,36,20,20,326,25*71
$GPGSV,3,3,10,25,44,251,15,29,27,229,18*73
$GLGSV,3,1,11,68,10,154,27,69,49,117,34,70,43,023,31,71,02,354,*6A
$GLGSV,3,2,11,74,10,320,19,75,25,269,24,76,15,219,,83,03,083,17*6B
$GLGSV,3,3,11,84,45,121,27,85,45,207,,86,03,244,*59
$AAMTW,26.6,C*11
$AAXDR,C,26.6,C,ENV_SEA_T*0C
$AAMDA,,I,,B,,C,26.6,C,,,,C,,T,,M,,N,,M*06
$GNGLL,3651.99094,S,17443.43175,E,025545.00,A,A*64
$GNZDA,025545.00,26,01,2018,00,00*75
$GNRMC,025546.00,A,3651.99097,S,17443.43177,E,0.073,,260118,,,A*77
$GNVTG,,T,,M,0.073,N,0.136,K,A*3D
$GNGGA,025546.00,3651.99097,S,17443.43177,E,1,12,0.74,15.7,M,28.1,M,,*6B
$GNGSA,A,3,02,06,29,19,20,05,12,,,,,,1.23,0.74,0.99*1C
$GNGSA,A,3,84,70,74,68,69,,,,,,,,1.23,0.74,0.99*16
$AAMTW,26.6,C*11
$AAXDR,C,26.6,C,ENV_SEA_T*0C
$AAMDA,,I,,B,,C,26.6,C,,,,C,,T,,M,,N,,M*06
$GPGSV,3,1,10,02,58,142,33,05,70,013,29,06,26,119,29,09,10,130,09*7A
$GPGSV,3,2,10,12,55,316,23,13,01,023,,19,17,066,35,20,20,326,27*77
$GPGSV,3,3,10,25,44,251,09,29,27,229,17*71
$GLGSV,3,1,11,68,10,154,28,69,49,117,35,70,43,023,30,71,02,354,*65
$GLGSV,3,2,11,74,10,320,18,75,25,269,24,76,15,219,,83,03,083,17*6A
$GLGSV,3,3,11,84,45,121,28,85,45,207,,86,03,244,*56
$AAMTW,26.6,C*11
$AAXDR,C,26.6,C,ENV_SEA_T*0C
$AAMDA,,I,,B,,C,26.6,C,,,,C,,T,,M,,N,,M*06
$GNGLL,3651.99097,S,17443.43177,E,025546.00,A,A*66
$GNZDA,025546.00,26,01,2018,00,00*76
$GNRMC,025547.00,A,3651.99097,S,17443.43180,E,0.133,,260118,,,A*7B
$GNVTG,,T,,M,0.133,N,0.247,K,A*3D
$GNGGA,025547.00,3651.99097,S,17443.43180,E,1,12,0.70,15.9,M,28.1,M,,*68
$GNGSA,A,3,02,06,29,19,20,05,12,25,,,,,1.20,0.70,0.98*1D
$GNGSA,A,3,84,70,74,68,69,,,,,,,,1.20,0.70,0.98*10
$AAMTW,26.6,C*11
$AAXDR,C,26.6,C,ENV_SEA_T*0C
$AAMDA,,I,,B,,C,26.6,C,,,,C,,T,,M,,N,,M*06
$GPGSV,3,1,10,02,58,142,34,05,70,013,27,06,26,119,30,09,10,130,08*7A
$GPGSV,3,2,10,12,55,316,22,13,01,023,,19,17,066,36,20,20,326,27*75
$GPGSV,3,3,10,25,44,251,10,29,27,229,18*76
$GLGSV,3,1,11,68,10,154,28,69,49,117,35,70,43,023,31,71,02,354,*64
$GLGSV,3,2,11,74,10,320,16,75,25,269,24,76,15,219,,83,03,083,15*66
$GLGSV,3,3,11,84,45,121,28,85,45,207,,86,03,244,*56
$AAMTW,26.6,C*11
$AAXDR,C,26.6,C,ENV_SEA_T*0C
$AAMDA,,I,,B,,C,26.6,C,,,,C,,T,,M,,N,,M*06
$GNGLL,3651.99097,S,17443.43180,E,025547.00,A,A*6F
$GNZDA,025547.00,26,01,2018,00,00*77
$GNRMC,025548.00,A,3651.99095,S,17443.43185,E,0.078,,260118,,,A*7D
$GNVTG,,T,,M,0.078,N,0.144,K,A*33
$GNGGA,025548.00,3651.99095,S,17443.43185,E,1,12,0.70,16.0,M,28.1,M,,*6A
$GNGSA,A,3,02,06,29,19,20,05,12,25,,,,,1.20,0.70,0.98*1D
$GNGSA,A,3,84,70,74,68,69,,,,,,,,1.20,0.70,0.98*10
$AAMTW,26.6,C*11
$AAXDR,C,26.6,C,ENV_SEA_T*0C
$AAMDA,,I,,B,,C,26.6,C,,,,C,,T,,M,,N,,M*06
$GPGSV,3,1,10,02,58,142,34,05,70,013,33,06,26,119,30,09,10,130,09*7E
$GPGSV,3,2,10,12,55,316,22,13,01,023,,19,17,066,35,20,20,326,27*76
$GPGSV,3,3,10,25,44,251,15,29,27,229,19*72
$GLGSV,3,1,11,68,10,154,28,69,49,117,34,70,43,023,31,71,02,354,*65
$GLGSV,3,2,11,74,10,320,15,75,25,269,23,76,15,219,,83,03,083,15*62
$GLGSV,3,3,11,84,45,121,27,85,45,207,,86,03,244,*59
$AAMTW,26.6,C*11
$AAXDR,C,26.6,C,ENV_SEA_T*0C
$AAMDA,,I,,B,,C,26.6,C,,,,C,,T,,M,,N,,M*06
$GNGLL,3651.99095,S,17443.43185,E,025548.00,A,A*67
$GNZDA,025548.00,26,01,2018,00,00*78
$GNRMC,025549.00,A,3651.99095,S,17443.43186,E,0.016,,260118,,,A*77
$GNVTG,,T,,M,0.016,N,0.029,K,A*31
$GNGGA,025549.00,3651.99095,S,17443.43186,E,1,12,0.70,16.1,M,28.1,M,,*69
$GNGSA,A,3,02,06,29,19,20,05,12,25,,,,,1.20,0.70,0.98*1D
$GNGSA,A,3,84,70,74,68,69,,,,,,,,1.20,0.70,0.98*10
$AAMTW,26.6,C*11
$AAXDR,C,26.6,C,ENV_SEA_T*0C
$AAMDA,,I,,B,,C,26.6,C,,,,C,,T,,M,,N,,M*06
$GPGSV,3,1,10,02,58,142,32,05,70,013,33,06,26,119,30,09,10,130,08*79
$GPGSV,3,2,10,12,55,316,24,13,01,023,,19,17,066,36,20,20,326,26*72
$GPGSV,3,3,10,25,44,251,15,29,27,229,18*73
$GLGSV,3,1,11,68,10,154,28,69,49,117,30,70,43,023,30,71,02,354,*60
$GLGSV,3,2,11,74,10,320,15,75,25,269,23,76,15,219,,83,03,083,16*61
$AAMTW,26.6,C*11
$AAXDR,C,26.6,C,ENV_SEA_T*0C
$AAMDA,,I,,B,,C,26.6,C,,,,C,,T,,M,,N,,M*06
$GLGSV,3,3,11,84,45,121,27,85,45,207,,86,03,244,*59
$GNGLL,3651.99095,S,17443.43186,E,025549.00,A,A*65
$GNZDA,025549.00,26,01,2018,00,00*79
$GNRMC,025550.00,A,3651.99091,S,17443.43188,E,0.068,,260118,,,A*7C
$GNVTG,,T,,M,0.068,N,0.126,K,A*36
$GNGGA,025550.00,3651.99091,S,17443.43188,E,1,12,0.70,16.2,M,28.1,M,,*68
$GNGSA,A,3,02,06,29,19,20,05,12,25,,,,,1.20,0.70,0.98*1D
$GNGSA,A,3,84,70,74,68,69,,,,,,,,1.20,0.70,0.98*10
$AAMTW,26.6,C*11
$AAXDR,C,26.6,C,ENV_SEA_T*0C
$AAMDA,,I,,B,,C,26.6,C,,,,C,,T,,M,,N,,M*06
$GPGSV,3,1,10,02,58,142,26,05,70,013,32,06,26,119,29,09,10,130,*7D
$GPGSV,3,2,10,12,55,316,24,13,01,023,,19,17,066,36,20,20,326,28*7C
$GPGSV,3,3,10,25,44,251,14,29,27,229,18*72
$GLGSV,3,1,11,68,10,154,28,69,49,117,31,70,43,023,29,71,02,354,*69
$GLGSV,3,2,11,74,10,320,14,75,25,269,24,76,15,219,,83,03,083,14*65
$GLGSV,3,3,11,84,45,121,26,85,45,207,,86,03,244,*58
$AAMTW,26.6,C*11
$AAXDR,C,26.6,C,ENV_SEA_T*0C
$AAMDA,,I,,B,,C,26.6,C,,,,C,,T,,M,,N,,M*06
$GNGLL,3651.99091,S,17443.43188,E,025550.00,A,A*67
$GNZDA,025550.00,26,01,2018,00,00*71
$GNRMC,025551.00,A,3651.99086,S,17443.43194,E,0.098,,260118,,,A*79
$GNVTG,,T,,M,0.098,N,0.181,K,A*34
$GNGGA,025551.00,3651.99086,S,17443.43194,E,1,12,0.70,16.5,M,28.1,M,,*65
$GNGSA,A,3,02,06,29,19,20,05,12,25,,,,,1.20,0.70,0.98*1D
$AAMTW,26.6,C*11
$GNGSA,A,3,84,70,74,68,69,,,,,,,,1.20,0.70,0.98*10
$AAXDR,C,26.6,C,ENV_SEA_T*0C
$AAMDA,,I,,B,,C,26.6,C,,,,C,,T,,M,,N,,M*06
$GPGSV,3,1,10,02,58,142,27,05,70,013,32,06,26,119,28,09,10,130,*7D
$GPGSV,3,2,10,12,55,316,25,13,01,023,,19,17,066,29,20,20,326,28*73
$GPGSV,3,3,10,25,44,251,19,29,27,229,18*7F
$GLGSV,3,1,11,68,10,154,27,69,49,117,33,70,43,023,29,71,02,354,*64
$GLGSV,3,2,11,74,10,320,10,75,25,269,24,76,15,219,,83,03,083,14*61
$AAMTW,26.6,C*11
$AAXDR,C,26.6,C,ENV_SEA_T*0C
$AAMDA,,I,,B,,C,26.6,C,,,,C,,T,,M,,N,,M*06
$GLGSV,3,3,11,84,45,121,26,85,45,207,,86,03,244,*58
$GNGLL,3651.99086,S,17443.43194,E,025551.00,A,A*6D
$GNZDA,025551.00,26,01,2018,00,00*70
$GNRMC,025552.00,A,3651.99084,S,17443.43194,E,0.045,,260118,,,A*78
$GNVTG,,T,,M,0.045,N,0.084,K,A*30
$GNGGA,025552.00,3651.99084,S,17443.43194,E,1,12,0.71,16.5,M,28.1,M,,*65
$GNGSA,A,3,02,06,29,19,20,05,12,25,,,,,1.25,0.71,1.03*1A
$GNGSA,A,3,84,70,74,68,69,,,,,,,,1.25,0.71,1.03*17
$AAMTW,26.6,C*11
$AAXDR,C,26.6,C,ENV_SEA_T*0C
$AAMDA,,I,,B,,C,26.6,C,,,,C,,T,,M,,N,,M*06
$GPGSV,3,1,10,02,58,142,27,05,70,013,32,06,26,119,28,09,10,130,*7D
$GPGSV,3,2,10,12,55,316,26,13,01,023,,19,17,066,34,20,20,326,29*7D
$GPGSV,3,3,10,25,44,251,20,29,27,229,19*74
$GLGSV,3,1,11,68,10,154,26,69,49,117,31,70,43,023,29,71,02,354,*67
$GLGSV,3,2,11,74,10,320,16,75,25,269,24,76,15,219,,83,03,083,14*67
$GLGSV,3,3,11,84,45,121,26,85,46,206,,86,03,244,*5A
$AAMTW,26.6,C*11
$AAXDR,C,26.6,C,ENV_SEA_T*0C
$AAMDA,,I,,B,,C,26.6,C,,,,C,,T,,M,,N,,M*06
$GNGLL,3651.99084,S,17443.43194,E,025552.00,A,A*6C
$GNZDA,025552.00,26,01,2018,00,00*73
$GNRMC,025553.00,A,3651.99084,S,17443.43188,E,0.060,,260118,,,A*73
$GNVTG,,T,,M,0.060,N,0.111,K,A*3A
$GNGGA,025553.00,3651.99084,S,17443.43188,E,1,12,0.70,16.5,M,28.1,M,,*68
$GNGSA,A,3,02,06,29,19,20,05,12,25,,,,,1.20,0.70,0.97*12
$GNGSA,A,3,84,70,74,68,69,,,,,,,,1.20,0.70,0.97*1F
$AAMTW,26.6,C*11
$AAXDR,C,26.6,C,ENV_SEA_T*0C
$AAMDA,,I,,B,,C,26.6,C,,,,C,,T,,M,,N,,M*06
$GPGSV,3,1,10,02,58,142,28,05,70,013,31,06,26,119,29,09,10,130,*70
$GPGSV,3,2,10,12,55,316,26,13,01,023,,19,17,066,34,20,20,326,30*75
$GPGSV,3,3,10,25,44,251,21,29,27,229,19*75
$GLGSV,3,1,11,68,10,154,25,69,49,117,32,70,43,023,29,71,02,354,*67
$GLGSV,3,2,11,74,10,320,15,75,25,269,23,76,15,219,,83,03,083,13*64
$GLGSV,3,3,11,84,45,121,26,85,46,206,,86,03,244,*5A
$AAMTW,26.6,C*11
$AAXDR,C,26.6,C,ENV_SEA_T*0C
$AAMDA,,I,,B,,C,26.6,C,,,,C,,T,,M,,N,,M*06
$GNGLL,3651.99084,S,17443.43188,E,025553.00,A,A*60
$GNZDA,025553.00,26,01,2018,00,00*72
$GNRMC,025554.00,A,3651.99082,S,17443.43183,E,0.073,,260118,,,A*7B
$GNVTG,,T,,M,0.073,N,0.136,K,A*3D
$GNGGA,025554.00,3651.99082,S,17443.43183,E,1,12,0.70,16.6,M,28.1,M,,*61
$GNGSA,A,3,02,06,29,19,20,05,12,25,,,,,1.20,0.70,0.97*12
$GNGSA,A,3,84,70,74,68,69,,,,,,,,1.20,0.70,0.97*1F
$AAMTW,26.6,C*11
$AAXDR,C,26.6,C,ENV_SEA_T*0C
$AAMDA,,I,,B,,C,26.6,C,,,,C,,T,,M,,N,,M*06
$GPGSV,3,1,10,02,58,142,27,05,70,013,32,06,26,119,29,09,10,130,*7C
$GPGSV,3,2,10,12,55,316,31,13,01,023,,19,17,066,28,20,20,326,29*76
$GPGSV,3,3,10,25,44,251,21,29,27,229,21*7E
$GLGSV,3,1,11,68,10,154,22,69,49,117,28,70,43,023,28,71,02,354,*6A
$GLGSV,3,2,11,74,10,320,16,75,25,269,20,76,15,219,,83,03,083,17*60
$GLGSV,3,3,11,84,45,121,23,85,46,206,,86,03,244,*5F
$AAMTW,26.6,C*11
$AAXDR,C,26.6,C,ENV_SEA_T*0C
$AAMDA,,I,,B,,C,26.6,C,,,,C,,T,,M,,N,,M*06
$GNGLL,3651.99082,S,17443.43183,E,025554.00,A,A*6A
$GNZDA,025554.00,26,01,2018,00,00*75
$GNRMC,025555.00,A,3651.99085,S,17443.43182,E,0.025,,260118,,,A*7F
$GNVTG,,T,,M,0.025,N,0.046,K,A*38
$GNGGA,025555.00,3651.99085,S,17443.43182,E,1,12,0.70,16.5,M,28.1,M,,*65
$GNGSA,A,3,02,06,29,19,20,05,12,25,,,,,1.20,0.70,0.97*12
$GNGSA,A,3,84,70,74,68,69,,,,,,,,1.20,0.70,0.97*1F
$AAMTW,26.6,C*11
$AAXDR,C,26.6,C,ENV_SEA_T*0C
$AAMDA,,I,,B,,C,26.6,C,,,,C,,T,,M,,N,,M*06
$GPGSV,3,1,10,02,58,142,33,05,70,013,32,06,26,119,31,09,10,130,*70
$GPGSV,3,2,10,12,55,316,30,13,01,023,,19,17,066,32,20,20,326,31*75
$GPGSV,3,3,10,25,44,251,21,29,27,229,21*7E
$GLGSV,3,1,11,68,10,154,20,69,49,117,31,70,43,023,29,71,02,354,*61
$GLGSV,3,2,11,74,10,320,13,75,25,269,18,76,15,219,,83,03,083,17*6E
$GLGSV,3,3,11,84,45,121,24,85,46,206,,86,03,244,*58
$AAMTW,26.6,C*11
$AAXDR,C,26.6,C,ENV_SEA_T*0C
$AAMDA,,I,,B,,C,26.6,C,,,,C,,T,,M,,N,,M*06
$GNGLL,3651.99085,S,17443.43182,E,025555.00,A,A*6D
$GNZDA,025555.00,26,01,2018,00,00*74
$GNRMC,025556.00,A,3651.99085,S,17443.43177,E,0.047,,260118,,,A*72
$GNVTG,,T,,M,0.047,N,0.087,K,A*31
$GNGGA,025556.00,3651.99085,S,17443.43177,E,1,12,0.70,16.5,M,28.1,M,,*6C
$GNGSA,A,3,02,06,29,19,20,05,12,25,,,,,1.20,0.70,0.97*12
$GNGSA,A,3,84,70,74,68,69,,,,,,,,1.20,0.70,0.97*1F
$AAMTW,26.6,C*11
$AAXDR,C,26.6,C,ENV_SEA_T*0C
$AAMDA,,I,,B,,C,26.6,C,,,,C,,T,,M,,N,,M*06
$GPGSV,3,1,10,02,58,142,34,05,70,013,32,06,26,119,31,09,10,130,17*71
$GPGSV,3,2,10,12,55,316,28,13,01,023,,19,17,066,32,20,20,326,32*7F
$GPGSV,3,3,10,25,44,251,22,29,27,229,20*7C
$GLGSV,3,1,11,68,10,154,19,69,49,117,31,70,43,023,30,71,02,354,*63
$GLGSV,3,2,11,74,10,320,12,75,25,269,,76,15,219,25,83,03,083,17*61
$GLGSV,3,3,11,84,45,121,24,85,46,206,,86,03,244,*58
$AAMTW,26.6,C*11
$AAXDR,C,26.6,C,ENV_SEA_T*0C
$AAMDA,,I,,B,,C,26.6,C,,,,C,,T,,M,,N,,M*06
$GNGLL,3651.99085,S,17443.43177,E,025556.00,A,A*64
$GNZDA,025556.00,26,01,2018,00,00*77
$GNRMC,025557.00,A,3651.99086,S,17443.43168,E,0.041,,260118,,,A*78
$GNVTG,,T,,M,0.041,N,0.075,K,A*3A
$GNGGA,025557.00,3651.99086,S,17443.43168,E,1,12,0.70,16.4,M,28.1,M,,*61
$GNGSA,A,3,02,06,29,19,20,05,12,25,,,,,1.20,0.70,0.97*12
$GNGSA,A,3,84,70,74,68,69,,,,,,,,1.20,0.70,0.97*1F
$AAMTW,26.6,C*11
$AAXDR,C,26.6,C,ENV_SEA_T*0C
$AAMDA,,I,,B,,C,26.6,C,,,,C,,T,,M,,N,,M*06
$GPGSV,3,1,10,02,58,142,33,05,70,013,35,06,26,119,32,09,10,130,16*73
$GPGSV,3,2,10,12,55,316,28,13,01,023,,19,17,066,33,20,20,326,31*7D
$GPGSV,3,3,10,25,44,251,21,29,27,229,20*7F
$GLGSV,3,1,11,68,10,154,18,69,49,117,30,70,43,023,32,71,02,354,*61
$GLGSV,3,2,11,74,10,320,11,75,25,269,,76,15,219,,83,03,083,15*67
$GLGSV,3,3,11,84,45,121,23,85,46,206,,86,03,244,*5F
$AAMTW,26.6,C*11
$AAXDR,C,26.6,C,ENV_SEA_T*0C
$AAMDA,,I,,B,,C,26.6,C,,,,C,,T,,M,,N,,M*06
$GNGLL,3651.99086,S,17443.43168,E,025557.00,A,A*68
$GNZDA,025557.00,26,01,2018,00,00*76
$GNRMC,025558.00,A,3651.99083,S,17443.43173,E,0.056,,260118,,,A*7E
$GNVTG,,T,,M,0.056,N,0.103,K,A*3C
$GNGGA,025558.00,3651.99083,S,17443.43173,E,1,12,0.71,16.3,M,28.1,M,,*67
$GNGSA,A,3,02,06,29,19,20,05,12,25,,,,,1.25,0.71,1.03*1A
$GNGSA,A,3,84,70,74,68,69,,,,,,,,1.25,0.71,1.03*17
$AAMTW,26.6,C*11
$AAXDR,C,26.6,C,ENV_SEA_T*0C
$AAMDA,,I,,B,,C,26.6,C,,,,C,,T,,M,,N,,M*06
$GPGSV,3,1,10,02,58,142,34,05,70,013,26,06,26,119,26,09,10,130,17*72
$GPGSV,3,2,10,12,55,316,18,13,01,023,,19,17,066,38,20,20,326,24*71
$GPGSV,3,3,10,25,44,251,21,29,27,229,20*7F
$GLGSV,3,1,11,68,10,154,19,69,49,117,29,70,43,023,26,71,02,354,*6D
$GLGSV,3,2,11,74,10,320,16,75,25,269,,76,15,219,,83,03,083,12*67
$GLGSV,3,3,11,84,45,121,23,85,46,206,,86,03,244,*5F
$AAMTW,26.6,C*11
$AAXDR,C,26.6,C,ENV_SEA_T*0C
$AAMDA,,I,,B,,C,26.6,C,,,,C,,T,,M,,N,,M*06
$GNGLL,3651.99083,S,17443.43173,E,025558.00,A,A*68
$GNZDA,025558.00,26,01,2018,00,00*79
$GNRMC,025559.00,A,3651.99079,S,17443.43173,E,0.143,,260118,,,A*7F
$GNVTG,,T,,M,0.143,N,0.264,K,A*3B
$GNGGA,025559.00,3651.99079,S,17443.43173,E,1,12,0.68,16.4,M,28.1,M,,*6C
$GNGSA,A,3,02,06,29,19,20,05,09,12,25,,,,1.13,0.68,0.90*15
$GNGSA,A,3,84,70,74,68,69,,,,,,,,1.13,0.68,0.90*11
$AAMTW,26.6,C*11
$AAXDR,C,26.6,C,ENV_SEA_T*0C
$AAMDA,,I,,B,,C,26.6,C,,,,C,,T,,M,,N,,M*06
$GPGSV,3,1,10,02,58,142,34,05,71,013,25,06,26,119,26,09,10,130,18*7F
$GPGSV,3,2,10,12,55,316,21,13,01,023,,19,17,066,37,20,20,326,27*77
$GPGSV,3,3,10,25,44,251,20,29,27,229,21*7F
$GLGSV,3,1,11,68,10,154,21,69,49,117,21,70,43,023,28,71,02,354,*60
$GLGSV,3,2,11,74,10,320,10,75,25,269,,76,15,219,,83,03,083,07*65
$GLGSV,3,3,11,84,45,121,24,85,46,206,,86,03,244,*58
$AAMTW,26.6,C*11
$AAXDR,C,26.6,C,ENV_SEA_T*0C
$AAMDA,,I,,B,,C,26.6,C,,,,C,,T,,M,,N,,M*06
$GNGLL,3651.99079,S,17443.43173,E,025559.00,A,A*6C
$GNZDA,025559.00,26,01,2018,00,00*78
$GNRMC,025600.00,A,3651.99073,S,17443.43178,E,0.045,,260118,,,A*76
$GNVTG,,T,,M,0.045,N,0.083,K,A*37
$GNGGA,025600.00,3651.99073,S,17443.43178,E,1,12,0.68,16.6,M,28.1,M,,*60
$AAMTW,26.6,C*11
$AAXDR,C,26.6,C,ENV_SEA_T*0C
$GNGSA,A,3,02,06,29,19,20,05,09,12,25,,,,1.13,0.68,0.90*15
$AAMDA,,I,,B,,C,26.6,C,,,,C,,T,,M,,N,,M*06
$GNGSA,A,3,84,70,74,68,69,,,,,,,,1.13,0.68,0.90*11
$GPGSV,3,1,10,02,58,142,33,05,71,013,31,06,26,119,32,09,10,130,17*77
$GPGSV,3,2,10,12,55,316,21,13,01,023,,19,17,066,36,20,20,326,29*78
$GPGSV,3,3,10,25,44,251,19,29,27,229,21*75
$GLGSV,3,1,11,68,10,154,24,69,49,117,30,70,43,023,32,71,02,354,*6E
$GLGSV,3,2,11,74,10,320,14,75,25,269,,76,15,219,,83,03,083,11*66
$GLGSV,3,3,11,84,45,121,21,85,46,206,,86,03,244,*5D
$AAMTW,26.6,C*11
$AAXDR,C,26.6,C,ENV_SEA_T*0C
$AAMDA,,I,,B,,C,26.6,C,,,,C,,T,,M,,N,,M*06
$GNGLL,3651.99073,S,17443.43178,E,025600.00,A,A*62
$GNZDA,025600.00,26,01,2018,00,00*77
$GNRMC,025601.00,A,3651.99064,S,17443.43184,E,0.248,,260118,,,A*7D
$GNVTG,,T,,M,0.248,N,0.460,K,A*31
$GNGGA,025601.00,3651.99064,S,17443.43184,E,1,12,0.68,17.0,M,28.1,M,,*63
$GNGSA,A,3,02,06,29,19,20,05,09,12,25,,,,1.13,0.68,0.90*15
$AAMTW,26.6,C*11
$AAXDR,C,26.6,C,ENV_SEA_T*0C
$AAMDA,,I,,B,,C,26.6,C,,,,C,,T,,M,,N,,M*06
$GNGSA,A,3,84,70,74,68,69,,,,,,,,1.13,0.68,0.90*11
$GPGSV,3,1,10,02,58,142,32,05,71,013,32,06,26,119,27,09,10,130,15*73
$GPGSV,3,2,10,12,55,316,23,13,01,023,,19,17,066,30,20,20,326,30*74
$GPGSV,3,3,10,25,44,251,17,29,27,229,20*7A
$GLGSV,3,1,11,68,10,154,25,69,49,117,32,70,43,023,30,71,02,354,*6F
$GLGSV,3,2,11,74,10,320,15,75,25,269,,76,15,219,,83,03,083,09*6E
$AAMTW,26.6,C*11
$AAXDR,C,26.6,C,ENV_SEA_T*0C
$AAMDA,,I,,B,,C,26.6,C,,,,C,,T,,M,,N,,M*06
$GLGSV,3,3,11,84,45,121,20,85,46,206,,86,03,244,*5C
$GNGLL,3651.99064,S,17443.43184,E,025601.00,A,A*66
$GNZDA,025601.00,26,01,2018,00,00*76
$GNRMC,025602.00,A,3651.99059,S,17443.43191,E,0.197,,260118,,,A*75
$GNVTG,,T,,M,0.197,N,0.364,K,A*33
$GNGGA,025602.00,3651.99059,S,17443.43191,E,1,12,0.68,17.2,M,28.1,M,,*68
$GNGSA,A,3,02,06,29,19,20,05,09,12,25,,,,1.13,0.68,0.90*15
$AAMTW,26.6,C*11
$GNGSA,A,3,84,70,74,68,69,,,,,,,,1.13,0.68,0.90*11
$AAXDR,C,26.6,C,ENV_SEA_T*0C
$AAMDA,,I,,B,,C,26.6,C,,,,C,,T,,M,,N,,M*06
$GPGSV,3,1,10,02,58,142,26,05,71,013,36,06,26,119,26,09,10,130,15*73
$GPGSV,3,2,10,12,55,316,22,13,01,023,,19,17,066,24,20,20,326,29*78
$GPGSV,3,3,10,25,44,251,17,29,27,229,19*70
$GLGSV,3,1,11,68,10,154,23,69,49,117,34,70,43,023,32,71,02,354,*6D
$GLGSV,3,2,11,74,10,320,13,75,25,269,,76,15,219,,83,03,083,14*64
$GLGSV,3,3,11,84,45,121,28,85,46,206,,86,03,244,*54
$AAMTW,26.6,C*11
$AAXDR,C,26.6,C,ENV_SEA_T*0C
$AAMDA,,I,,B,,C,26.6,C,,,,C,,T,,M,,N,,M*06
$GNGLL,3651.99059,S,17443.43191,E,025602.00,A,A*6F
$GNZDA,025602.00,26,01,2018,00,00*75
$GNRMC,025603.00,A,3651.99062,S,17443.43191,E,0.012,,260118,,,A*70
$GNVTG,,T,,M,0.012,N,0.022,K,A*3E
$GNGGA,025603.00,3651.99062,S,17443.43191,E,1,12,0.68,17.3,M,28.1,M,,*60
$AAMTW,26.6,C*11
$AAXDR,C,26.6,C,ENV_SEA_T*0C
$GNGSA,A,3,02,06,29,19,20,05,09,12,25,,,,1.13,0.68,0.90*15
$AAMDA,,I,,B,,C,26.6,C,,,,C,,T,,M,,N,,M*06
$GNGSA,A,3,84,70,74,68,69,,,,,,,,1.13,0.68,0.90*11
$GPGSV,3,1,10,02,58,142,31,05,71,013,34,06,26,119,25,09,10,131,16*76
$GPGSV,3,2,10,12,55,316,22,13,01,023,,19,17,066,34,20,20,326,29*79
$GPGSV,3,3,10,25,44,251,19,29,27,229,20*74
$GLGSV,3,1,11,68,10,154,21,69,49,117,35,70,43,023,34,71,02,354,*68
$GLGSV,3,2,11,74,10,320,17,75,25,269,,76,15,219,,83,03,083,11*65
$GLGSV,3,3,11,84,45,121,27,85,46,206,25,86,03,244,*5C
$AAMTW,26.6,C*11
$AAXDR,C,26.6,C,ENV_SEA_T*0C
$AAMDA,,I,,B,,C,26.6,C,,,,C,,T,,M,,N,,M*06
$GNGLL,3651.99062,S,17443.43191,E,025603.00,A,A*66
$GNZDA,025603.00,26,01,2018,00,00*74
$GNRMC,025604.00,A,3651.99057,S,17443.43196,E,0.052,,260118,,,A*72
$GNVTG,,T,,M,0.052,N,0.097,K,A*34
$GNGGA,025604.00,3651.99057,S,17443.43196,E,1,12,0.68,17.5,M,28.1,M,,*60
$AAMTW,26.6,C*11
$AAXDR,C,26.6,C,ENV_SEA_T*0C
$AAMDA,,I,,B,,C,26.6,C,,,,C,,T,,M,,N,,M*06
$GNGSA,A,3,02,06,29,19,20,05,09,12,25,,,,1.16,0.68,0.94*14
$GNGSA,A,3,84,70,74,68,69,,,,,,,,1.16,0.68,0.94*10
$GPGSV,3,1,10,02,58,142,31,05,71,013,34,06,26,119,23,09,10,131,17*71
$GPGSV,3,2,10,12,55,316,24,13,01,023,,19,17,066,34,20,20,326,30*77
$GPGSV,3,3,10,25,44,251,22,29,27,229,22*7E
$GLGSV,3,1,11,68,10,154,19,69,49,117,32,70,43,023,34,71,02,354,*64
$GLGSV,3,2,11,74,10,320,11,75,25,269,,76,15,219,,83,03,083,10*62
$GLGSV,3,3,11,84,45,121,27,85,46,206,24,86,03,244,*5D
$AAMTW,26.6,C*11
$AAXDR,C,26.6,C,ENV_SEA_T*0C
$AAMDA,,I,,B,,C,26.6,C,,,,C,,T,,M,,N,,M*06
$GNGLL,3651.99057,S,17443.43196,E,025604.00,A,A*60
$GNZDA,025604.00,26,01,2018,00,00*73
$GNRMC,025605.00,A,3651.99050,S,17443.43198,E,0.065,,260118,,,A*7E
$GNVTG,,T,,M,0.065,N,0.121,K,A*3C
$GNGGA,025605.00,3651.99050,S,17443.43198,E,1,12,0.71,17.8,M,28.1,M,,*6D
$AAMTW,26.6,C*11
$AAXDR,C,26.6,C,ENV_SEA_T*0C
$AAMDA,,I,,B,,C,26.6,C,,,,C,,T,,M,,N,,M*06
$GNGSA,A,3,02,06,29,19,20,05,09,12,25,,,,1.25,0.71,1.03*13
$GNGSA,A,3,84,70,74,68,69,,,,,,,,1.25,0.71,1.03*17
$GPGSV,3,1,10,02,58,142,37,05,71,013,37,06,26,119,22,09,10,131,18*7A
$GPGSV,3,2,10,12,55,316,23,13,01,023,,19,17,066,34,20,20,326,29*78
$GPGSV,3,3,10,25,44,251,23,29,27,229,28*75
$GLGSV,3,1,11,68,10,154,18,69,49,117,36,70,43,023,34,71,02,354,*61
$GLGSV,3,2,11,74,10,320,14,75,25,269,,76,15,219,,83,03,083,15*62
$GLGSV,3,3,11,84,45,121,23,85,46,206,25,86,03,244,*58
$AAMTW,26.6,C*11
$AAXDR,C,26.6,C,ENV_SEA_T*0C
$AAMDA,,I,,B,,C,26.6,C,,,,C,,T,,M,,N,,M*06
$GNGLL,3651.99050,S,17443.43198,E,025605.00,A,A*68
$GNZDA,025605.00,26,01,2018,00,00*72
$GNRMC,025606.00,A,3651.99057,S,17443.43199,E,0.169,,260118,,,A*76
$GNVTG,,T,,M,0.169,N,0.313,K,A*32
$GNGGA,025606.00,3651.99057,S,17443.43199,E,1,12,0.71,18.1,M,28.1,M,,*6E
$AAMTW,26.6,C*11
$AAXDR,C,26.6,C,ENV_SEA_T*0C
$AAMDA,,I,,B,,C,26.6,C,,,,C,,T,,M,,N,,M*06
$GNGSA,A,3,02,06,29,19,20,05,09,12,25,,,,1.25,0.71,1.03*13
$GNGSA,A,3,84,70,74,68,69,,,,,,,,1.25,0.71,1.03*17
$GPGSV,3,1,10,02,58,142,37,05,71,013,35,06,26,119,25,09,10,131,18*7F
$GPGSV,3,2,10,12,54,316,21,13,01,023,,19,17,066,36,20,20,326,30*71
$GPGSV,3,3,10,25,44,251,22,29,27,229,27*7B
$GLGSV,3,1,11,68,10,154,21,69,49,117,36,70,43,023,33,71,02,354,*6C
$GLGSV,3,2,11,74,10,320,13,75,25,269,,76,15,219,,83,03,083,10*60
$GLGSV,3,3,11,84,45,121,22,85,46,206,25,86,03,244,*59
$AAMTW,26.6,C*11
$AAXDR,C,26.6,C,ENV_SEA_T*0C
$AAMDA,,I,,B,,C,26.6,C,,,,C,,T,,M,,N,,M*06
$GNGLL,3651.99057,S,17443.43199,E,025606.00,A,A*6D
$GNZDA,025606.00,26,01,2018,00,00*71
$GNRMC,025607.00,A,3651.99053,S,17443.43201,E,0.054,,260118,,,A*7E
$GNVTG,,T,,M,0.054,N,0.099,K,A*3C
$GNGGA,025607.00,3651.99053,S,17443.43201,E,1,12,0.71,18.4,M,28.1,M,,*6C
$AAMTW,26.6,C*11
$AAXDR,C,26.6,C,ENV_SEA_T*0C
$AAMDA,,I,,B,,C,26.6,C,,,,C,,T,,M,,N,,M*06
$GNGSA,A,3,02,06,29,19,20,05,09,12,25,,,,1.25,0.71,1.03*13
$GNGSA,A,3,84,70,74,68,69,,,,,,,,1.25,0.71,1.03*17
$GPGSV,3,1,10,02,58,142,37,05,71,013,37,06,26,119,26,09,10,131,21*74
$GPGSV,3,2,10,12,54,316,18,13,01,023,,19,17,066,37,20,20,326,30*7A
$GPGSV,3,3,10,25,44,251,19,29,27,229,28*7C
$GLGSV,3,1,11,68,10,154,23,69,49,117,36,70,43,023,33,71,02,354,*6E
$GLGSV,3,2,11,74,10,320,12,75,25,269,,76,15,219,,83,03,083,14*65
$GLGSV,3,3,11,84,45,121,19,85,46,206,25,86,03,244,*51
$AAMTW,26.6,C*11
$AAXDR,C,26.6,C,ENV_SEA_T*0C
$AAMDA,,I,,B,,C,26.6,C,,,,C,,T,,M,,N,,M*06
$GNGLL,3651.99053,S,17443.43201,E,025607.00,A,A*6A
$GNZDA,025607.00,26,01,2018,00,00*70
$GNRMC,025608.00,A,3651.99051,S,17443.43202,E,0.075,,260118,,,A*73
$GNVTG,,T,,M,0.075,N,0.140,K,A*3A
$GNGGA,025608.00,3651.99051,S,17443.43202,E,1,12,0.72,18.7,M,28.1,M,,*62
$GNGSA,A,3,02,06,29,19,20,05,09,25,,,,,1.29,0.72,1.07*1B
$AAMTW,26.6,C*11
$AAXDR,C,26.6,C,ENV_SEA_T*0C
$AAMDA,,I,,B,,C,26.6,C,,,,C,,T,,M,,N,,M*06
$GNGSA,A,3,84,70,68,69,,,,,,,,,1.29,0.72,1.07*1F
$GPGSV,3,1,10,02,58,142,36,05,71,013,36,06,26,119,28,09,10,131,22*79
$GPGSV,3,2,10,12,54,316,21,13,01,023,,19,17,066,37,20,20,326,30*70
$GPGSV,3,3,10,25,44,251,09,29,27,229,29*7C
$GLGSV,3,1,11,68,10,154,22,69,49,117,36,70,43,023,33,71,02,354,*6F
$GLGSV,3,2,11,74,10,320,07,75,25,269,,76,15,219,25,83,03,083,18*6A
$AAMTW,26.6,C*11
$AAXDR,C,26.6,C,ENV_SEA_T*0C
$AAMDA,,I,,B,,C,26.6,C,,,,C,,T,,M,,N,,M*06
$GLGSV,3,3,11,84,45,121,23,85,46,206,24,86,03,244,*59
$GNGLL,3651.99051,S,17443.43202,E,025608.00,A,A*64
$GNZDA,025608.00,26,01,2018,00,00*7F
$GNRMC,025609.00,A,3651.99045,S,17443.43205,E,0.079,,260118,,,A*7C
$GNVTG,,T,,M,0.079,N,0.145,K,A*33
$GNGGA,025609.00,3651.99045,S,17443.43205,E,1,12,0.70,19.5,M,28.1,M,,*60
$AAMTW,26.6,C*11
$AAXDR,C,26.6,C,ENV_SEA_T*0C
$AAMDA,,I,,B,,C,26.6,C,,,,C,,T,,M,,N,,M*06
$GNGSA,A,3,02,06,29,19,20,05,09,12,25,,,,1.20,0.70,0.97*1B
$GNGSA,A,3,84,70,74,68,69,,,,,,,,1.20,0.70,0.97*1F
$GPGSV,3,1,10,02,58,142,37,05,71,013,38,06,26,119,27,09,10,131,22*79
$GPGSV,3,2,10,12,54,316,30,13,01,023,,19,17,066,40,20,20,326,28*79
$GPGSV,3,3,10,25,44,251,16,29,27,229,28*73
$GLGSV,3,1,11,68,10,154,23,69,49,117,37,70,43,023,34,71,02,354,*68
$GLGSV,3,2,11,74,10,320,16,75,25,269,,76,15,219,,83,03,083,13*66
$GLGSV,3,3,11,84,45,121,26,85,46,206,23,86,03,244,*5B
$AAMTW,26.6,C*11
$AAXDR,C,26.6,C,ENV_SEA_T*0C
$AAMDA,,I,,B,,C,26.6,C,,,,C,,T,,M,,N,,M*06
$GNGLL,3651.99045,S,17443.43205,E,025609.00,A,A*67
$GNZDA,025609.00,26,01,2018,00,00*7E
$GNRMC,025610.00,A,3651.99028,S,17443.43210,E,0.050,,260118,,,A*70
$GNVTG,,T,,M,0.050,N,0.093,K,A*32
$GNGGA,025610.00,3651.99028,S,17443.43210,E,1,12,0.70,19.8,M,28.1,M,,*6A
$AAMTW,26.6,C*11
$AAXDR,C,26.6,C,ENV_SEA_T*0C
$AAMDA,,I,,B,,C,26.6,C,,,,C,,T,,M,,N,,M*06
$GNGSA,A,3,02,06,29,19,20,05,09,12,25,,,,1.20,0.70,0.97*1B
$GNGSA,A,3,84,70,74,68,69,,,,,,,,1.20,0.70,0.97*1F
$GPGSV,3,1,10,02,58,142,39,05,71,013,38,06,26,119,27,09,10,131,22*77
$GPGSV,3,2,10,12,54,316,34,13,01,023,,19,17,066,40,20,20,326,26*73
$GPGSV,3,3,10,25,44,251,13,29,27,229,28*76
$GLGSV,3,1,11,68,10,154,22,69,49,117,35,70,43,023,33,71,02,354,*6C
$GLGSV,3,2,11,74,10,320,17,75,25,269,25,76,15,219,24,83,03,083,16*63
$GLGSV,3,3,11,84,45,121,30,85,46,206,23,86,03,244,*5C
$AAMTW,26.6,C*11
$AAXDR,C,26.6,C,ENV_SEA_T*0C
$AAMDA,,I,,B,,C,26.6,C,,,,C,,T,,M,,N,,M*06
$GNGLL,3651.99028,S,17443.43210,E,025610.00,A,A*60
$GNZDA,025610.00,26,01,2018,00,00*76
$GNRMC,025611.00,A,3651.99015,S,17443.43222,E,0.042,,260118,,,A*7D
$GNVTG,,T,,M,0.042,N,0.078,K,A*34
$GNGGA,025611.00,3651.99015,S,17443.43222,E,1,12,0.70,20.2,M,28.1,M,,*64
$AAMTW,26.6,C*11
$AAXDR,C,26.6,C,ENV_SEA_T*0C
$AAMDA,,I,,B,,C,26.6,C,,,,C,,T,,M,,N,,M*06
$GNGSA,A,3,02,06,29,19,20,05,09,12,25,,,,1.20,0.70,0.97*1B
$GNGSA,A,3,84,70,74,68,69,,,,,,,,1.20,0.70,0.97*1F
$GPGSV,3,1,10,02,58,142,40,05,71,013,38,06,26,119,28,09,10,131,21*75
$GPGSV,3,2,10,12,54,316,34,13,01,023,,19,17,066,40,20,20,326,24*71
$GPGSV,3,3,10,25,44,251,09,29,27,229,27*72
$GLGSV,3,1,11,68,10,154,22,69,49,117,35,70,43,023,32,71,02,354,*6D
$GLGSV,3,2,11,74,10,320,16,75,25,269,23,76,15,219,,83,03,083,15*61
$GLGSV,3,3,11,84,45,121,31,85,46,206,24,86,03,244,*5A
$AAMTW,26.6,C*11
$AAXDR,C,26.6,C,ENV_SEA_T*0C
$AAMDA,,I,,B,,C,26.6,C,,,,C,,T,,M,,N,,M*06
$GNGLL,3651.99015,S,17443.43222,E,025611.00,A,A*6E
$GNZDA,025611.00,26,01,2018,00,00*77
$GNRMC,025612.00,A,3651.99010,S,17443.43226,E,0.109,,260118,,,A*71
$GNVTG,,T,,M,0.109,N,0.202,K,A*35
$GNGGA,025612.00,3651.99010,S,17443.43226,E,1,12,0.68,20.5,M,28.1,M,,*68
$AAMTW,26.6,C*11
$AAXDR,C,26.6,C,ENV_SEA_T*0C
$AAMDA,,I,,B,,C,26.6,C,,,,C,,T,,M,,N,,M*06
$GNGSA,A,3,02,06,29,19,20,05,09,12,25,,,,1.13,0.68,0.90*15
$GNGSA,A,3,84,70,74,68,69,,,,,,,,1.13,0.68,0.90*11
$GPGSV,3,1,10,02,58,142,40,05,71,013,38,06,26,119,30,09,10,131,21*7C
$GPGSV,3,2,10,12,54,316,34,13,01,023,,19,17,066,39,20,20,326,22*79
$GPGSV,3,3,10,25,44,251,16,29,27,229,25*7E
$GLGSV,3,1,11,68,10,154,22,69,49,117,36,70,43,023,31,71,02,354,*6D
