$GNVTG,,,,,,,,,N*2E
$GNGGA,034230.00,,,,,0,09,1.16,,,,,,*41
$GNGSA,A,1,02,05,29,20,,,,,,,,,2.17,1.16,1.84*1F
$GNGSA,A,1,66,83,82,81,67,,,,,,,,2.17,1.16,1.84*18
$GPGSV,2,1,07,02,37,108,41,04,,,31,05,70,130,41,12,,,30*74
$GPGSV,2,2,07,20,49,310,33,25,,,28,29,55,222,44*77
$GLGSV,2,1,05,66,25,148,36,67,73,093,35,81,28,077,20,82,62,142,39*67
$AAMTW,25.1,C*15
$AAXDR,C,25.1,C,ENV_SEA_T*08
$AAMDA,,I,,B,,C,25.1,C,,,,C,,T,,M,,N,,M*02
$GLGSV,2,2,05,83,32,216,32*5E
$GNGLL,,,,,034230.00,V,N*52
$GNZDA,034230.00,31,01,2018,00,00*76
$AAMTW,25.1,C*15
$AAXDR,C,25.1,C,ENV_SEA_T*08
$AAMDA,,I,,B,,C,25.1,C,,,,C,,T,,M,,N,,M*02
$GNRMC,034231.00,A,3651.88662,S,17443.42446,E,0.037,,310118,,,A*7C
$GNVTG,,T,,M,0.037,N,0.068,K,A*37
$GNGGA,034231.00,3651.88662,S,17443.42446,E,1,10,1.03,15.8,M,28.1,M,,*6A
$GNGSA,A,3,02,05,29,20,25,,,,,,,,1.96,1.03,1.67*19
$GNGSA,A,3,66,83,82,81,67,,,,,,,,1.96,1.03,1.67*19
$GPGSV,2,1,07,02,37,108,40,04,,,33,05,70,130,42,12,,,31*75
$GPGSV,2,2,07,20,49,310,33,25,38,294,28,29,55,222,42*45
$AAMTW,25.1,C*15
$AAXDR,C,25.1,C,ENV_SEA_T*08
$GLGSV,2,1,05,66,25,148,37,67,73,093,35,81,28,077,22,82,62,142,39*64
$GLGSV,2,2,05,83,32,216,32*5E
$AAMDA,,I,,B,,C,25.1,C,,,,C,,T,,M,,N,,M*02
$GNGLL,3651.88662,S,17443.42446,E,034231.00,A,A*6B
$GNZDA,034231.00,31,01,2018,00,00*77
$AAMTW,25.1,C*15
$AAXDR,C,25.1,C,ENV_SEA_T*08
$AAMDA,,I,,B,,C,25.1,C,,,,C,,T,,M,,N,,M*02
$GNRMC,034232.00,A,3651.88694,S,17443.42457,E,0.054,,310118,,,A*73
$GNVTG,,T,,M,0.054,N,0.100,K,A*3D
$GNGGA,034232.00,3651.88694,S,17443.42457,E,1,10,1.03,16.3,M,28.1,M,,*68
$GNGSA,A,3,02,05,29,20,25,,,,,,,,1.96,1.03,1.67*19
$GNGSA,A,3,66,83,82,81,67,,,,,,,,1.96,1.03,1.67*19
$GPGSV,2,1,07,02,37,108,40,04,,,29,05,70,130,41,12,,,31*7D
$GPGSV,2,2,07,20,49,310,33,25,38,294,28,29,55,222,43*44
$GLGSV,2,1,05,66,25,148,38,67,73,093,36,81,28,077,26,82,62,142,39*6C
$GLGSV,2,2,05,83,32,216,34*58
$AAMTW,25.1,C*15
$AAXDR,C,25.1,C,ENV_SEA_T*08
$AAMDA,,I,,B,,C,25.1,C,,,,C,,T,,M,,N,,M*02
$GNGLL,3651.88694,S,17443.42457,E,034232.00,A,A*61
$GNZDA,034232.00,31,01,2018,00,00*74
$AAMTW,25.1,C*15
$AAXDR,C,25.1,C,ENV_SEA_T*08
$AAMDA,,I,,B,,C,25.1,C,,,,C,,T,,M,,N,,M*02
$GNRMC,034233.00,A,3651.88706,S,17443.42463,E,0.075,,310118,,,A*7C
$GNVTG,,T,,M,0.075,N,0.138,K,A*35
$GNGGA,034233.00,3651.88706,S,17443.42463,E,1,10,1.03,16.6,M,28.1,M,,*61
$GNGSA,A,3,02,05,29,20,25,,,,,,,,1.96,1.03,1.67*19
$GNGSA,A,3,66,83,82,81,67,,,,,,,,1.96,1.03,1.67*19
$GPGSV,2,1,07,02,37,108,40,04,,,27,05,70,130,39,12,,,29*75
$GPGSV,2,2,07,20,49,310,31,25,38,294,29,29,55,222,41*45
$AAMTW,25.1,C*15
$AAXDR,C,25.1,C,ENV_SEA_T*08
$GLGSV,2,1,05,66,25,148,37,67,73,093,37,81,28,077,26,82,62,142,39*62
$AAMDA,,I,,B,,C,25.1,C,,,,C,,T,,M,,N,,M*02
$GLGSV,2,2,05,83,32,216,39*55
$GNGLL,3651.88706,S,17443.42463,E,034233.00,A,A*6D
$GNZDA,034233.00,31,01,2018,00,00*75
$AAMTW,25.1,C*15
$AAXDR,C,25.1,C,ENV_SEA_T*08
$AAMDA,,I,,B,,C,25.1,C,,,,C,,T,,M,,N,,M*02
$GNRMC,034234.00,A,3651.88702,S,17443.42463,E,0.093,,310118,,,A*77
$GNVTG,,T,,M,0.093,N,0.172,K,A*33
$GNGGA,034234.00,3651.88702,S,17443.42463,E,1,10,1.03,16.7,M,28.1,M,,*63
$GNGSA,A,3,02,05,29,20,25,,,,,,,,1.96,1.03,1.67*19
$GNGSA,A,3,66,83,82,81,67,,,,,,,,1.96,1.03,1.67*19
$GPGSV,2,1,07,02,37,108,41,04,,,27,05,70,130,38,12,,,29*75
$GPGSV,2,2,07,20,49,310,30,25,38,294,31,29,55,222,41*4D
$GLGSV,2,1,05,66,25,148,36,67,73,093,37,81,28,077,23,82,62,142,39*66
$GLGSV,2,2,05,83,32,216,38*54
$AAMTW,25.1,C*15
$AAXDR,C,25.1,C,ENV_SEA_T*08
$AAMDA,,I,,B,,C,25.1,C,,,,C,,T,,M,,N,,M*02
$GNGLL,3651.88702,S,17443.42463,E,034234.00,A,A*6E
$GNZDA,034234.00,31,01,2018,00,00*72
$AAMTW,25.1,C*15
$AAXDR,C,25.1,C,ENV_SEA_T*08
$AAMDA,,I,,B,,C,25.1,C,,,,C,,T,,M,,N,,M*02
$GNRMC,034235.00,A,3651.88706,S,17443.42469,E,0.073,,310118,,,A*76
$GNVTG,,T,,M,0.073,N,0.136,K,A*3D
$GNGGA,034235.00,3651.88706,S,17443.42469,E,1,10,1.03,16.9,M,28.1,M,,*62
$GNGSA,A,3,02,05,29,20,25,,,,,,,,1.96,1.03,1.67*19
$GNGSA,A,3,66,83,82,81,67,,,,,,,,1.96,1.03,1.67*19
$GPGSV,2,1,07,02,37,108,42,04,,,27,05,70,130,39,12,,,30*7F
$GPGSV,2,2,07,20,49,310,29,25,38,294,31,29,55,222,41*45
$AAMTW,25.1,C*15
$AAXDR,C,25.1,C,ENV_SEA_T*08
$GLGSV,2,1,05,66,25,148,36,67,73,093,37,81,28,077,20,82,62,142,40*6B
$GLGSV,2,2,05,83,32,216,39*55
$AAMDA,,I,,B,,C,25.1,C,,,,C,,T,,M,,N,,M*02
$GNGLL,3651.88706,S,17443.42469,E,034235.00,A,A*61
$GNZDA,034235.00,31,01,2018,00,00*73
$AAMTW,25.1,C*15
$AAXDR,C,25.1,C,ENV_SEA_T*08
$AAMDA,,I,,B,,C,25.1,C,,,,C,,T,,M,,N,,M*02
$GNRMC,034236.00,A,3651.88704,S,17443.42474,E,0.097,,310118,,,A*71
$GNVTG,,T,,M,0.097,N,0.180,K,A*3A
$GNGGA,034236.00,3651.88704,S,17443.42474,E,1,10,1.03,17.2,M,28.1,M,,*65
$GNGSA,A,3,02,05,29,20,25,,,,,,,,1.96,1.03,1.67*19
$GNGSA,A,3,66,83,82,81,67,,,,,,,,1.96,1.03,1.67*19
$GPGSV,2,1,07,02,37,108,41,04,,,28,05,70,130,40,12,,,23*7F
$GPGSV,2,2,07,20,49,310,28,25,38,294,26,29,55,222,44*47
$GLGSV,2,1,05,66,25,148,36,67,73,093,32,81,28,077,28,82,62,142,39*68
$GLGSV,2,2,05,83,32,216,35*59
$AAMTW,25.1,C*15
$AAXDR,C,25.1,C,ENV_SEA_T*08
$AAMDA,,I,,B,,C,25.1,C,,,,C,,T,,M,,N,,M*02
$GNGLL,3651.88704,S,17443.42474,E,034236.00,A,A*6C
$GNZDA,034236.00,31,01,2018,00,00*70
$AAMTW,25.1,C*15
$AAXDR,C,25.1,C,ENV_SEA_T*08
$AAMDA,,I,,B,,C,25.1,C,,,,C,,T,,M,,N,,M*02
$GNRMC,034237.00,A,3651.88707,S,17443.42478,E,0.191,,310118,,,A*78
$GNVTG,,T,,M,0.191,N,0.354,K,A*36
$GNGGA,034237.00,3651.88707,S,17443.42478,E,1,10,1.03,17.6,M,28.1,M,,*6F
$GNGSA,A,3,02,05,29,20,25,,,,,,,,1.96,1.03,1.67*19
$GNGSA,A,3,66,83,82,81,67,,,,,,,,1.96,1.03,1.67*19
$GPGSV,2,1,07,02,37,108,40,04,,,30,05,70,130,41,12,,,23*76
$GPGSV,2,2,07,20,49,310,28,25,38,294,25,29,55,222,44*44
$AAMTW,25.1,C*15
$AAXDR,C,25.1,C,ENV_SEA_T*08
$AAMDA,,I,,B,,C,25.1,C,,,,C,,T,,M,,N,,M*02
$GLGSV,2,1,05,66,25,148,36,67,73,093,31,81,28,077,25,82,62,142,40*68
$GLGSV,2,2,05,83,32,216,32*5E
$GNGLL,3651.88707,S,17443.42478,E,034237.00,A,A*62
$GNZDA,034237.00,31,01,2018,00,00*71
$AAMTW,25.1,C*15
$AAXDR,C,25.1,C,ENV_SEA_T*08
$AAMDA,,I,,B,,C,25.1,C,,,,C,,T,,M,,N,,M*02
$GNRMC,034238.00,A,3651.88713,S,17443.42480,E,0.202,,310118,,,A*7C
$GNVTG,,T,,M,0.202,N,0.374,K,A*3D
$GNGGA,034238.00,3651.88713,S,17443.42480,E,1,10,1.03,17.9,M,28.1,M,,*6D
$GNGSA,A,3,02,05,29,20,25,,,,,,,,1.96,1.03,1.66*18
$GNGSA,A,3,66,83,82,81,67,,,,,,,,1.96,1.03,1.66*18
$GPGSV,2,1,07,02,37,108,40,04,,,32,05,70,130,41,12,,,25*72
$GPGSV,2,2,07,20,49,310,27,25,38,294,26,29,55,222,44*48
$GLGSV,2,1,05,66,25,148,36,67,73,093,31,81,28,077,24,82,62,142,39*67
$AAMTW,25.1,C*15
$GLGSV,2,2,05,83,32,216,38*54
$AAXDR,C,25.1,C,ENV_SEA_T*08
$AAMDA,,I,,B,,C,25.1,C,,,,C,,T,,M,,N,,M*02
$GNGLL,3651.88713,S,17443.42480,E,034238.00,A,A*6F
$GNZDA,034238.00,31,01,2018,00,00*7E
$AAMTW,25.1,C*15
$AAXDR,C,25.1,C,ENV_SEA_T*08
$AAMDA,,I,,B,,C,25.1,C,,,,C,,T,,M,,N,,M*02
$GNRMC,034239.00,A,3651.88716,S,17443.42481,E,0.134,,310118,,,A*7F
$GNVTG,,T,,M,0.134,N,0.249,K,A*34
$GNGGA,034239.00,3651.88716,S,17443.42481,E,1,10,1.27,18.2,M,28.1,M,,*6A
$GNGSA,A,3,02,05,29,20,25,,,,,,,,2.32,1.27,1.94*1E
$GNGSA,A,3,66,83,82,81,67,,,,,,,,2.32,1.27,1.94*1E
$GPGSV,2,1,07,02,37,108,41,04,,,32,05,70,130,40,12,,,29*7E
$GPGSV,2,2,07,20,49,310,27,25,38,294,29,29,55,222,43*40
$AAMTW,25.1,C*15
$AAXDR,C,25.1,C,ENV_SEA_T*08
$AAMDA,,I,,B,,C,25.1,C,,,,C,,T,,M,,N,,M*02
$GLGSV,2,1,05,66,25,148,36,67,73,093,25,81,28,077,35,82,62,142,39*62
$GLGSV,2,2,05,83,32,216,38*54
$GNGLL,3651.88716,S,17443.42481,E,034239.00,A,A*6A
$GNZDA,034239.00,31,01,2018,00,00*7F
$AAMTW,25.1,C*15
$AAXDR,C,25.1,C,ENV_SEA_T*08
$AAMDA,,I,,B,,C,25.1,C,,,,C,,T,,M,,N,,M*02
$GNRMC,034240.00,A,3651.88696,S,17443.42473,E,0.073,,310118,,,A*77
$GNVTG,,T,,M,0.073,N,0.136,K,A*3D
$GNGGA,034240.00,3651.88696,S,17443.42473,E,1,10,1.03,18.2,M,28.1,M,,*66
$GNGSA,A,3,02,05,29,20,25,,,,,,,,1.96,1.03,1.66*18
$GNGSA,A,3,66,83,82,81,67,,,,,,,,1.96,1.03,1.66*18
$GPGSV,2,1,07,02,37,108,44,04,,,32,05,70,130,41,12,,,31*73
$GPGSV,2,2,07,20,49,310,28,25,38,294,30,29,55,222,44*40
$AAMTW,25.1,C*15
$GLGSV,2,1,05,66,25,148,38,67,73,093,25,81,28,077,38,82,62,142,42*6D
$AAXDR,C,25.1,C,ENV_SEA_T*08
$GLGSV,2,2,05,83,32,216,38*54
$AAMDA,,I,,B,,C,25.1,C,,,,C,,T,,M,,N,,M*02
$GNGLL,3651.88696,S,17443.42473,E,034240.00,A,A*60
$GNZDA,034240.00,31,01,2018,00,00*71
$AAMTW,25.1,C*15
$AAXDR,C,25.1,C,ENV_SEA_T*08
$AAMDA,,I,,B,,C,25.1,C,,,,C,,T,,M,,N,,M*02
$GNRMC,034241.00,A,3651.88667,S,17443.42463,E,0.066,,310118,,,A*7D
$GNVTG,,T,,M,0.066,N,0.121,K,A*3F
$GNGGA,034241.00,3651.88667,S,17443.42463,E,1,10,1.03,18.4,M,28.1,M,,*6E
$GNGSA,A,3,02,05,29,20,25,,,,,,,,1.95,1.03,1.66*1B
$GNGSA,A,3,66,83,82,81,67,,,,,,,,1.95,1.03,1.66*1B
$GPGSV,2,1,07,02,37,108,45,04,,,34,05,70,130,42,12,,,35*73
$GPGSV,2,2,07,20,49,310,29,25,38,294,35,29,55,222,45*45
$AAMTW,25.1,C*15
$AAXDR,C,25.1,C,ENV_SEA_T*08
$AAMDA,,I,,B,,C,25.1,C,,,,C,,T,,M,,N,,M*02
$GLGSV,2,1,05,66,25,148,36,67,73,093,26,81,28,077,39,82,62,142,42*61
$GLGSV,2,2,05,83,32,216,39*55
$GNGLL,3651.88667,S,17443.42463,E,034241.00,A,A*6E
$GNZDA,034241.00,31,01,2018,00,00*70
$AAMTW,25.1,C*15
$AAXDR,C,25.1,C,ENV_SEA_T*08
$AAMDA,,I,,B,,C,25.1,C,,,,C,,T,,M,,N,,M*02
$GNRMC,034242.00,A,3651.88635,S,17443.42459,E,0.067,,310118,,,A*71
$GNVTG,,T,,M,0.067,N,0.124,K,A*3B
$GNGGA,034242.00,3651.88635,S,17443.42459,E,1,10,1.03,18.3,M,28.1,M,,*64
$GNGSA,A,3,02,05,29,20,25,,,,,,,,1.95,1.03,1.66*1B
$GNGSA,A,3,66,83,82,81,67,,,,,,,,1.95,1.03,1.66*1B
$GPGSV,2,1,07,02,37,108,43,04,,,29,05,70,130,41,12,,,34*7B
$GPGSV,2,2,07,20,49,310,27,25,38,294,35,29,55,222,45*4B
$AAMTW,25.1,C*15
$AAXDR,C,25.1,C,ENV_SEA_T*08
$AAMDA,,I,,B,,C,25.1,C,,,,C,,T,,M,,N,,M*02
$GLGSV,2,1,05,66,25,148,35,67,73,093,24,81,28,077,39,82,62,142,41*63
$GLGSV,2,2,05,83,32,216,37*5B
$GNGLL,3651.88635,S,17443.42459,E,034242.00,A,A*63
$GNZDA,034242.00,31,01,2018,00,00*73
$AAMTW,25.1,C*15
$AAXDR,C,25.1,C,ENV_SEA_T*08
$AAMDA,,I,,B,,C,25.1,C,,,,C,,T,,M,,N,,M*02
$GNRMC,034243.00,A,3651.88636,S,17443.42461,E,0.016,,310118,,,A*7E
$GNVTG,,T,,M,0.016,N,0.030,K,A*39
$GNGGA,034243.00,3651.88636,S,17443.42461,E,1,10,1.03,18.5,M,28.1,M,,*6B
$GNGSA,A,3,02,05,29,20,25,,,,,,,,1.95,1.03,1.66*1B
$GNGSA,A,3,66,83,82,81,67,,,,,,,,1.95,1.03,1.66*1B
$GPGSV,2,1,07,02,37,108,43,04,,,30,05,70,130,40,12,,,35*73
$GPGSV,2,2,07,20,49,310,27,25,38,294,35,29,55,222,45*4B
$AAMTW,25.1,C*15
$AAXDR,C,25.1,C,ENV_SEA_T*08
$AAMDA,,I,,B,,C,25.1,C,,,,C,,T,,M,,N,,M*02
$GLGSV,2,1,05,66,25,148,36,67,73,093,23,81,28,077,38,82,62,142,41*66
$GLGSV,2,2,05,83,32,216,37*5B
$GNGLL,3651.88636,S,17443.42461,E,034243.00,A,A*6A
$GNZDA,034243.00,31,01,2018,00,00*72
$AAMTW,25.1,C*15
$AAXDR,C,25.1,C,ENV_SEA_T*08
$AAMDA,,I,,B,,C,25.1,C,,,,C,,T,,M,,N,,M*02
$GNRMC,034244.00,A,3651.88638,S,17443.42463,E,0.021,,310118,,,A*71
$GNVTG,,T,,M,0.021,N,0.039,K,A*34
$GNGGA,034244.00,3651.88638,S,17443.42463,E,1,10,1.03,18.6,M,28.1,M,,*63
$GNGSA,A,3,02,05,29,20,25,,,,,,,,1.95,1.03,1.66*1B
$GNGSA,A,3,66,83,82,81,67,,,,,,,,1.95,1.03,1.66*1B
$GPGSV,2,1,07,02,37,108,43,04,,,30,05,70,130,41,12,,,36*71
$GPGSV,2,2,07,20,49,310,29,25,38,294,34,29,55,222,45*44
$AAMTW,25.1,C*15
$AAXDR,C,25.1,C,ENV_SEA_T*08
$GLGSV,2,1,05,66,25,148,36,67,73,093,22,81,28,077,38,82,62,142,40*66
$GLGSV,2,2,05,83,32,216,37*5B
$AAMDA,,I,,B,,C,25.1,C,,,,C,,T,,M,,N,,M*02
$GNGLL,3651.88638,S,17443.42463,E,034244.00,A,A*61
$GNZDA,034244.00,31,01,2018,00,00*75
$AAMTW,25.1,C*15
$AAXDR,C,25.1,C,ENV_SEA_T*08
$AAMDA,,I,,B,,C,25.1,C,,,,C,,T,,M,,N,,M*02
$GNRMC,034245.00,A,3651.88625,S,17443.42465,E,0.029,,310118,,,A*72
$GNVTG,,T,,M,0.029,N,0.055,K,A*36
$GNGGA,034245.00,3651.88625,S,17443.42465,E,1,10,1.03,18.4,M,28.1,M,,*6A
$GNGSA,A,3,02,05,29,20,25,,,,,,,,1.95,1.03,1.66*1B
$GNGSA,A,3,66,83,82,81,67,,,,,,,,1.95,1.03,1.66*1B
$GPGSV,2,1,07,02,37,108,43,04,,,31,05,70,130,41,12,,,36*70
$GPGSV,2,2,07,20,49,310,27,25,38,294,34,29,55,222,45*4A
$AAMTW,25.1,C*15
$AAXDR,C,25.1,C,ENV_SEA_T*08
$AAMDA,,I,,B,,C,25.1,C,,,,C,,T,,M,,N,,M*02
$GLGSV,2,1,05,66,25,148,34,67,73,093,21,81,28,077,38,82,62,142,41*66
$GLGSV,2,2,05,83,32,216,39*55
$GNGLL,3651.88625,S,17443.42465,E,034245.00,A,A*6A
$GNZDA,034245.00,31,01,2018,00,00*74
$AAMTW,25.1,C*15
$AAXDR,C,25.1,C,ENV_SEA_T*08
$AAMDA,,I,,B,,C,25.1,C,,,,C,,T,,M,,N,,M*02
$GNRMC,034246.00,A,3651.88611,S,17443.42465,E,0.014,,310118,,,A*78
$GNVTG,,T,,M,0.014,N,0.026,K,A*3C
$GNGGA,034246.00,3651.88611,S,17443.42465,E,1,10,1.03,18.0,M,28.1,M,,*6A
$GNGSA,A,3,02,05,29,20,25,,,,,,,,1.95,1.03,1.66*1B
$GNGSA,A,3,66,83,82,81,67,,,,,,,,1.95,1.03,1.66*1B
$GPGSV,2,1,07,02,37,108,41,04,,,32,05,70,130,40,12,,,35*73
$GPGSV,2,2,07,20,49,310,26,25,38,294,33,29,55,222,43*4A
$AAMTW,25.1,C*15
$AAXDR,C,25.1,C,ENV_SEA_T*08
$AAMDA,,I,,B,,C,25.1,C,,,,C,,T,,M,,N,,M*02
$GLGSV,2,1,05,66,25,148,34,67,73,093,20,81,28,077,38,82,62,142,41*67
$GLGSV,2,2,05,83,32,216,39*55
$GNGLL,3651.88611,S,17443.42465,E,034246.00,A,A*6E
$GNZDA,034246.00,31,01,2018,00,00*77
$AAMTW,25.1,C*15
$AAXDR,C,25.1,C,ENV_SEA_T*08
$AAMDA,,I,,B,,C,25.1,C,,,,C,,T,,M,,N,,M*02
$GNRMC,034247.00,A,3651.88592,S,17443.42470,E,0.138,,310118,,,A*7A
$GNVTG,,T,,M,0.138,N,0.255,K,A*35
$GNGGA,034247.00,3651.88592,S,17443.42470,E,1,10,1.03,17.7,M,28.1,M,,*6F
$GNGSA,A,3,02,05,29,20,25,,,,,,,,1.95,1.03,1.66*1B
$GNGSA,A,3,66,83,82,81,67,,,,,,,,1.95,1.03,1.66*1B
$GPGSV,2,1,07,02,37,108,43,04,,,28,05,70,130,38,12,,,37*77
$GPGSV,2,2,07,20,49,310,26,25,38,294,34,29,55,222,41*4F
$AAMTW,25.1,C*15
$AAXDR,C,25.1,C,ENV_SEA_T*08
$AAMDA,,I,,B,,C,25.1,C,,,,C,,T,,M,,N,,M*02
$GLGSV,2,1,05,66,25,148,36,67,73,093,22,81,28,077,41,82,62,142,40*68
$GLGSV,2,2,05,83,32,216,35*59
$GNGLL,3651.88592,S,17443.42470,E,034247.00,A,A*63
$GNZDA,034247.00,31,01,2018,00,00*76
$AAMTW,25.1,C*15
$AAXDR,C,25.1,C,ENV_SEA_T*08
$AAMDA,,I,,B,,C,25.1,C,,,,C,,T,,M,,N,,M*02
$GNRMC,034248.00,A,3651.88577,S,17443.42476,E,0.036,,310118,,,A*77
$GNVTG,,T,,M,0.036,N,0.067,K,A*39
$GNGGA,034248.00,3651.88577,S,17443.42476,E,1,10,1.03,17.5,M,28.1,M,,*6F
$GNGSA,A,3,02,05,29,20,25,,,,,,,,1.95,1.03,1.66*1B
$GNGSA,A,3,66,83,82,81,67,,,,,,,,1.95,1.03,1.66*1B
$GPGSV,2,1,07,02,37,108,43,04,,,29,05,70,130,39,12,,,34*74
$GPGSV,2,2,07,20,49,310,26,25,38,294,34,29,55,222,39*40
$AAMTW,25.1,C*15
$AAXDR,C,25.1,C,ENV_SEA_T*08
$AAMDA,,I,,B,,C,25.1,C,,,,C,,T,,M,,N,,M*02
$GLGSV,2,1,05,66,25,148,37,67,73,093,24,81,28,077,40,82,62,142,38*61
$GLGSV,2,2,05,83,32,216,34*58
$GNGLL,3651.88577,S,17443.42476,E,034248.00,A,A*61
$GNZDA,034248.00,31,01,2018,00,00*79
$AAMTW,25.1,C*15
$AAXDR,C,25.1,C,ENV_SEA_T*08
$AAMDA,,I,,B,,C,25.1,C,,,,C,,T,,M,,N,,M*02
$GNRMC,034249.00,A,3651.88562,S,17443.42479,E,0.060,,310118,,,A*7E
$GNVTG,,T,,M,0.060,N,0.112,K,A*39
$GNGGA,034249.00,3651.88562,S,17443.42479,E,1,10,1.03,17.3,M,28.1,M,,*63
$GNGSA,A,3,02,05,29,20,25,,,,,,,,1.95,1.03,1.66*1B
$GNGSA,A,3,66,83,82,81,67,,,,,,,,1.95,1.03,1.66*1B
$GPGSV,2,1,07,02,37,108,43,04,,,26,05,70,130,39,12,,,34*7B
$GPGSV,2,2,07,20,49,310,26,25,38,294,37,29,55,222,38*42
$AAMTW,25.1,C*15
$AAXDR,C,25.1,C,ENV_SEA_T*08
$AAMDA,,I,,B,,C,25.1,C,,,,C,,T,,M,,N,,M*02
$GLGSV,2,1,05,66,25,148,38,67,73,093,27,81,28,077,40,82,62,142,38*6D
$GLGSV,2,2,05,83,32,216,34*58
$GNGLL,3651.88562,S,17443.42479,E,034249.00,A,A*6B
$GNZDA,034249.00,31,01,2018,00,00*78
$AAMTW,25.1,C*15
$AAXDR,C,25.1,C,ENV_SEA_T*08
$AAMDA,,I,,B,,C,25.1,C,,,,C,,T,,M,,N,,M*02
$GNRMC,034250.00,A,3651.88550,S,17443.42483,E,0.068,,310118,,,A*7A
$GNVTG,,T,,M,0.068,N,0.126,K,A*36
$GNGGA,034250.00,3651.88550,S,17443.42483,E,1,10,1.03,17.1,M,28.1,M,,*6D
$GNGSA,A,3,02,05,29,20,25,,,,,,,,1.95,1.03,1.66*1B
$GNGSA,A,3,66,83,82,81,67,,,,,,,,1.95,1.03,1.66*1B
$GPGSV,2,1,07,02,37,108,44,04,,,33,05,70,130,42,12,,,37*77
$GPGSV,2,2,07,20,49,310,32,25,38,294,36,29,55,222,42*4B
$AAMTW,25.1,C*15
$AAXDR,C,25.1,C,ENV_SEA_T*08
$AAMDA,,I,,B,,C,25.1,C,,,,C,,T,,M,,N,,M*02
$GLGSV,2,1,05,66,25,148,35,67,73,093,28,81,28,077,39,82,62,142,43*6D
$GLGSV,2,2,05,83,32,216,40*5B
$GNGLL,3651.88550,S,17443.42483,E,034250.00,A,A*67
$GNZDA,034250.00,31,01,2018,00,00*70
$AAMTW,25.1,C*15
$AAXDR,C,25.1,C,ENV_SEA_T*08
$AAMDA,,I,,B,,C,25.1,C,,,,C,,T,,M,,N,,M*02
$GNRMC,034251.00,A,3651.88543,S,17443.42486,E,0.025,,310118,,,A*75
$GNVTG,,T,,M,0.025,N,0.046,K,A*38
$GNGGA,034251.00,3651.88543,S,17443.42486,E,1,10,1.03,17.0,M,28.1,M,,*6A
$GNGSA,A,3,02,05,29,20,25,,,,,,,,1.95,1.03,1.66*1B
$GNGSA,A,3,66,83,82,81,67,,,,,,,,1.95,1.03,1.66*1B
$GPGSV,2,1,07,02,37,108,41,04,,,32,05,70,130,41,12,,,34*73
$GPGSV,2,2,07,20,49,310,34,25,38,294,33,29,55,222,45*4F
$AAMTW,25.1,C*15
$AAXDR,C,25.1,C,ENV_SEA_T*08
$AAMDA,,I,,B,,C,25.1,C,,,,C,,T,,M,,N,,M*02
$GLGSV,2,1,05,66,25,148,35,67,73,093,28,81,28,077,38,82,62,142,43*6C
$GLGSV,2,2,05,83,32,216,38*54
$GNGLL,3651.88543,S,17443.42486,E,034251.00,A,A*61
$GNZDA,034251.00,31,01,2018,00,00*71
$AAMTW,25.1,C*15
$AAXDR,C,25.1,C,ENV_SEA_T*08
$AAMDA,,I,,B,,C,25.1,C,,,,C,,T,,M,,N,,M*02
$GNRMC,034252.00,A,3651.88536,S,17443.42486,E,0.056,,310118,,,A*70
$GNVTG,,T,,M,0.056,N,0.105,K,A*3A
$GNGGA,034252.00,3651.88536,S,17443.42486,E,1,10,1.03,16.9,M,28.1,M,,*63
$GNGSA,A,3,02,05,29,20,25,,,,,,,,1.95,1.03,1.66*1B
$GNGSA,A,3,66,83,82,81,67,,,,,,,,1.95,1.03,1.66*1B
$GPGSV,2,1,07,02,37,108,42,04,,,27,05,70,130,41,12,,,34*74
$GPGSV,2,2,07,20,49,310,26,25,38,294,33,29,55,222,45*4C
$AAMTW,25.1,C*15
$AAXDR,C,25.1,C,ENV_SEA_T*08
$AAMDA,,I,,B,,C,25.1,C,,,,C,,T,,M,,N,,M*02
$GLGSV,2,1,05,66,25,148,34,67,73,094,27,81,28,077,40,82,62,142,43*6A
$GLGSV,2,2,05,83,32,216,38*54
$GNGLL,3651.88536,S,17443.42486,E,034252.00,A,A*60
$GNZDA,034252.00,31,01,2018,00,00*72
$AAMTW,25.1,C*15
$AAXDR,C,25.1,C,ENV_SEA_T*08
$AAMDA,,I,,B,,C,25.1,C,,,,C,,T,,M,,N,,M*02
$GNRMC,034253.00,A,3651.88529,S,17443.42486,E,0.021,,310118,,,A*7F
$GNVTG,,T,,M,0.021,N,0.038,K,A*35
$GNGGA,034253.00,3651.88529,S,17443.42486,E,1,10,1.03,16.9,M,28.1,M,,*6C
$GNGSA,A,3,02,05,29,20,25,,,,,,,,1.95,1.03,1.66*1B
$GNGSA,A,3,66,83,82,81,67,,,,,,,,1.95,1.03,1.66*1B
$GPGSV,2,1,07,02,37,108,43,04,,,33,05,70,130,41,12,,,34*70
$GPGSV,2,2,07,20,49,310,25,25,38,294,32,29,55,222,43*48
$AAMTW,25.1,C*15
$AAXDR,C,25.1,C,ENV_SEA_T*08
$AAMDA,,I,,B,,C,25.1,C,,,,C,,T,,M,,N,,M*02
$GLGSV,2,1,05,66,25,148,34,67,73,094,26,81,28,076,39,82,62,142,43*64
$GLGSV,2,2,05,83,32,216,38*54
$GNGLL,3651.88529,S,17443.42486,E,034253.00,A,A*6F
$GNZDA,034253.00,31,01,2018,00,00*73
$AAMTW,25.1,C*15
$AAXDR,C,25.1,C,ENV_SEA_T*08
$AAMDA,,I,,B,,C,25.1,C,,,,C,,T,,M,,N,,M*02
$GNRMC,034254.00,A,3651.88525,S,17443.42486,E,0.081,,310118,,,A*7E
$GNVTG,,T,,M,0.081,N,0.151,K,A*31
$GNGGA,034254.00,3651.88525,S,17443.42486,E,1,10,1.03,16.9,M,28.1,M,,*67
$GNGSA,A,3,02,05,29,20,25,,,,,,,,1.95,1.03,1.66*1B
$GNGSA,A,3,66,83,82,81,67,,,,,,,,1.95,1.03,1.66*1B
$GPGSV,2,1,07,02,37,108,43,04,,,32,05,70,130,43,12,,,33*74
$GPGSV,2,2,07,20,49,310,32,25,38,294,32,29,55,222,43*4E
$AAMTW,25.1,C*15
$AAXDR,C,25.1,C,ENV_SEA_T*08
$AAMDA,,I,,B,,C,25.1,C,,,,C,,T,,M,,N,,M*02
$GLGSV,2,1,05,66,25,148,35,67,73,094,26,81,28,076,39,82,62,141,43*66
$GLGSV,2,2,05,83,32,216,39*55
$GNGLL,3651.88525,S,17443.42486,E,034254.00,A,A*64
$GNZDA,034254.00,31,01,2018,00,00*74
$AAMTW,25.1,C*15
$AAXDR,C,25.1,C,ENV_SEA_T*08
$AAMDA,,I,,B,,C,25.1,C,,,,C,,T,,M,,N,,M*02
$GNRMC,034255.00,A,3651.88517,S,17443.42481,E,0.066,,310118,,,A*70
$GNVTG,,T,,M,0.066,N,0.123,K,A*3D
$GNGGA,034255.00,3651.88517,S,17443.42481,E,1,11,0.89,16.8,M,28.1,M,,*63
$GNGSA,A,3,02,05,29,20,12,25,,,,,,,1.72,0.89,1.48*1E
$GNGSA,A,3,66,83,82,81,67,,,,,,,,1.72,0.89,1.48*1D
$GPGSV,2,1,07,02,37,108,43,04,,,29,05,70,130,42,12,25,339,34*46
$AAMTW,25.1,C*15
$AAXDR,C,25.1,C,ENV_SEA_T*08
$AAMDA,,I,,B,,C,25.1,C,,,,C,,T,,M,,N,,M*02
$GPGSV,2,2,07,20,49,310,31,25,38,294,32,29,55,222,43*4D
$GLGSV,2,1,05,66,25,148,35,67,73,094,25,81,28,076,39,82,62,141,43*65
$GLGSV,2,2,05,83,32,216,39*55
$GNGLL,3651.88517,S,17443.42481,E,034255.00,A,A*63
$GNZDA,034255.00,31,01,2018,00,00*75
$AAMTW,25.1,C*15
$AAXDR,C,25.1,C,ENV_SEA_T*08
$AAMDA,,I,,B,,C,25.1,C,,,,C,,T,,M,,N,,M*02
$GNRMC,034256.00,A,3651.88508,S,17443.42476,E,0.023,,310118,,,A*74
$GNVTG,,T,,M,0.023,N,0.043,K,A*3B
$GNGGA,034256.00,3651.88508,S,17443.42476,E,1,11,0.89,16.9,M,28.1,M,,*67
$GNGSA,A,3,02,05,29,20,12,25,,,,,,,1.72,0.89,1.48*1E
$GNGSA,A,3,66,83,82,81,67,,,,,,,,1.72,0.89,1.48*1D
$GPGSV,2,1,07,02,37,108,43,04,,,29,05,70,130,42,12,25,339,34*46
$AAMTW,25.1,C*15
$AAXDR,C,25.1,C,ENV_SEA_T*08
$AAMDA,,I,,B,,C,25.1,C,,,,C,,T,,M,,N,,M*02
$GPGSV,2,2,07,20,49,310,31,25,38,294,31,29,55,222,42*4F
$GLGSV,2,1,05,66,25,148,36,67,73,094,27,81,28,076,38,82,62,141,43*65
$GLGSV,2,2,05,83,32,216,39*55
$GNGLL,3651.88508,S,17443.42476,E,034256.00,A,A*66
$GNZDA,034256.00,31,01,2018,00,00*76
$AAMTW,25.1,C*15
$AAXDR,C,25.1,C,ENV_SEA_T*08
$AAMDA,,I,,B,,C,25.1,C,,,,C,,T,,M,,N,,M*02
$GNRMC,034257.00,A,3651.88504,S,17443.42476,E,0.014,,310118,,,A*7D
$GNVTG,,T,,M,0.014,N,0.026,K,A*3C
$GNGGA,034257.00,3651.88504,S,17443.42476,E,1,11,0.89,16.9,M,28.1,M,,*6A
$GNGSA,A,3,02,05,29,20,12,25,,,,,,,1.72,0.89,1.48*1E
$GNGSA,A,3,66,83,82,81,67,,,,,,,,1.72,0.89,1.48*1D
$GPGSV,2,1,07,02,37,108,42,04,,,28,05,70,130,42,12,25,339,31*43
$AAMTW,25.1,C*15
$AAXDR,C,25.1,C,ENV_SEA_T*08
$AAMDA,,I,,B,,C,25.1,C,,,,C,,T,,M,,N,,M*02
$GPGSV,2,2,07,20,49,310,34,25,38,294,30,29,55,222,40*49
$GLGSV,2,1,06,66,25,148,36,67,73,094,27,68,37,350,,81,28,076,37*68
$GLGSV,2,2,06,82,62,141,43,83,32,216,36*64
$GNGLL,3651.88504,S,17443.42476,E,034257.00,A,A*6B
$GNZDA,034257.00,31,01,2018,00,00*77
$AAMTW,25.1,C*15
$AAXDR,C,25.1,C,ENV_SEA_T*08
$AAMDA,,I,,B,,C,25.1,C,,,,C,,T,,M,,N,,M*02
$GNRMC,034258.00,A,3651.88503,S,17443.42476,E,0.084,,310118,,,A*7C
$GNVTG,,T,,M,0.084,N,0.155,K,A*30
$GNGGA,034258.00,3651.88503,S,17443.42476,E,1,11,0.89,16.9,M,28.1,M,,*62
$GNGSA,A,3,02,05,29,20,12,25,,,,,,,1.72,0.89,1.48*1E
$GNGSA,A,3,66,83,82,81,67,,,,,,,,1.72,0.89,1.48*1D
$GPGSV,2,1,07,02,37,108,40,04,,,27,05,70,130,42,12,25,339,31*4E
$AAMTW,25.1,C*15
$AAXDR,C,25.1,C,ENV_SEA_T*08
$AAMDA,,I,,B,,C,25.1,C,,,,C,,T,,M,,N,,M*02
$GPGSV,2,2,07,20,49,310,33,25,38,294,28,29,55,222,40*47
$GLGSV,2,1,06,66,25,148,34,67,73,094,30,68,37,350,26,81,28,076,37*68
$GLGSV,2,2,06,82,62,141,43,83,32,216,36*64
$GNGLL,3651.88503,S,17443.42476,E,034258.00,A,A*63
$GNZDA,034258.00,31,01,2018,00,00*78
$AAMTW,25.1,C*15
$AAXDR,C,25.1,C,ENV_SEA_T*08
$AAMDA,,I,,B,,C,25.1,C,,,,C,,T,,M,,N,,M*02
$GNRMC,034259.00,A,3651.88502,S,17443.42475,E,0.031,,310118,,,A*71
$GNVTG,,T,,M,0.031,N,0.058,K,A*32
$GNGGA,034259.00,3651.88502,S,17443.42475,E,1,11,0.89,16.9,M,28.1,M,,*61
$GNGSA,A,3,02,05,29,20,12,25,,,,,,,1.72,0.89,1.48*1E
$GNGSA,A,3,66,83,82,81,67,,,,,,,,1.72,0.89,1.48*1D
$GPGSV,2,1,07,02,37,108,40,04,,,28,05,70,130,42,12,25,339,30*40
$AAMTW,25.1,C*15
$AAXDR,C,25.1,C,ENV_SEA_T*08
$AAMDA,,I,,B,,C,25.1,C,,,,C,,T,,M,,N,,M*02
$GPGSV,2,2,07,20,49,310,32,25,38,294,26,29,55,222,40*48
$GLGSV,2,1,06,66,25,148,37,67,73,094,29,68,37,350,25,81,28,076,36*61
$GLGSV,2,2,06,82,62,141,43,83,32,216,38*6A
$GNGLL,3651.88502,S,17443.42475,E,034259.00,A,A*60
$GNZDA,034259.00,31,01,2018,00,00*79
$AAMTW,25.1,C*15
$AAXDR,C,25.1,C,ENV_SEA_T*08
$AAMDA,,I,,B,,C,25.1,C,,,,C,,T,,M,,N,,M*02
$GNRMC,034300.00,A,3651.88503,S,17443.42473,E,0.026,,310118,,,A*7D
$GNVTG,,T,,M,0.026,N,0.048,K,A*35
$GNGGA,034300.00,3651.88503,S,17443.42473,E,1,11,0.89,16.9,M,28.1,M,,*6B
$GNGSA,A,3,02,05,29,20,12,25,,,,,,,1.72,0.89,1.48*1E
$GNGSA,A,3,66,83,82,81,67,,,,,,,,1.72,0.89,1.48*1D
$GPGSV,2,1,07,02,36,108,40,04,,,34,05,70,130,42,12,25,339,30*4C
$AAMTW,25.1,C*15
$AAXDR,C,25.1,C,ENV_SEA_T*08
$AAMDA,,I,,B,,C,25.1,C,,,,C,,T,,M,,N,,M*02
$GPGSV,2,2,07,20,49,310,33,25,38,294,26,29,55,222,41*48
$GLGSV,2,1,06,66,25,148,37,67,73,094,28,68,37,350,23,81,28,076,37*67
$GLGSV,2,2,06,82,62,141,42,83,32,216,38*6B
$GNGLL,3651.88503,S,17443.42473,E,034300.00,A,A*6A
$GNZDA,034300.00,31,01,2018,00,00*74
$AAMTW,25.1,C*15
$AAXDR,C,25.1,C,ENV_SEA_T*08
$AAMDA,,I,,B,,C,25.1,C,,,,C,,T,,M,,N,,M*02
$GNRMC,034301.00,A,3651.88506,S,17443.42469,E,0.032,,310118,,,A*77
$GNVTG,,T,,M,0.032,N,0.060,K,A*3A
$GNGGA,034301.00,3651.88506,S,17443.42469,E,1,11,0.89,16.9,M,28.1,M,,*64
$GNGSA,A,3,02,05,29,20,12,25,,,,,,,1.72,0.89,1.48*1E
$GNGSA,A,3,66,83,82,81,67,,,,,,,,1.72,0.89,1.48*1D
$GPGSV,2,1,07,02,36,108,41,04,,,35,05,70,130,42,12,25,339,30*4C
$AAMTW,25.1,C*15
$AAXDR,C,25.1,C,ENV_SEA_T*08
$AAMDA,,I,,B,,C,25.1,C,,,,C,,T,,M,,N,,M*02
$GPGSV,2,2,07,20,49,310,33,25,38,294,27,29,55,222,41*49
$GLGSV,2,1,06,66,25,148,34,67,73,094,28,68,37,350,22,81,28,076,37*65
$GLGSV,2,2,06,82,62,141,42,83,32,216,38*6B
$GNGLL,3651.88506,S,17443.42469,E,034301.00,A,A*65
$GNZDA,034301.00,31,01,2018,00,00*75
$AAMTW,25.1,C*15
$AAXDR,C,25.1,C,ENV_SEA_T*08
$AAMDA,,I,,B,,C,25.1,C,,,,C,,T,,M,,N,,M*02
$GNRMC,034302.00,A,3651.88512,S,17443.42468,E,0.050,,310118,,,A*74
$GNVTG,,T,,M,0.050,N,0.093,K,A*32
$GNGGA,034302.00,3651.88512,S,17443.42468,E,1,11,0.89,16.8,M,28.1,M,,*62
$GNGSA,A,3,02,05,29,20,12,25,,,,,,,1.72,0.89,1.48*1E
$GNGSA,A,3,66,83,82,81,67,,,,,,,,1.72,0.89,1.48*1D
$GPGSV,2,1,07,02,36,108,40,04,,,29,05,70,130,35,12,25,339,32*42
$AAMTW,25.1,C*15
$AAXDR,C,25.1,C,ENV_SEA_T*08
$AAMDA,,I,,B,,C,25.1,C,,,,C,,T,,M,,N,,M*02
$GPGSV,2,2,07,20,49,310,25,25,38,294,29,29,55,222,31*47
$GLGSV,2,1,06,66,25,148,24,67,73,094,27,68,37,350,21,81,28,076,37*68
$GLGSV,2,2,06,82,62,141,35,83,32,216,38*6B
$GNGLL,3651.88512,S,17443.42468,E,034302.00,A,A*62
$GNZDA,034302.00,31,01,2018,00,00*76
$AAMTW,25.1,C*15
$AAXDR,C,25.1,C,ENV_SEA_T*08
$AAMDA,,I,,B,,C,25.1,C,,,,C,,T,,M,,N,,M*02
$GNRMC,034303.00,A,3651.88508,S,17443.42463,E,0.085,,310118,,,A*7D
$GNVTG,,T,,M,0.085,N,0.158,K,A*3C
$GNGGA,034303.00,3651.88508,S,17443.42463,E,1,11,0.89,16.8,M,28.1,M,,*63
$GNGSA,A,3,02,05,29,20,12,25,,,,,,,1.72,0.89,1.48*1E
$GNGSA,A,3,66,83,82,81,67,,,,,,,,1.72,0.89,1.48*1D
$AAMTW,25.1,C*15
$GPGSV,2,1,07,02,36,108,43,04,,,31,05,70,130,41,12,25,339,33*4A
$AAXDR,C,25.1,C,ENV_SEA_T*08
$AAMDA,,I,,B,,C,25.1,C,,,,C,,T,,M,,N,,M*02
$GPGSV,2,2,07,20,49,310,25,25,38,294,27,29,55,222,35*4D
$GLGSV,2,1,06,66,25,148,33,67,73,094,24,68,37,350,21,81,28,076,40*6D
$GLGSV,2,2,06,82,62,141,39,83,32,216,37*68
$GNGLL,3651.88508,S,17443.42463,E,034303.00,A,A*63
$GNZDA,034303.00,31,01,2018,00,00*77
$AAMTW,25.1,C*15
$AAXDR,C,25.1,C,ENV_SEA_T*08
$AAMDA,,I,,B,,C,25.1,C,,,,C,,T,,M,,N,,M*02
$GNRMC,034304.00,A,3651.88506,S,17443.42457,E,0.073,,310118,,,A*7A
$GNVTG,,T,,M,0.073,N,0.135,K,A*3E
$GNGGA,034304.00,3651.88506,S,17443.42457,E,1,11,0.89,16.7,M,28.1,M,,*62
$GNGSA,A,3,02,05,29,20,12,25,,,,,,,1.72,0.89,1.48*1E
$GNGSA,A,3,66,83,82,81,67,,,,,,,,1.72,0.89,1.48*1D
$AAMTW,25.1,C*15
$AAXDR,C,25.1,C,ENV_SEA_T*08
$GPGSV,2,1,07,02,36,108,41,04,,,34,05,70,130,41,12,25,339,33*4D
$AAMDA,,I,,B,,C,25.1,C,,,,C,,T,,M,,N,,M*02
$GPGSV,2,2,07,20,49,310,24,25,38,294,26,29,55,222,35*4D
$GLGSV,2,1,06,66,25,148,29,67,73,094,25,68,37,350,23,81,28,076,33*61
$GLGSV,2,2,06,82,62,141,40,83,32,216,38*69
$GNGLL,3651.88506,S,17443.42457,E,034304.00,A,A*6D
$GNZDA,034304.00,31,01,2018,00,00*70
$AAMTW,25.1,C*15
$AAXDR,C,25.1,C,ENV_SEA_T*08
$AAMDA,,I,,B,,C,25.1,C,,,,C,,T,,M,,N,,M*02
$GNRMC,034305.00,A,3651.88504,S,17443.42453,E,0.006,,310118,,,A*7F
$GNVTG,,T,,M,0.006,N,0.010,K,A*3A
$GNGGA,034305.00,3651.88504,S,17443.42453,E,1,11,0.89,16.5,M,28.1,M,,*67
$GNGSA,A,3,02,05,29,20,12,25,,,,,,,1.72,0.89,1.47*11
$GNGSA,A,3,66,83,82,81,67,,,,,,,,1.72,0.89,1.47*12
$AAMTW,25.1,C*15
$AAXDR,C,25.1,C,ENV_SEA_T*08
$GPGSV,2,1,07,02,36,108,41,04,,,34,05,70,130,40,12,25,339,35*4A
$AAMDA,,I,,B,,C,25.1,C,,,,C,,T,,M,,N,,M*02
$GPGSV,2,2,07,20,49,310,22,25,38,294,27,29,55,222,35*4A
$GLGSV,2,1,06,66,25,148,34,67,73,094,25,68,37,350,23,81,28,076,31*6F
$GLGSV,2,2,06,82,62,141,39,83,32,216,38*67
$GNGLL,3651.88504,S,17443.42453,E,034305.00,A,A*6A
$GNZDA,034305.00,31,01,2018,00,00*71
$AAMTW,25.1,C*15
$AAXDR,C,25.1,C,ENV_SEA_T*08
$AAMDA,,I,,B,,C,25.1,C,,,,C,,T,,M,,N,,M*02
$GNRMC,034306.00,A,3651.88504,S,17443.42448,E,0.068,,310118,,,A*7E
$AAMTW,25.1,C*15
$GNVTG,,T,,M,0.068,N,0.125,K,A*35
$GNGGA,034306.00,3651.88504,S,17443.42448,E,1,11,0.89,16.4,M,28.1,M,,*6F
$AAXDR,C,25.1,C,ENV_SEA_T*08
$GNGSA,A,3,02,05,29,20,12,25,,,,,,,1.72,0.89,1.47*11
$GNGSA,A,3,66,83,82,81,67,,,,,,,,1.72,0.89,1.47*12
$AAMDA,,I,,B,,C,25.1,C,,,,C,,T,,M,,N,,M*02
$GPGSV,2,1,07,02,36,108,40,04,,,36,05,70,130,40,12,25,339,34*48
$GPGSV,2,2,07,20,50,310,22,25,38,294,28,29,55,222,37*4F
$GLGSV,2,1,06,66,25,148,34,67,73,094,27,68,37,350,23,81,28,076,27*6A
$GLGSV,2,2,06,82,62,141,42,83,32,216,39*6A
$GNGLL,3651.88504,S,17443.42448,E,034306.00,A,A*63
$GNZDA,034306.00,31,01,2018,00,00*72
$AAMTW,25.1,C*15
$AAXDR,C,25.1,C,ENV_SEA_T*08
$AAMDA,,I,,B,,C,25.1,C,,,,C,,T,,M,,N,,M*02
$GNRMC,034307.00,A,3651.88505,S,17443.42445,E,0.003,,310118,,,A*7E
$GNVTG,,T,,M,0.003,N,0.005,K,A*3B
$GNGGA,034307.00,3651.88505,S,17443.42445,E,1,11,0.89,16.3,M,28.1,M,,*65
$GNGSA,A,3,02,05,29,20,12,25,,,,,,,1.72,0.89,1.47*11
$GNGSA,A,3,66,83,82,81,67,,,,,,,,1.72,0.89,1.47*12
$AAMTW,25.1,C*15
$AAXDR,C,25.1,C,ENV_SEA_T*08
$AAMDA,,I,,B,,C,25.1,C,,,,C,,T,,M,,N,,M*02
$GPGSV,2,1,07,02,36,108,39,04,,,33,05,70,130,40,12,25,339,34*43
$GPGSV,2,2,07,20,50,310,22,25,37,294,27,29,55,222,37*4F
$GLGSV,2,1,06,66,25,148,33,67,73,094,31,68,37,350,22,81,28,076,35*68
$GLGSV,2,2,06,82,62,141,42,83,32,216,39*6A
$GNGLL,3651.88505,S,17443.42445,E,034307.00,A,A*6E
$GNZDA,034307.00,31,01,2018,00,00*73
$AAMTW,25.1,C*15
$AAXDR,C,25.1,C,ENV_SEA_T*08
$AAMDA,,I,,B,,C,25.1,C,,,,C,,T,,M,,N,,M*02
$GNRMC,034308.00,A,3651.88507,S,17443.42443,E,0.006,,310118,,,A*70
$GNVTG,,T,,M,0.006,N,0.012,K,A*38
$GNGGA,034308.00,3651.88507,S,17443.42443,E,1,11,0.89,16.3,M,28.1,M,,*6E
$GNGSA,A,3,02,05,29,20,12,25,,,,,,,1.72,0.89,1.47*11
$GNGSA,A,3,66,83,82,81,67,,,,,,,,1.72,0.89,1.47*12
$AAMTW,25.1,C*15
$AAXDR,C,25.1,C,ENV_SEA_T*08
$AAMDA,,I,,B,,C,25.1,C,,,,C,,T,,M,,N,,M*02
$GPGSV,2,1,07,02,36,108,38,04,,,30,05,70,130,39,12,25,339,34*4F
$GPGSV,2,2,07,20,50,310,25,25,37,294,28,29,56,222,37*44
$GLGSV,2,1,06,66,25,148,34,67,73,094,31,68,37,350,20,81,28,076,35*6D
$GLGSV,2,2,06,82,62,141,42,83,32,216,39*6A
$GNGLL,3651.88507,S,17443.42443,E,034308.00,A,A*65
$GNZDA,034308.00,31,01,2018,00,00*7C
$AAMTW,25.1,C*15
$AAXDR,C,25.1,C,ENV_SEA_T*08
$AAMDA,,I,,B,,C,25.1,C,,,,C,,T,,M,,N,,M*02
$GNRMC,034309.00,A,3651.88503,S,17443.42445,E,0.064,,310118,,,A*77
$GNVTG,,T,,M,0.064,N,0.119,K,A*36
$GNGGA,034309.00,3651.88503,S,17443.42445,E,1,11,0.89,16.3,M,28.1,M,,*6D
$GNGSA,A,3,02,05,29,20,12,25,,,,,,,1.72,0.89,1.47*11
$GNGSA,A,3,66,83,82,81,67,,,,,,,,1.72,0.89,1.47*12
$AAMTW,25.1,C*15
$AAXDR,C,25.1,C,ENV_SEA_T*08
$AAMDA,,I,,B,,C,25.1,C,,,,C,,T,,M,,N,,M*02
$GPGSV,2,1,07,02,36,108,37,04,,,30,05,70,130,39,12,25,339,33*47
$GPGSV,2,2,07,20,50,310,31,25,37,294,31,29,56,222,40*49
$GLGSV,2,1,06,66,25,148,33,67,73,094,32,68,37,350,21,81,28,076,34*69
$GLGSV,2,2,06,82,62,141,42,83,32,216,39*6A
$GNGLL,3651.88503,S,17443.42445,E,034309.00,A,A*66
$GNZDA,034309.00,31,01,2018,00,00*7D
$AAMTW,25.1,C*15
$AAXDR,C,25.1,C,ENV_SEA_T*08
$AAMDA,,I,,B,,C,25.1,C,,,,C,,T,,M,,N,,M*02
$GNRMC,034310.00,A,3651.88514,S,17443.42443,E,0.192,,310118,,,A*77
$GNVTG,,T,,M,0.192,N,0.356,K,A*37
$GNGGA,034310.00,3651.88514,S,17443.42443,E,1,11,0.89,15.9,M,28.1,M,,*6C
$GNGSA,A,3,02,05,29,20,12,25,,,,,,,1.72,0.89,1.47*11
$GNGSA,A,3,66,83,82,81,67,,,,,,,,1.72,0.89,1.47*12
$AAMTW,25.1,C*15
$AAXDR,C,25.1,C,ENV_SEA_T*08
$AAMDA,,I,,B,,C,25.1,C,,,,C,,T,,M,,N,,M*02
$GPGSV,2,1,07,02,36,108,39,04,,,36,05,70,130,37,12,25,339,33*41
$GPGSV,2,2,07,20,50,310,26,25,37,294,23,29,56,222,43*4F
$GLGSV,2,1,06,66,25,148,38,67,73,094,28,68,37,350,20,81,28,076,30*6C
$GLGSV,2,2,06,82,62,141,43,83,32,216,39*6B
$GNGLL,3651.88514,S,17443.42443,E,034310.00,A,A*6E
$GNZDA,034310.00,31,01,2018,00,00*75
$AAMTW,25.1,C*15
$AAXDR,C,25.1,C,ENV_SEA_T*08
$AAMDA,,I,,B,,C,25.1,C,,,,C,,T,,M,,N,,M*02
$GNRMC,034311.00,A,3651.88517,S,17443.42443,E,0.058,,310118,,,A*72
$GNVTG,,T,,M,0.058,N,0.107,K,A*36
$GNGGA,034311.00,3651.88517,S,17443.42443,E,1,11,0.89,16.1,M,28.1,M,,*65
$AAMTW,25.1,C*15
$GNGSA,A,3,02,05,29,20,12,25,,,,,,,1.72,0.89,1.47*11
$GNGSA,A,3,66,83,82,81,67,,,,,,,,1.72,0.89,1.47*12
$AAXDR,C,25.1,C,ENV_SEA_T*08
$GPGSV,2,1,07,02,36,108,31,04,,,36,05,70,130,40,12,25,339,33*49
$GPGSV,2,2,07,20,50,310,23,25,37,294,23,29,56,222,40*49
$AAMDA,,I,,B,,C,25.1,C,,,,C,,T,,M,,N,,M*02
$GLGSV,2,1,06,66,25,148,38,67,73,094,26,68,37,350,21,81,28,076,35*66
$GLGSV,2,2,06,82,62,141,37,83,32,216,35*64
$GNGLL,3651.88517,S,17443.42443,E,034311.00,A,A*6C
$GNZDA,034311.00,31,01,2018,00,00*74
$AAMTW,25.1,C*15
$AAXDR,C,25.1,C,ENV_SEA_T*08
$AAMDA,,I,,B,,C,25.1,C,,,,C,,T,,M,,N,,M*02
$GNRMC,034312.00,A,3651.88518,S,17443.42435,E,0.085,,310118,,,A*7F
$GNVTG,,T,,M,0.085,N,0.157,K,A*33
$GNGGA,034312.00,3651.88518,S,17443.42435,E,1,11,0.89,16.3,M,28.1,M,,*6A
$GNGSA,A,3,02,05,29,20,12,25,,,,,,,1.72,0.89,1.47*11
$GNGSA,A,3,66,83,82,81,67,,,,,,,,1.72,0.89,1.47*12
$AAMTW,25.1,C*15
$AAXDR,C,25.1,C,ENV_SEA_T*08
$AAMDA,,I,,B,,C,25.1,C,,,,C,,T,,M,,N,,M*02
$GPGSV,2,1,07,02,36,108,29,04,,,37,05,70,130,40,12,25,339,34*46
$GPGSV,2,2,07,20,50,310,23,25,37,294,21,29,56,222,41*4A
$GLGSV,2,1,06,66,25,148,35,67,73,094,25,68,37,350,21,81,28,076,36*6B
$GLGSV,2,2,06,82,62,141,38,83,32,216,35*6B
$GNGLL,3651.88518,S,17443.42435,E,034312.00,A,A*61
$GNZDA,034312.00,31,01,2018,00,00*77
$AAMTW,25.1,C*15
$AAXDR,C,25.1,C,ENV_SEA_T*08
$AAMDA,,I,,B,,C,25.1,C,,,,C,,T,,M,,N,,M*02
$GNRMC,034313.00,A,3651.88517,S,17443.42427,E,0.035,,310118,,,A*79
$GNVTG,,T,,M,0.035,N,0.065,K,A*38
$GNGGA,034313.00,3651.88517,S,17443.42427,E,1,11,0.89,16.6,M,28.1,M,,*62
$GNGSA,A,3,02,05,29,20,12,25,,,,,,,1.72,0.89,1.47*11
$GNGSA,A,3,66,83,82,81,67,,,,,,,,1.72,0.89,1.47*12
$AAMTW,25.1,C*15
$AAXDR,C,25.1,C,ENV_SEA_T*08
$AAMDA,,I,,B,,C,25.1,C,,,,C,,T,,M,,N,,M*02
$GPGSV,2,1,07,02,36,108,28,04,,,36,05,70,130,41,12,25,339,33*40
$GPGSV,2,2,07,20,50,310,21,25,37,294,21,29,56,222,42*4B
$GLGSV,2,1,06,66,25,148,36,67,73,094,22,68,37,350,22,81,28,076,36*6C
$GLGSV,2,2,06,82,62,141,36,83,32,216,35*65
$GNGLL,3651.88517,S,17443.42427,E,034313.00,A,A*6C
$GNZDA,034313.00,31,01,2018,00,00*76
$AAMTW,25.1,C*15
$AAXDR,C,25.1,C,ENV_SEA_T*08
$AAMDA,,I,,B,,C,25.1,C,,,,C,,T,,M,,N,,M*02
$GNRMC,034314.00,A,3651.88512,S,17443.42414,E,0.066,,310118,,,A*7D
$GNVTG,,T,,M,0.066,N,0.122,K,A*3C
$GNGGA,034314.00,3651.88512,S,17443.42414,E,1,11,0.89,16.6,M,28.1,M,,*60
$GNGSA,A,3,02,05,29,20,12,25,,,,,,,1.72,0.89,1.47*11
$GNGSA,A,3,66,83,82,81,67,,,,,,,,1.72,0.89,1.47*12
$AAMTW,25.1,C*15
$AAXDR,C,25.1,C,ENV_SEA_T*08
$AAMDA,,I,,B,,C,25.1,C,,,,C,,T,,M,,N,,M*02
$GPGSV,2,1,07,02,36,108,26,04,,,34,05,70,130,36,12,25,339,33*4C
$GPGSV,2,2,07,20,50,310,23,25,37,294,20,29,56,222,42*48
$GLGSV,2,1,06,66,25,148,38,67,73,094,23,68,37,350,25,81,28,076,33*61
$GLGSV,2,2,06,82,62,141,39,83,32,216,39*66
$GNGLL,3651.88512,S,17443.42414,E,034314.00,A,A*6E
$GNZDA,034314.00,31,01,2018,00,00*71
$AAMTW,25.1,C*15
$AAXDR,C,25.1,C,ENV_SEA_T*08
$AAMDA,,I,,B,,C,25.1,C,,,,C,,T,,M,,N,,M*02
$GNRMC,034315.00,A,3651.88508,S,17443.42401,E,0.069,,310118,,,A*7C
$GNVTG,,T,,M,0.069,N,0.128,K,A*39
$GNGGA,034315.00,3651.88508,S,17443.42401,E,1,11,0.89,16.5,M,28.1,M,,*6D
$GNGSA,A,3,02,05,29,20,12,25,,,,,,,1.72,0.89,1.47*11
$GNGSA,A,3,66,83,82,81,67,,,,,,,,1.72,0.89,1.47*12
$AAMTW,25.1,C*15
$AAXDR,C,25.1,C,ENV_SEA_T*08
$AAMDA,,I,,B,,C,25.1,C,,,,C,,T,,M,,N,,M*02
$GPGSV,2,1,07,02,36,108,26,04,,,30,05,70,130,43,12,25,339,37*4E
$GPGSV,2,2,07,20,50,310,31,25,37,294,29,29,56,222,40*40
$GLGSV,2,1,06,66,25,148,39,67,73,094,31,68,37,350,27,81,28,076,32*60
$GLGSV,2,2,06,82,62,141,41,83,32,216,34*64
$GNGLL,3651.88508,S,17443.42401,E,034315.00,A,A*60
$GNZDA,034315.00,31,01,2018,00,00*70
$AAMTW,25.1,C*15
$AAXDR,C,25.1,C,ENV_SEA_T*08
$AAMDA,,I,,B,,C,25.1,C,,,,C,,T,,M,,N,,M*02
$GNRMC,034316.00,A,3651.88507,S,17443.42398,E,0.054,,310118,,,A*79
$GNVTG,,T,,M,0.054,N,0.099,K,A*3C
$GNGGA,034316.00,3651.88507,S,17443.42398,E,1,11,0.89,16.5,M,28.1,M,,*66
$GNGSA,A,3,02,05,29,20,12,25,,,,,,,1.72,0.89,1.47*11
$GNGSA,A,3,66,83,82,81,67,,,,,,,,1.72,0.89,1.47*12
$AAMTW,25.1,C*15
$AAXDR,C,25.1,C,ENV_SEA_T*08
$AAMDA,,I,,B,,C,25.1,C,,,,C,,T,,M,,N,,M*02
$GPGSV,2,1,07,02,36,108,26,04,,,34,05,70,130,42,12,25,339,36*4A
$GPGSV,2,2,07,20,50,310,21,25,37,294,33,29,56,222,35*48
$GLGSV,2,1,06,66,25,148,41,67,73,094,31,68,37,350,28,81,28,076,31*63
$GLGSV,2,2,06,82,62,141,41,83,32,216,38*68
$GNGLL,3651.88507,S,17443.42398,E,034316.00,A,A*6B
$AAMTW,25.1,C*15
$GNZDA,034316.00,31,01,2018,00,00*73
$AAXDR,C,25.1,C,ENV_SEA_T*08
$AAMDA,,I,,B,,C,25.1,C,,,,C,,T,,M,,N,,M*02
$GNRMC,034317.00,A,3651.88507,S,17443.42392,E,0.044,,310118,,,A*73
$GNVTG,,T,,M,0.044,N,0.081,K,A*34
$GNGGA,034317.00,3651.88507,S,17443.42392,E,1,11,0.89,16.4,M,28.1,M,,*6C
$GNGSA,A,3,02,05,29,20,12,25,,,,,,,1.72,0.89,1.47*11
$GNGSA,A,3,66,83,82,81,67,,,,,,,,1.72,0.89,1.47*12
$AAMTW,25.1,C*15
$AAXDR,C,25.1,C,ENV_SEA_T*08
$AAMDA,,I,,B,,C,25.1,C,,,,C,,T,,M,,N,,M*02
$GPGSV,2,1,07,02,36,108,26,04,,,29,05,70,130,42,12,25,339,35*45
$GPGSV,2,2,07,20,50,310,21,25,37,294,32,29,56,222,38*44
$GLGSV,2,1,06,66,25,148,41,67,73,094,31,68,37,350,29,81,28,076,32*61
$GLGSV,2,2,06,82,62,141,40,83,32,216,38*69
$GNGLL,3651.88507,S,17443.42392,E,034317.00,A,A*60
$AAMTW,25.1,C*15
$GNZDA,034317.00,31,01,2018,00,00*72
$AAXDR,C,25.1,C,ENV_SEA_T*08
$AAMDA,,I,,B,,C,25.1,C,,,,C,,T,,M,,N,,M*02
$GNRMC,034318.00,A,3651.88509,S,17443.42385,E,0.100,,310118,,,A*75
$GNVTG,,T,,M,0.100,N,0.184,K,A*31
$GNGGA,034318.00,3651.88509,S,17443.42385,E,1,11,0.89,16.4,M,28.1,M,,*6B
$GNGSA,A,3,02,05,29,20,12,25,,,,,,,1.72,0.89,1.47*11
$GNGSA,A,3,66,83,82,81,67,,,,,,,,1.72,0.89,1.47*12
$AAMTW,25.1,C*15
$AAXDR,C,25.1,C,ENV_SEA_T*08
$AAMDA,,I,,B,,C,25.1,C,,,,C,,T,,M,,N,,M*02
$GPGSV,2,1,07,02,36,108,26,04,,,28,05,70,130,43,12,25,339,34*44
$GPGSV,2,2,07,20,50,310,28,25,37,294,31,29,56,222,38*4E
$GLGSV,2,1,06,66,25,148,41,67,73,094,31,68,37,350,29,81,28,076,27*65
$GLGSV,2,2,06,82,62,141,41,83,32,216,36*66
$GNGLL,3651.88509,S,17443.42385,E,034318.00,A,A*67
$AAMTW,25.1,C*15
$AAXDR,C,25.1,C,ENV_SEA_T*08
$GNZDA,034318.00,31,01,2018,00,00*7D
$AAMDA,,I,,B,,C,25.1,C,,,,C,,T,,M,,N,,M*02
$GNRMC,034319.00,A,3651.88509,S,17443.42378,E,0.052,,310118,,,A*70
$GNVTG,,T,,M,0.052,N,0.096,K,A*35
$GNGGA,034319.00,3651.88509,S,17443.42378,E,1,11,0.89,16.4,M,28.1,M,,*68
$GNGSA,A,3,02,05,29,20,12,25,,,,,,,1.72,0.89,1.47*11
$GNGSA,A,3,66,83,82,81,67,,,,,,,,1.72,0.89,1.47*12
$AAMTW,25.1,C*15
$AAXDR,C,25.1,C,ENV_SEA_T*08
$AAMDA,,I,,B,,C,25.1,C,,,,C,,T,,M,,N,,M*02
$GPGSV,2,1,07,02,36,108,27,04,,,27,05,70,130,42,12,25,339,35*4A
$GPGSV,2,2,07,20,50,310,28,25,37,294,30,29,56,222,38*4F
$GLGSV,2,1,06,66,25,148,42,67,73,094,31,68,37,350,29,81,28,076,30*60
$GLGSV,2,2,06,82,62,141,41,83,32,216,36*66
$GNGLL,3651.88509,S,17443.42378,E,034319.00,A,A*64
$AAMTW,25.1,C*15
$AAXDR,C,25.1,C,ENV_SEA_T*08
$GNZDA,034319.00,31,01,2018,00,00*7C
$AAMDA,,I,,B,,C,25.1,C,,,,C,,T,,M,,N,,M*02
$GNRMC,034320.00,A,3651.88507,S,17443.42367,E,0.049,,310118,,,A*70
$GNVTG,,T,,M,0.049,N,0.090,K,A*39
$GNGGA,034320.00,3651.88507,S,17443.42367,E,1,11,0.89,16.3,M,28.1,M,,*65
$GNGSA,A,3,02,05,29,20,12,25,,,,,,,1.72,0.89,1.47*11
$GNGSA,A,3,66,83,82,81,67,,,,,,,,1.72,0.89,1.47*12
$AAMTW,25.1,C*15
$AAXDR,C,25.1,C,ENV_SEA_T*08
$AAMDA,,I,,B,,C,25.1,C,,,,C,,T,,M,,N,,M*02
$GPGSV,2,1,07,02,36,108,29,04,,,28,05,70,130,44,12,25,339,36*4E
$GPGSV,2,2,07,20,50,310,27,25,37,294,34,29,56,222,39*45
$GLGSV,2,1,06,66,25,148,42,67,72,095,32,68,37,350,29,81,28,076,34*67
$GLGSV,2,2,06,82,62,141,41,83,32,216,38*68
$GNGLL,3651.88507,S,17443.42367,E,034320.00,A,A*6E
$AAMTW,25.1,C*15
$AAXDR,C,25.1,C,ENV_SEA_T*08
$AAMDA,,I,,B,,C,25.1,C,,,,C,,T,,M,,N,,M*02
$GNZDA,034320.00,31,01,2018,00,00*76
$GNRMC,034321.00,A,3651.88513,S,17443.42359,E,0.034,,310118,,,A*73
$GNVTG,,T,,M,0.034,N,0.062,K,A*3E
$GNGGA,034321.00,3651.88513,S,17443.42359,E,1,11,0.89,16.4,M,28.1,M,,*6B
$GNGSA,A,3,02,05,29,20,12,25,,,,,,,1.72,0.89,1.47*11
$GNGSA,A,3,66,83,82,81,67,,,,,,,,1.72,0.89,1.47*12
$AAMTW,25.1,C*15
$AAXDR,C,25.1,C,ENV_SEA_T*08
$AAMDA,,I,,B,,C,25.1,C,,,,C,,T,,M,,N,,M*02
$GPGSV,2,1,07,02,36,108,29,04,,,33,05,70,130,45,12,25,339,36*45
$GPGSV,2,2,07,20,50,310,36,25,37,294,33,29,56,222,42*4E
$GLGSV,2,1,06,66,25,148,40,67,72,095,31,68,37,350,29,81,28,076,31*63
$GLGSV,2,2,06,82,62,141,39,83,32,216,37*68
$GNGLL,3651.88513,S,17443.42359,E,034321.00,A,A*67
$AAMTW,25.1,C*15
$AAXDR,C,25.1,C,ENV_SEA_T*08
$AAMDA,,I,,B,,C,25.1,C,,,,C,,T,,M,,N,,M*02
$GNZDA,034321.00,31,01,2018,00,00*77
$GNRMC,034322.00,A,3651.88522,S,17443.42353,E,0.050,,310118,,,A*7A
$GNVTG,,T,,M,0.050,N,0.093,K,A*32
$GNGGA,034322.00,3651.88522,S,17443.42353,E,1,11,0.89,16.5,M,28.1,M,,*61
$AAMTW,25.1,C*15
$GNGSA,A,3,02,05,29,20,12,25,,,,,,,1.72,0.89,1.47*11
$AAXDR,C,25.1,C,ENV_SEA_T*08
$GNGSA,A,3,66,83,82,81,67,,,,,,,,1.72,0.89,1.47*12
$AAMDA,,I,,B,,C,25.1,C,,,,C,,T,,M,,N,,M*02
$GPGSV,2,1,07,02,36,108,28,04,,,31,05,70,130,44,12,25,339,36*47
$GPGSV,2,2,07,20,50,310,37,25,37,294,33,29,56,222,42*4F
$GLGSV,2,1,06,66,25,148,42,67,72,095,31,68,37,350,28,81,28,076,30*61
$GLGSV,2,2,06,82,62,141,40,83,32,216,37*66
$GNGLL,3651.88522,S,17443.42353,E,034322.00,A,A*6C
$AAMTW,25.1,C*15
$AAXDR,C,25.1,C,ENV_SEA_T*08
$AAMDA,,I,,B,,C,25.1,C,,,,C,,T,,M,,N,,M*02
$GNZDA,034322.00,31,01,2018,00,00*74
$GNRMC,034323.00,A,3651.88534,S,17443.42350,E,0.035,,310118,,,A*7C
$GNVTG,,T,,M,0.035,N,0.066,K,A*3B
$GNGGA,034323.00,3651.88534,S,17443.42350,E,1,11,0.89,16.6,M,28.1,M,,*67
$GNGSA,A,3,02,05,29,20,12,25,,,,,,,1.72,0.89,1.47*11
$GNGSA,A,3,66,83,82,81,67,,,,,,,,1.72,0.89,1.47*12
$AAMTW,25.1,C*15
$AAXDR,C,25.1,C,ENV_SEA_T*08
$AAMDA,,I,,B,,C,25.1,C,,,,C,,T,,M,,N,,M*02
$GPGSV,2,1,07,02,36,108,29,04,,,26,05,70,130,43,12,25,339,37*46
$GPGSV,2,2,07,20,50,310,39,25,37,294,32,29,56,222,42*40
$GLGSV,2,1,06,66,25,148,43,67,72,095,31,68,37,350,26,81,28,076,29*66
$GLGSV,2,2,06,82,62,141,40,83,32,216,37*66
$GNGLL,3651.88534,S,17443.42350,E,034323.00,A,A*69
$AAMTW,25.1,C*15
$AAXDR,C,25.1,C,ENV_SEA_T*08
$GNZDA,034323.00,31,01,2018,00,00*75
$AAMDA,,I,,B,,C,25.1,C,,,,C,,T,,M,,N,,M*02
$GNRMC,034324.00,A,3651.88536,S,17443.42340,E,0.069,,310118,,,A*71
$GNVTG,,T,,M,0.069,N,0.128,K,A*39
$GNGGA,034324.00,3651.88536,S,17443.42340,E,1,11,0.89,16.7,M,28.1,M,,*62
$AAMTW,25.1,C*15
$GNGSA,A,3,02,05,29,20,12,25,,,,,,,1.72,0.89,1.47*11
$GNGSA,A,3,66,83,82,81,67,,,,,,,,1.72,0.89,1.47*12
$AAXDR,C,25.1,C,ENV_SEA_T*08
$AAMDA,,I,,B,,C,25.1,C,,,,C,,T,,M,,N,,M*02
$GPGSV,2,1,07,02,36,108,27,04,,,31,05,70,130,43,12,25,339,34*4D
$GPGSV,2,2,07,20,50,310,36,25,37,294,30,29,56,222,42*4D
$GLGSV,2,1,06,66,25,148,41,67,72,095,31,68,37,350,25,81,28,076,29*67
$GLGSV,2,2,06,82,62,141,41,83,32,216,36*66
$GNGLL,3651.88536,S,17443.42340,E,034324.00,A,A*6D
$AAMTW,25.1,C*15
$AAXDR,C,25.1,C,ENV_SEA_T*08
$AAMDA,,I,,B,,C,25.1,C,,,,C,,T,,M,,N,,M*02
$GNZDA,034324.00,31,01,2018,00,00*72
$GNRMC,034325.00,A,3651.88539,S,17443.42333,E,0.019,,310118,,,A*7C
$GNVTG,,T,,M,0.019,N,0.036,K,A*30
$GNGGA,034325.00,3651.88539,S,17443.42333,E,1,11,0.89,16.9,M,28.1,M,,*66
$GNGSA,A,3,02,05,29,20,12,25,,,,,,,1.72,0.89,1.47*11
$AAMTW,25.1,C*15
$GNGSA,A,3,66,83,82,81,67,,,,,,,,1.72,0.89,1.47*12
$AAXDR,C,25.1,C,ENV_SEA_T*08
$AAMDA,,I,,B,,C,25.1,C,,,,C,,T,,M,,N,,M*02
$GPGSV,2,1,07,02,36,108,26,04,,,30,05,70,130,42,12,25,339,35*4D
$GPGSV,2,2,07,20,50,310,36,25,37,294,29,29,56,222,40*47
$GLGSV,2,1,06,66,25,148,43,67,72,095,32,68,37,350,25,81,28,076,28*67
$GLGSV,2,2,06,82,62,141,40,83,32,216,34*65
$GNGLL,3651.88539,S,17443.42333,E,034325.00,A,A*67
$AAMTW,25.1,C*15
$AAXDR,C,25.1,C,ENV_SEA_T*08
$AAMDA,,I,,B,,C,25.1,C,,,,C,,T,,M,,N,,M*02
$GNZDA,034325.00,31,01,2018,00,00*73
$GNRMC,034326.00,A,3651.88539,S,17443.42327,E,0.029,,310118,,,A*79
$GNVTG,,T,,M,0.029,N,0.054,K,A*37
$GNGGA,034326.00,3651.88539,S,17443.42327,E,1,11,0.89,17.1,M,28.1,M,,*69
$AAMTW,25.1,C*15
$AAXDR,C,25.1,C,ENV_SEA_T*08
$AAMDA,,I,,B,,C,25.1,C,,,,C,,T,,M,,N,,M*02
$GNGSA,A,3,02,05,29,20,12,25,,,,,,,1.72,0.89,1.47*11
$GNGSA,A,3,66,83,82,81,67,,,,,,,,1.72,0.89,1.47*12
$GPGSV,2,1,07,02,36,108,26,04,,,22,05,70,130,41,12,25,339,31*49
$GPGSV,2,2,07,20,50,310,32,25,37,294,30,29,56,222,39*45
$GLGSV,2,1,06,66,25,148,41,67,72,095,32,68,37,350,24,81,28,076,32*6F
$GLGSV,2,2,06,82,62,141,40,83,32,216,37*66
$GNGLL,3651.88539,S,17443.42327,E,034326.00,A,A*61
$AAMTW,25.1,C*15
$AAXDR,C,25.1,C,ENV_SEA_T*08
$AAMDA,,I,,B,,C,25.1,C,,,,C,,T,,M,,N,,M*02
$GNZDA,034326.00,31,01,2018,00,00*70
$GNRMC,034327.00,A,3651.88545,S,17443.42321,E,0.037,,310118,,,A*7A
$GNVTG,,T,,M,0.037,N,0.069,K,A*36
$GNGGA,034327.00,3651.88545,S,17443.42321,E,1,11,0.89,17.3,M,28.1,M,,*67
$AAMTW,25.1,C*15
$AAXDR,C,25.1,C,ENV_SEA_T*08
$AAMDA,,I,,B,,C,25.1,C,,,,C,,T,,M,,N,,M*02
$GNGSA,A,3,02,05,29,20,12,25,,,,,,,1.72,0.89,1.47*11
$GNGSA,A,3,66,83,82,81,67,,,,,,,,1.72,0.89,1.47*12
$GPGSV,2,1,07,02,36,108,27,04,,,33,05,70,130,40,12,25,339,31*49
$GPGSV,2,2,07,20,50,310,38,25,37,294,27,29,56,222,42*45
$GLGSV,2,1,07,66,25,148,41,67,72,095,32,68,37,350,25,73,11,251,*6E
$GLGSV,2,2,07,81,28,076,31,82,63,141,39,83,32,216,36*59
$GNGLL,3651.88545,S,17443.42321,E,034327.00,A,A*6D
$AAMTW,25.1,C*15
$AAXDR,C,25.1,C,ENV_SEA_T*08
$AAMDA,,I,,B,,C,25.1,C,,,,C,,T,,M,,N,,M*02
$GNZDA,034327.00,31,01,2018,00,00*71
$GNRMC,034328.00,A,3651.88552,S,17443.42316,E,0.075,,310118,,,A*71
$GNVTG,,T,,M,0.075,N,0.139,K,A*34
$GNGGA,034328.00,3651.88552,S,17443.42316,E,1,11,0.89,17.6,M,28.1,M,,*6F
$AAMTW,25.1,C*15
$AAXDR,C,25.1,C,ENV_SEA_T*08
$AAMDA,,I,,B,,C,25.1,C,,,,C,,T,,M,,N,,M*02
$GNGSA,A,3,02,05,29,20,12,25,,,,,,,1.72,0.89,1.47*11
$GNGSA,A,3,66,83,82,81,67,,,,,,,,1.72,0.89,1.47*12
$GPGSV,2,1,07,02,36,108,28,04,,,33,05,70,130,42,12,25,339,31*44
$GPGSV,2,2,07,20,50,310,37,25,37,294,25,29,56,222,41*4B
$GLGSV,2,1,07,66,25,148,39,67,72,095,32,68,37,350,25,73,11,251,*61
$GLGSV,2,2,07,81,28,076,31,82,63,141,40,83,32,216,35*54
$GNGLL,3651.88552,S,17443.42316,E,034328.00,A,A*60
$AAMTW,25.1,C*15
$AAXDR,C,25.1,C,ENV_SEA_T*08
$AAMDA,,I,,B,,C,25.1,C,,,,C,,T,,M,,N,,M*02
$GNZDA,034328.00,31,01,2018,00,00*7E
$GNRMC,034329.00,A,3651.88557,S,17443.42306,E,0.110,,310118,,,A*76
$GNVTG,,T,,M,0.110,N,0.204,K,A*3B
$GNGGA,034329.00,3651.88557,S,17443.42306,E,1,11,0.89,17.8,M,28.1,M,,*64
$AAMTW,25.1,C*15
$AAXDR,C,25.1,C,ENV_SEA_T*08
$AAMDA,,I,,B,,C,25.1,C,,,,C,,T,,M,,N,,M*02
$GNGSA,A,3,02,05,29,20,12,25,,,,,,,1.72,0.89,1.47*11
$GNGSA,A,3,66,83,82,81,67,,,,,,,,1.72,0.89,1.47*12
$GPGSV,2,1,07,02,36,108,28,04,,,32,05,70,130,43,12,25,339,31*44
$GPGSV,2,2,07,20,50,310,36,25,37,294,22,29,56,222,41*4D
$GLGSV,2,1,07,66,25,148,39,67,72,095,31,68,37,350,25,73,11,251,*62
$GLGSV,2,2,07,81,28,076,29,82,63,141,40,83,32,216,36*5E
$GNGLL,3651.88557,S,17443.42306,E,034329.00,A,A*65
$AAMTW,25.1,C*15
$AAXDR,C,25.1,C,ENV_SEA_T*08
$AAMDA,,I,,B,,C,25.1,C,,,,C,,T,,M,,N,,M*02
$GNZDA,034329.00,31,01,2018,00,00*7F
$GNRMC,034330.00,A,3651.88563,S,17443.42296,E,0.056,,310118,,,A*72
$GNVTG,,T,,M,0.056,N,0.104,K,A*3B
$GNGGA,034330.00,3651.88563,S,17443.42296,E,1,11,0.89,18.0,M,28.1,M,,*64
$AAMTW,25.1,C*15
$AAXDR,C,25.1,C,ENV_SEA_T*08
$AAMDA,,I,,B,,C,25.1,C,,,,C,,T,,M,,N,,M*02
$GNGSA,A,3,02,05,29,20,12,25,,,,,,,1.72,0.89,1.47*11
$GNGSA,A,3,66,83,82,81,67,,,,,,,,1.72,0.89,1.47*12
$GPGSV,2,1,07,02,36,108,26,04,,,31,05,70,130,39,12,25,339,31*44
$GPGSV,2,2,07,20,50,310,35,25,37,294,29,29,56,222,42*46
$GLGSV,2,1,07,66,25,148,39,67,72,095,31,68,37,350,26,73,11,251,*61
$GLGSV,2,2,07,81,28,076,22,82,63,141,38,83,32,216,36*5A
$GNGLL,3651.88563,S,17443.42296,E,034330.00,A,A*62
$AAMTW,25.1,C*15
$AAXDR,C,25.1,C,ENV_SEA_T*08
$AAMDA,,I,,B,,C,25.1,C,,,,C,,T,,M,,N,,M*02
$GNZDA,034330.00,31,01,2018,00,00*77
$GNRMC,034331.00,A,3651.88565,S,17443.42290,E,0.040,,310118,,,A*74
$GNVTG,,T,,M,0.040,N,0.075,K,A*3B
$GNGGA,034331.00,3651.88565,S,17443.42290,E,1,11,0.89,18.1,M,28.1,M,,*64
$AAMTW,25.1,C*15
$AAXDR,C,25.1,C,ENV_SEA_T*08
$AAMDA,,I,,B,,C,25.1,C,,,,C,,T,,M,,N,,M*02
$GNGSA,A,3,02,05,29,20,12,25,,,,,,,1.72,0.89,1.47*11
$GNGSA,A,3,66,83,82,81,67,,,,,,,,1.72,0.89,1.47*12
$GPGSV,2,1,07,02,36,108,23,04,,,31,05,70,130,41,12,25,339,36*49
$GPGSV,2,2,07,20,50,310,33,25,37,294,28,29,56,222,43*40
$GLGSV,2,1,08,66,25,148,36,67,72,095,23,68,37,350,26,73,11,251,*62
$GLGSV,2,2,08,74,04,202,,81,28,076,34,82,63,141,38,83,32,216,36*65
$GNGLL,3651.88565,S,17443.42290,E,034331.00,A,A*63
$AAMTW,25.1,C*15
$AAXDR,C,25.1,C,ENV_SEA_T*08
$AAMDA,,I,,B,,C,25.1,C,,,,C,,T,,M,,N,,M*02
$GNZDA,034331.00,31,01,2018,00,00*76
$GNRMC,034332.00,A,3651.88567,S,17443.42289,E,0.042,,310118,,,A*7F
$GNVTG,,T,,M,0.042,N,0.077,K,A*3B
$GNGGA,034332.00,3651.88567,S,17443.42289,E,1,11,0.89,18.2,M,28.1,M,,*6E
$AAMTW,25.1,C*15
$AAXDR,C,25.1,C,ENV_SEA_T*08
$AAMDA,,I,,B,,C,25.1,C,,,,C,,T,,M,,N,,M*02
$GNGSA,A,3,02,05,29,20,12,25,,,,,,,1.72,0.89,1.47*11
$GNGSA,A,3,66,83,82,81,67,,,,,,,,1.72,0.89,1.47*12
$GPGSV,2,1,07,02,36,108,21,04,,,30,05,70,130,41,12,25,339,35*49
$GPGSV,2,2,07,20,50,310,31,25,37,294,31,29,56,222,44*4D
$GLGSV,2,1,08,66,25,148,37,67,72,095,31,68,37,350,24,73,11,251,29*69
$GLGSV,2,2,08,74,04,202,,81,28,076,34,82,63,141,39,83,32,216,36*64
$GNGLL,3651.88567,S,17443.42289,E,034332.00,A,A*6A
$AAMTW,25.1,C*15
$AAXDR,C,25.1,C,ENV_SEA_T*08
$AAMDA,,I,,B,,C,25.1,C,,,,C,,T,,M,,N,,M*02
$GNZDA,034332.00,31,01,2018,00,00*75
$GNRMC,034333.00,A,3651.88569,S,17443.42289,E,0.034,,310118,,,A*71
$GNVTG,,T,,M,0.034,N,0.062,K,A*3E
$GNGGA,034333.00,3651.88569,S,17443.42289,E,1,11,0.89,18.2,M,28.1,M,,*61
$AAMTW,25.1,C*15
$AAXDR,C,25.1,C,ENV_SEA_T*08
$AAMDA,,I,,B,,C,25.1,C,,,,C,,T,,M,,N,,M*02
$GNGSA,A,3,02,05,29,20,12,25,,,,,,,1.72,0.89,1.47*11
$GNGSA,A,3,66,83,82,81,67,,,,,,,,1.72,0.89,1.47*12
$GPGSV,2,1,07,02,36,108,18,04,,,33,05,70,130,41,12,25,339,36*43
$GPGSV,2,2,07,20,50,310,30,25,37,294,30,29,56,222,46*4F
$GLGSV,2,1,08,66,25,148,37,67,72,095,30,68,37,350,21,73,11,251,22*66
$GLGSV,2,2,08,74,04,202,,81,28,076,31,82,63,141,39,83,32,216,37*60
$GNGLL,3651.88569,S,17443.42289,E,034333.00,A,A*65
$AAMTW,25.1,C*15
$AAXDR,C,25.1,C,ENV_SEA_T*08
$AAMDA,,I,,B,,C,25.1,C,,,,C,,T,,M,,N,,M*02
$GNZDA,034333.00,31,01,2018,00,00*74
$GNRMC,034334.00,A,3651.88570,S,17443.42290,E,0.002,,310118,,,A*73
$GNVTG,,T,,M,0.002,N,0.004,K,A*3B
$GNGGA,034334.00,3651.88570,S,17443.42290,E,1,11,0.89,18.3,M,28.1,M,,*67
$AAMTW,25.1,C*15
$AAXDR,C,25.1,C,ENV_SEA_T*08
$AAMDA,,I,,B,,C,25.1,C,,,,C,,T,,M,,N,,M*02
$GNGSA,A,3,02,05,29,20,12,25,,,,,,,1.72,0.89,1.47*11
$GNGSA,A,3,66,83,82,81,67,,,,,,,,1.72,0.89,1.47*12
$GPGSV,2,1,07,02,36,108,19,04,,,33,05,70,131,41,12,25,339,36*43
$GPGSV,2,2,07,20,50,310,28,25,37,294,32,29,56,222,45*47
$GLGSV,2,1,08,66,25,148,37,67,72,095,29,68,37,350,,73,11,251,23*6C
$GLGSV,2,2,08,74,04,202,,81,28,076,35,82,63,141,38,83,32,216,38*6A
$GNGLL,3651.88570,S,17443.42290,E,034334.00,A,A*62
$AAMTW,25.1,C*15
$AAXDR,C,25.1,C,ENV_SEA_T*08
$AAMDA,,I,,B,,C,25.1,C,,,,C,,T,,M,,N,,M*02
$GNZDA,034334.00,31,01,2018,00,00*73
$GNRMC,034335.00,A,3651.88569,S,17443.42293,E,0.013,,310118,,,A*79
$GNVTG,,T,,M,0.013,N,0.024,K,A*39
$GNGGA,034335.00,3651.88569,S,17443.42293,E,1,11,0.89,18.2,M,28.1,M,,*6C
$AAMTW,25.1,C*15
$AAXDR,C,25.1,C,ENV_SEA_T*08
$AAMDA,,I,,B,,C,25.1,C,,,,C,,T,,M,,N,,M*02
$GNGSA,A,3,02,05,29,20,12,25,,,,,,,1.72,0.89,1.47*11
$GNGSA,A,3,66,83,82,81,67,,,,,,,,1.72,0.89,1.47*12
$GPGSV,2,1,07,02,36,108,23,04,,,32,05,70,131,40,12,25,339,36*4A
$GPGSV,2,2,07,20,50,310,20,25,37,294,33,29,56,222,44*4F
$GLGSV,2,1,08,66,25,148,37,67,72,095,30,68,37,350,,73,11,251,26*61
$GLGSV,2,2,08,74,04,202,,81,28,076,34,82,63,141,38,83,32,216,38*6B
$GNGLL,3651.88569,S,17443.42293,E,034335.00,A,A*68
$AAMTW,25.1,C*15
$AAXDR,C,25.1,C,ENV_SEA_T*08
$AAMDA,,I,,B,,C,25.1,C,,,,C,,T,,M,,N,,M*02
$GNZDA,034335.00,31,01,2018,00,00*72
$GNRMC,034336.00,A,3651.88567,S,17443.42296,E,0.008,,310118,,,A*7B
$GNVTG,,T,,M,0.008,N,0.014,K,A*30
$GNGGA,034336.00,3651.88567,S,17443.42296,E,1,11,0.89,18.3,M,28.1,M,,*65
$AAMTW,25.1,C*15
$AAXDR,C,25.1,C,ENV_SEA_T*08
$AAMDA,,I,,B,,C,25.1,C,,,,C,,T,,M,,N,,M*02
$GNGSA,A,3,02,05,29,20,12,25,,,,,,,1.72,0.89,1.47*11
$GNGSA,A,3,66,83,82,81,67,,,,,,,,1.72,0.89,1.47*12
$GPGSV,2,1,07,02,36,108,22,04,,,36,05,70,131,39,12,25,339,35*42
$GPGSV,2,2,07,20,50,310,21,25,37,294,34,29,56,222,44*49
$GLGSV,2,1,08,66,25,148,38,67,72,095,30,68,37,350,,73,11,251,27*6F
$GLGSV,2,2,08,74,04,202,,81,28,076,34,82,63,141,39,83,32,216,38*6A
$GNGLL,3651.88567,S,17443.42296,E,034336.00,A,A*60
$AAMTW,25.1,C*15
$AAXDR,C,25.1,C,ENV_SEA_T*08
$AAMDA,,I,,B,,C,25.1,C,,,,C,,T,,M,,N,,M*02
$GNZDA,034336.00,31,01,2018,00,00*71
$GNRMC,034337.00,A,3651.88567,S,17443.42299,E,0.029,,310118,,,A*76
$GNVTG,,T,,M,0.029,N,0.053,K,A*30
$GNGGA,034337.00,3651.88567,S,17443.42299,E,1,11,0.89,18.2,M,28.1,M,,*6A
$AAMTW,25.1,C*15
$AAXDR,C,25.1,C,ENV_SEA_T*08
$AAMDA,,I,,B,,C,25.1,C,,,,C,,T,,M,,N,,M*02
$GNGSA,A,3,02,05,29,20,12,25,,,,,,,1.72,0.89,1.47*11
$GNGSA,A,3,66,83,82,81,67,,,,,,,,1.72,0.89,1.47*12
$GPGSV,2,1,07,02,36,108,19,04,,,33,05,70,131,39,12,25,339,34*4E
$GPGSV,2,2,07,20,50,310,25,25,37,294,33,29,56,222,44*4A
$GLGSV,2,1,08,66,25,148,37,67,72,095,29,68,37,350,,73,11,251,27*68
$GLGSV,2,2,08,74,04,202,,81,28,076,34,82,63,141,39,83,32,216,38*6A
$GNGLL,3651.88567,S,17443.42299,E,034337.00,A,A*6E
$AAMTW,25.1,C*15
$AAXDR,C,25.1,C,ENV_SEA_T*08
$AAMDA,,I,,B,,C,25.1,C,,,,C,,T,,M,,N,,M*02
$GNZDA,034337.00,31,01,2018,00,00*70
$GNRMC,034338.00,A,3651.88568,S,17443.42306,E,0.037,,310118,,,A*7E
$GNVTG,,T,,M,0.037,N,0.069,K,A*36
$GNGGA,034338.00,3651.88568,S,17443.42306,E,1,11,0.89,18.3,M,28.1,M,,*6C
$AAMTW,25.1,C*15
$AAXDR,C,25.1,C,ENV_SEA_T*08
$AAMDA,,I,,B,,C,25.1,C,,,,C,,T,,M,,N,,M*02
$GNGSA,A,3,02,05,29,20,12,25,,,,,,,1.72,0.89,1.47*11
$GNGSA,A,3,66,83,82,81,67,,,,,,,,1.72,0.89,1.47*12
$GPGSV,2,1,07,02,36,108,18,04,,,31,05,70,131,38,12,25,339,35*4D
$GPGSV,2,2,07,20,50,310,29,25,37,294,32,29,56,222,44*47
$GLGSV,2,1,08,66,25,148,38,67,72,095,28,68,37,350,,73,11,251,28*69
$GLGSV,2,2,08,74,04,202,,81,28,076,32,82,63,141,39,83,32,216,38*6C
$GNGLL,3651.88568,S,17443.42306,E,034338.00,A,A*69
$AAMTW,25.1,C*15
$AAXDR,C,25.1,C,ENV_SEA_T*08
$AAMDA,,I,,B,,C,25.1,C,,,,C,,T,,M,,N,,M*02
$GNZDA,034338.00,31,01,2018,00,00*7F
$GNRMC,034339.00,A,3651.88567,S,17443.42309,E,0.011,,310118,,,A*7B
$GNVTG,,T,,M,0.011,N,0.021,K,A*3E
$GNGGA,034339.00,3651.88567,S,17443.42309,E,1,11,0.89,18.3,M,28.1,M,,*6D
$AAMTW,25.1,C*15
$AAXDR,C,25.1,C,ENV_SEA_T*08
$AAMDA,,I,,B,,C,25.1,C,,,,C,,T,,M,,N,,M*02
$GNGSA,A,3,02,05,29,20,12,25,,,,,,,1.72,0.89,1.47*11
$GNGSA,A,3,66,83,82,81,67,,,,,,,,1.72,0.89,1.47*12
$GPGSV,2,1,07,02,36,108,17,04,,,30,05,70,131,38,12,25,339,34*42
$GPGSV,2,2,07,20,50,309,29,25,37,294,31,29,56,222,41*49
$GLGSV,2,1,08,66,25,148,38,67,72,095,27,68,37,350,,73,11,251,26*68
$GLGSV,2,2,08,74,04,202,,81,28,076,30,82,63,141,39,83,32,216,38*6E
$GNGLL,3651.88567,S,17443.42309,E,034339.00,A,A*68
$AAMTW,25.1,C*15
$AAXDR,C,25.1,C,ENV_SEA_T*08
$AAMDA,,I,,B,,C,25.1,C,,,,C,,T,,M,,N,,M*02
$GNZDA,034339.00,31,01,2018,00,00*7E
$GNRMC,034340.00,A,3651.88567,S,17443.42314,E,0.053,,310118,,,A*7F
$GNVTG,,T,,M,0.053,N,0.097,K,A*35
$GNGGA,034340.00,3651.88567,S,17443.42314,E,1,11,0.93,18.3,M,28.1,M,,*64
$AAMTW,25.1,C*15
$AAXDR,C,25.1,C,ENV_SEA_T*08
$AAMDA,,I,,B,,C,25.1,C,,,,C,,T,,M,,N,,M*02
$GNGSA,A,3,02,05,29,20,12,25,,,,,,,1.75,0.93,1.48*12
$GNGSA,A,3,66,83,82,81,67,,,,,,,,1.75,0.93,1.48*11
$GPGSV,2,1,07,02,36,108,16,04,,,33,05,70,131,39,12,25,339,34*41
$GPGSV,2,2,07,20,50,309,29,25,37,294,32,29,56,222,43*48
$GLGSV,2,1,08,66,25,148,38,67,72,095,33,68,37,350,,73,11,251,25*6E
$GLGSV,2,2,08,74,04,202,,81,28,076,31,82,63,141,39,83,32,216,36*61
$GNGLL,3651.88567,S,17443.42314,E,034340.00,A,A*6A
$AAMTW,25.1,C*15
$AAXDR,C,25.1,C,ENV_SEA_T*08
$AAMDA,,I,,B,,C,25.1,C,,,,C,,T,,M,,N,,M*02
$GNZDA,034340.00,31,01,2018,00,00*70
$GNRMC,034341.00,A,3651.88568,S,17443.42317,E,0.128,,310118,,,A*7F
$GNVTG,,T,,M,0.128,N,0.237,K,A*30
$GNGGA,034341.00,3651.88568,S,17443.42317,E,1,11,0.89,18.3,M,28.1,M,,*62
$AAMTW,25.1,C*15
$AAXDR,C,25.1,C,ENV_SEA_T*08
$AAMDA,,I,,B,,C,25.1,C,,,,C,,T,,M,,N,,M*02
$GNGSA,A,3,02,05,29,20,12,25,,,,,,,1.72,0.89,1.47*11
$GNGSA,A,3,66,83,82,81,67,,,,,,,,1.72,0.89,1.47*12
$GPGSV,2,1,07,02,36,108,15,04,,,33,05,70,131,39,12,25,339,35*43
$GPGSV,2,2,07,20,50,309,21,25,37,294,31,29,56,222,41*41
$GLGSV,2,1,08,66,25,148,37,67,72,095,25,68,37,350,25,73,11,251,22*66
$GLGSV,2,2,08,74,04,202,,81,28,076,31,82,63,141,40,83,32,216,37*6E
$GNGLL,3651.88568,S,17443.42317,E,034341.00,A,A*67
$AAMTW,25.1,C*15
$AAXDR,C,25.1,C,ENV_SEA_T*08
$AAMDA,,I,,B,,C,25.1,C,,,,C,,T,,M,,N,,M*02
$GNZDA,034341.00,31,01,2018,00,00*71
$GNRMC,034342.00,A,3651.88574,S,17443.42317,E,0.346,,310118,,,A*7B
$GNVTG,,T,,M,0.346,N,0.641,K,A*3F
$AAMTW,25.1,C*15
$GNGGA,034342.00,3651.88574,S,17443.42317,E,1,11,0.89,18.6,M,28.1,M,,*69
$AAXDR,C,25.1,C,ENV_SEA_T*08
$AAMDA,,I,,B,,C,25.1,C,,,,C,,T,,M,,N,,M*02
$GNGSA,A,3,02,05,29,20,12,25,,,,,,,1.72,0.89,1.47*11
$GNGSA,A,3,66,83,82,81,67,,,,,,,,1.72,0.89,1.47*12
$GPGSV,2,1,07,02,36,108,30,04,,,25,05,70,131,41,12,25,339,31*48
$GPGSV,2,2,07,20,50,309,29,25,37,294,26,29,56,222,38*41
$GLGSV,2,1,08,66,25,148,39,67,72,095,32,68,37,350,23,73,11,251,19*60
$GLGSV,2,2,08,74,04,202,,81,28,076,31,82,63,141,39,83,32,216,40*60
$GNGLL,3651.88574,S,17443.42317,E,034342.00,A,A*69
$AAMTW,25.1,C*15
$AAXDR,C,25.1,C,ENV_SEA_T*08
$AAMDA,,I,,B,,C,25.1,C,,,,C,,T,,M,,N,,M*02
$GNZDA,034342.00,31,01,2018,00,00*72
$GNRMC,034343.00,A,3651.88577,S,17443.42314,E,0.231,,310118,,,A*7B
$GNVTG,,T,,M,0.231,N,0.428,K,A*33
$GNGGA,034343.00,3651.88577,S,17443.42314,E,1,11,0.89,18.6,M,28.1,M,,*68
$AAMTW,25.1,C*15
$AAXDR,C,25.1,C,ENV_SEA_T*08
$AAMDA,,I,,B,,C,25.1,C,,,,C,,T,,M,,N,,M*02
$GNGSA,A,3,02,05,29,20,12,25,,,,,,,1.72,0.89,1.47*11
$GNGSA,A,3,66,83,82,81,67,,,,,,,,1.72,0.89,1.47*12
$GPGSV,2,1,08,02,36,108,40,04,,,39,05,70,131,44,12,25,339,25*4D
$GPGSV,2,2,08,13,24,042,,20,50,309,29,25,37,294,26,29,56,222,34*70
$GLGSV,2,1,08,66,25,148,38,67,72,095,34,68,37,350,22,73,11,251,19*66
$GLGSV,2,2,08,74,04,202,,81,28,076,26,82,63,141,34,83,32,216,33*6F
$AAMTW,25.1,C*15
$AAXDR,C,25.1,C,ENV_SEA_T*08
$AAMDA,,I,,B,,C,25.1,C,,,,C,,T,,M,,N,,M*02
$GNGLL,3651.88577,S,17443.42314,E,034343.00,A,A*68
$GNZDA,034343.00,31,01,2018,00,00*73
$GNRMC,034344.00,A,3651.88572,S,17443.42320,E,0.136,,310118,,,A*7A
$AAMTW,25.1,C*15
$GNVTG,,T,,M,0.136,N,0.252,K,A*3C
$GNGGA,034344.00,3651.88572,S,17443.42320,E,1,11,0.93,18.3,M,28.1,M,,*63
$AAXDR,C,25.1,C,ENV_SEA_T*08
$AAMDA,,I,,B,,C,25.1,C,,,,C,,T,,M,,N,,M*02
$GNGSA,A,3,02,05,29,20,12,25,,,,,,,1.76,0.93,1.49*10
$GNGSA,A,3,66,83,82,81,67,,,,,,,,1.76,0.93,1.49*13
$GPGSV,2,1,08,02,36,108,42,04,,,38,05,70,131,40,12,25,339,23*4C
$GPGSV,2,2,08,13,24,042,,20,50,309,22,25,37,294,24,29,56,222,36*7B
$GLGSV,2,1,08,66,25,148,42,67,72,095,33,68,37,350,23,73,11,251,18*6C
$GLGSV,2,2,08,74,04,202,23,81,28,076,32,82,63,141,33,83,32,216,33*6C
$AAMTW,25.1,C*15
$AAXDR,C,25.1,C,ENV_SEA_T*08
$AAMDA,,I,,B,,C,25.1,C,,,,C,,T,,M,,N,,M*02
$GNGLL,3651.88572,S,17443.42320,E,034344.00,A,A*6D
$GNZDA,034344.00,31,01,2018,00,00*74
$GNRMC,034345.00,A,3651.88588,S,17443.42334,E,0.674,,310118,,,A*7A
$AAMTW,25.1,C*15
$AAXDR,C,25.1,C,ENV_SEA_T*08
$GNVTG,,T,,M,0.674,N,1.249,K,A*36
$GNGGA,034345.00,3651.88588,S,17443.42334,E,1,11,0.89,18.0,M,28.1,M,,*6A
$AAMDA,,I,,B,,C,25.1,C,,,,C,,T,,M,,N,,M*02
$GNGSA,A,3,02,05,29,20,12,25,,,,,,,1.72,0.89,1.47*11
$GNGSA,A,3,66,83,82,81,67,,,,,,,,1.72,0.89,1.47*12
$GPGSV,2,1,08,02,36,108,39,04,,,30,05,70,131,43,12,25,339,23*4B
$GPGSV,2,2,08,13,24,042,,20,50,309,30,25,37,294,36,29,56,222,42*78
$GLGSV,2,1,08,66,25,148,36,67,72,095,38,68,37,350,21,73,11,251,21*6C
$GLGSV,2,2,08,74,04,202,29,81,28,076,25,82,63,141,36,83,32,216,34*62
$AAMTW,25.1,C*15
$AAXDR,C,25.1,C,ENV_SEA_T*08
$AAMDA,,I,,B,,C,25.1,C,,,,C,,T,,M,,N,,M*02
$GNGLL,3651.88588,S,17443.42334,E,034345.00,A,A*6C
$GNZDA,034345.00,31,01,2018,00,00*75
$GNRMC,034346.00,A,3651.88596,S,17443.42340,E,0.173,,310118,,,A*75
$AAMTW,25.1,C*15
$AAXDR,C,25.1,C,ENV_SEA_T*08
$GNVTG,,T,,M,0.173,N,0.321,K,A*38
$GNGGA,034346.00,3651.88596,S,17443.42340,E,1,11,0.89,18.0,M,28.1,M,,*65
$AAMDA,,I,,B,,C,25.1,C,,,,C,,T,,M,,N,,M*02
$GNGSA,A,3,02,05,29,20,12,25,,,,,,,1.72,0.89,1.47*11
$GNGSA,A,3,66,83,82,81,67,,,,,,,,1.72,0.89,1.47*12
$GPGSV,2,1,08,02,36,108,38,04,,,36,05,70,131,39,12,25,339,25*47
$GPGSV,2,2,08,13,24,042,,20,50,309,36,25,37,294,32,29,56,222,41*79
$GLGSV,2,1,08,66,25,148,42,67,72,095,32,68,37,350,22,73,11,251,30*66
$GLGSV,2,2,08,74,04,202,28,81,28,076,25,82,63,141,33,83,32,216,36*64
$AAMTW,25.1,C*15
$AAXDR,C,25.1,C,ENV_SEA_T*08
$AAMDA,,I,,B,,C,25.1,C,,,,C,,T,,M,,N,,M*02
$GNGLL,3651.88596,S,17443.42340,E,034346.00,A,A*63
$GNZDA,034346.00,31,01,2018,00,00*76
$GNRMC,034347.00,A,3651.88600,S,17443.42332,E,0.145,,310118,,,A*78
$AAMTW,25.1,C*15
$AAXDR,C,25.1,C,ENV_SEA_T*08
$GNVTG,,T,,M,0.145,N,0.268,K,A*31
$GNGGA,034347.00,3651.88600,S,17443.42332,E,1,11,0.89,18.1,M,28.1,M,,*6C
$AAMDA,,I,,B,,C,25.1,C,,,,C,,T,,M,,N,,M*02
$GNGSA,A,3,02,05,29,20,12,25,,,,,,,1.72,0.89,1.47*11
$GNGSA,A,3,66,83,82,81,67,,,,,,,,1.72,0.89,1.47*12
$GPGSV,2,1,08,02,36,108,36,04,,,39,05,70,131,39,12,25,339,25*46
