$AAMWD,0.0,T,0.0,M,0.0,N,0.0,M*44
$AAMTW,26.9,C*1E
$AAXDR,C,26.9,C,ENV_SEA_T*03
$AAMDA,,I,,B,,C,26.9,C,,,,C,,T,,M,,N,,M*09
$AAMTW,26.9,C*1E
$AAXDR,C,26.9,C,ENV_SEA_T*03
$AAMDA,,I,,B,,C,26.9,C,,,,C,,T,,M,,N,,M*09
$AAMTW,26.9,C*1E
$AAXDR,C,26.9,C,ENV_SEA_T*03
$AAMDA,,I,,B,,C,26.9,C,,,,C,,T,,M,,N,,M*09
$AAMTW,26.9,C*1E
$AAXDR,C,26.9,C,ENV_SEA_T*03
$AAMDA,,I,,B,,C,26.9,C,,,,C,,T,,M,,N,,M*09
$AAMTW,26.9,C*1E
$AAXDR,C,26.9,C,ENV_SEA_T*03
$AAMDA,,I,,B,,C,26.9,C,,,,C,,T,,M,,N,,M*09
$AAMTW,26.9,C*1E
$GNRMC,022728.00,V,,,,,,,310118,,,N*64
$AAXDR,C,26.9,C,ENV_SEA_T*03
$GNVTG,,,,,,,,,N*2E
$AAMDA,,I,,B,,C,26.9,C,,,,C,,T,,M,,N,,M*09
$GNGGA,022728.00,,,,,0,00,99.99,,,,,,*75
$GNGSA,A,1,,,,,,,,,,,,,99.99,99.99,99.99*2E
$GNGSA,A,1,,,,,,,,,,,,,99.99,99.99,99.99*2E
$GPGSV,2,1,05,02,,,39,05,,,43,12,,,39,19,,,32*75
$GPGSV,2,2,05,29,,,33*77
$GLGSV,1,1,02,,,,36,,,,40*66
$GNGLL,,,,,022728.00,V,N*59
$GNZDA,022728.00,31,01,2018,00,00*7D
$AAMTW,26.9,C*1E
$AAXDR,C,26.9,C,ENV_SEA_T*03
$AAMDA,,I,,B,,C,26.9,C,,,,C,,T,,M,,N,,M*09
$AAMTW,26.9,C*1E
$AAXDR,C,26.9,C,ENV_SEA_T*03
$AAMDA,,I,,B,,C,26.9,C,,,,C,,T,,M,,N,,M*09
$GNRMC,022729.00,V,,,,,,,310118,,,N*65
$GNVTG,,,,,,,,,N*2E
$GNGGA,022729.00,,,,,0,00,99.99,,,,,,*74
$GNGSA,A,1,,,,,,,,,,,,,99.99,99.99,99.99*2E
$GNGSA,A,1,,,,,,,,,,,,,99.99,99.99,99.99*2E
$GPGSV,2,1,05,02,,,39,05,,,44,12,,,35,19,,,30*7C
$GPGSV,2,2,05,29,,,32*76
$AAMTW,26.9,C*1E
$AAXDR,C,26.9,C,ENV_SEA_T*03
$GLGSV,1,1,03,,,,37,,,,40,,,,35*60
$AAMDA,,I,,B,,C,26.9,C,,,,C,,T,,M,,N,,M*09
$GNGLL,,,,,022729.00,V,N*58
$GNZDA,022729.00,31,01,2018,00,00*7C
$AAMTW,26.9,C*1E
$AAXDR,C,26.9,C,ENV_SEA_T*03
$GNRMC,022730.00,V,,,,,,,310118,,,N*6D
$AAMDA,,I,,B,,C,26.9,C,,,,C,,T,,M,,N,,M*09
$GNVTG,,,,,,,,,N*2E
$GNGGA,022730.00,,,,,0,00,99.99,,,,,,*7C
$GNGSA,A,1,,,,,,,,,,,,,99.99,99.99,99.99*2E
$GNGSA,A,1,,,,,,,,,,,,,99.99,99.99,99.99*2E
$GPGSV,2,1,05,02,,,41,05,,,45,12,,,38,19,,,27*79
$GPGSV,2,2,05,29,,,32*76
$AAMTW,26.9,C*1E
$AAXDR,C,26.9,C,ENV_SEA_T*03
$GLGSV,1,1,03,,,,37,,,,39,,,,36*6D
$GNGLL,,,,,022730.00,V,N*50
$AAMDA,,I,,B,,C,26.9,C,,,,C,,T,,M,,N,,M*09
$GNZDA,022730.00,31,01,2018,00,00*74
$GNRMC,022731.00,V,,,,,,,310118,,,N*6C
$GNVTG,,,,,,,,,N*2E
$AAMTW,26.9,C*1E
$AAXDR,C,26.9,C,ENV_SEA_T*03
$AAMDA,,I,,B,,C,26.9,C,,,,C,,T,,M,,N,,M*09
$GNGGA,022731.00,,,,,0,00,99.99,,,,,,*7D
$GNGSA,A,1,,,,,,,,,,,,,99.99,99.99,99.99*2E
$GNGSA,A,1,,,,,,,,,,,,,99.99,99.99,99.99*2E
$GPGSV,2,1,05,02,,,41,05,,,45,12,,,36,19,,,26*76
$GPGSV,2,2,05,29,,,32*76
$GLGSV,1,1,03,,,,35,,,,40,,,,36*61
$GNGLL,,,,,022731.00,V,N*51
$GNZDA,022731.00,31,01,2018,00,00*75
$AAMTW,26.9,C*1E
$AAXDR,C,26.9,C,ENV_SEA_T*03
$AAMDA,,I,,B,,C,26.9,C,,,,C,,T,,M,,N,,M*09
$AAMTW,26.9,C*1E
$AAXDR,C,26.9,C,ENV_SEA_T*03
$AAMDA,,I,,B,,C,26.9,C,,,,C,,T,,M,,N,,M*09
$GNRMC,022732.00,V,,,,,,,310118,,,N*6F
$GNVTG,,,,,,,,,N*2E
$GNGGA,022732.00,,,,,0,00,99.99,,,,,,*7E
$GNGSA,A,1,,,,,,,,,,,,,99.99,99.99,99.99*2E
$GNGSA,A,1,,,,,,,,,,,,,99.99,99.99,99.99*2E
$GPGSV,2,1,05,02,,,41,05,,,45,12,,,37,19,,,31*71
$GPGSV,2,2,05,29,,,34*70
$AAMTW,26.9,C*1E
$AAXDR,C,26.9,C,ENV_SEA_T*03
$AAMDA,,I,,B,,C,26.9,C,,,,C,,T,,M,,N,,M*09
$GLGSV,1,1,03,,,,37,,,,40,,,,36*63
$GNGLL,,,,,022732.00,V,N*52
$GNZDA,022732.00,31,01,2018,00,00*76
$AAMTW,26.9,C*1E
$AAXDR,C,26.9,C,ENV_SEA_T*03
$AAMDA,,I,,B,,C,26.9,C,,,,C,,T,,M,,N,,M*09
$GNRMC,022733.00,V,,,,,,,310118,,,N*6E
$GNVTG,,,,,,,,,N*2E
$GNGGA,022733.00,,,,,0,00,99.99,,,,,,*7F
$GNGSA,A,1,,,,,,,,,,,,,99.99,99.99,99.99*2E
$GNGSA,A,1,,,,,,,,,,,,,99.99,99.99,99.99*2E
$GPGSV,2,1,05,02,,,41,05,,,46,12,,,35,19,,,29*79
$GPGSV,2,2,05,29,,,34*70
$AAMTW,26.9,C*1E
$AAXDR,C,26.9,C,ENV_SEA_T*03
$AAMDA,,I,,B,,C,26.9,C,,,,C,,T,,M,,N,,M*09
$GLGSV,1,1,03,,,,37,,,,41,,,,36*62
$GNGLL,,,,,022733.00,V,N*53
$GNZDA,022733.00,31,01,2018,00,00*77
$AAMTW,26.9,C*1E
$AAXDR,C,26.9,C,ENV_SEA_T*03
$AAMDA,,I,,B,,C,26.9,C,,,,C,,T,,M,,N,,M*09
$GNRMC,022734.00,V,,,,,,,310118,,,N*69
$GNVTG,,,,,,,,,N*2E
$GNGGA,022734.00,,,,,0,00,99.99,,,,,,*78
$GNGSA,A,1,,,,,,,,,,,,,99.99,99.99,99.99*2E
$GNGSA,A,1,,,,,,,,,,,,,99.99,99.99,99.99*2E
$GPGSV,2,1,05,02,,,40,05,,,45,12,,,38,19,,,34*7A
$GPGSV,2,2,05,29,,,33*77
$AAMTW,26.9,C*1E
$AAXDR,C,26.9,C,ENV_SEA_T*03
$AAMDA,,I,,B,,C,26.9,C,,,,C,,T,,M,,N,,M*09
$GLGSV,1,1,03,,,,37,,,,40,,,,36*63
$GNGLL,,,,,022734.00,V,N*54
$GNZDA,022734.00,31,01,2018,00,00*70
$AAMTW,26.9,C*1E
$AAXDR,C,26.9,C,ENV_SEA_T*03
$AAMDA,,I,,B,,C,26.9,C,,,,C,,T,,M,,N,,M*09
$GNRMC,022735.00,V,,,,,,,310118,,,N*68
$GNVTG,,,,,,,,,N*2E
$GNGGA,022735.00,,,,,0,00,99.99,,,,,,*79
$GNGSA,A,1,,,,,,,,,,,,,99.99,99.99,99.99*2E
$GNGSA,A,1,,,,,,,,,,,,,99.99,99.99,99.99*2E
$GPGSV,2,1,05,02,,,40,05,,,45,12,,,35,19,,,32*71
$GPGSV,2,2,05,29,,,28*7D
$AAMTW,26.9,C*1E
$AAXDR,C,26.9,C,ENV_SEA_T*03
$AAMDA,,I,,B,,C,26.9,C,,,,C,,T,,M,,N,,M*09
$GLGSV,1,1,03,,,,36,,,,39,,,,36*6C
$GNGLL,,,,,022735.00,V,N*55
$GNZDA,022735.00,31,01,2018,00,00*71
$AAMTW,26.9,C*1E
$AAXDR,C,26.9,C,ENV_SEA_T*03
$AAMDA,,I,,B,,C,26.9,C,,,,C,,T,,M,,N,,M*09
$GNRMC,022736.00,V,,,,,,,310118,,,N*6B
$GNVTG,,,,,,,,,N*2E
$GNGGA,022736.00,,,,,0,00,99.99,,,,,,*7A
$GNGSA,A,1,,,,,,,,,,,,,99.99,99.99,99.99*2E
$GNGSA,A,1,,,,,,,,,,,,,99.99,99.99,99.99*2E
$GPGSV,2,1,05,02,,,39,05,,,44,12,,,35,19,,,32*7E
$GPGSV,2,2,05,29,,,30*74
$AAMTW,26.9,C*1E
$AAXDR,C,26.9,C,ENV_SEA_T*03
$AAMDA,,I,,B,,C,26.9,C,,,,C,,T,,M,,N,,M*09
$GLGSV,1,1,03,,,,38,,,,40,,,,34*6E
$GNGLL,,,,,022736.00,V,N*56
$GNZDA,022736.00,31,01,2018,00,00*72
$AAMTW,26.9,C*1E
$AAXDR,C,26.9,C,ENV_SEA_T*03
$AAMDA,,I,,B,,C,26.9,C,,,,C,,T,,M,,N,,M*09
$GNRMC,022737.00,V,,,,,,,310118,,,N*6A
$GNVTG,,,,,,,,,N*2E
$GNGGA,022737.00,,,,,0,00,99.99,,,,,,*7B
$GNGSA,A,1,,,,,,,,,,,,,99.99,99.99,99.99*2E
$GNGSA,A,1,,,,,,,,,,,,,99.99,99.99,99.99*2E
$GPGSV,2,1,05,02,,,40,05,,,45,12,,,35,19,,,32*71
$GPGSV,2,2,05,29,,,31*75
$AAMTW,26.9,C*1E
$AAXDR,C,26.9,C,ENV_SEA_T*03
$AAMDA,,I,,B,,C,26.9,C,,,,C,,T,,M,,N,,M*09
$GLGSV,1,1,03,,,,37,,,,40,,,,37*62
$GNGLL,,,,,022737.00,V,N*57
$GNZDA,022737.00,31,01,2018,00,00*73
$AAMTW,26.9,C*1E
$AAXDR,C,26.9,C,ENV_SEA_T*03
$AAMDA,,I,,B,,C,26.9,C,,,,C,,T,,M,,N,,M*09
$GNRMC,022738.00,V,,,,,,,310118,,,N*65
$GNVTG,,,,,,,,,N*2E
$GNGGA,022738.00,,,,,0,00,99.99,,,,,,*74
$GNGSA,A,1,,,,,,,,,,,,,99.99,99.99,99.99*2E
$GNGSA,A,1,,,,,,,,,,,,,99.99,99.99,99.99*2E
$GPGSV,2,1,05,02,,,40,05,,,45,12,,,38,19,,,31*7F
$GPGSV,2,2,05,29,,,33*77
$AAMTW,26.9,C*1E
$AAXDR,C,26.9,C,ENV_SEA_T*03
$AAMDA,,I,,B,,C,26.9,C,,,,C,,T,,M,,N,,M*09
$GLGSV,1,1,03,,,,37,,,,40,,,,37*62
$GNGLL,,,,,022738.00,V,N*58
$GNZDA,022738.00,31,01,2018,00,00*7C
$AAMTW,26.9,C*1E
$AAXDR,C,26.9,C,ENV_SEA_T*03
$GNRMC,022739.00,V,,,,,,,310118,,,N*64
$GNVTG,,,,,,,,,N*2E
$AAMDA,,I,,B,,C,26.9,C,,,,C,,T,,M,,N,,M*09
$GNGGA,022739.00,,,,,0,00,99.99,,,,,,*75
$GNGSA,A,1,,,,,,,,,,,,,99.99,99.99,99.99*2E
$GNGSA,A,1,,,,,,,,,,,,,99.99,99.99,99.99*2E
$GPGSV,2,1,05,02,,,41,05,,,44,12,,,39,19,,,30*7F
$GPGSV,2,2,05,29,,,33*77
$AAMTW,26.9,C*1E
$GLGSV,1,1,03,,,,38,,,,39,,,,36*62
$GNGLL,,,,,022739.00,V,N*59
$AAXDR,C,26.9,C,ENV_SEA_T*03
$GNZDA,022739.00,31,01,2018,00,00*7D
$AAMDA,,I,,B,,C,26.9,C,,,,C,,T,,M,,N,,M*09
$AAMTW,26.9,C*1E
$AAXDR,C,26.9,C,ENV_SEA_T*03
$AAMDA,,I,,B,,C,26.9,C,,,,C,,T,,M,,N,,M*09
$GNRMC,022740.00,V,,,,,,,310118,,,N*6A
$GNVTG,,,,,,,,,N*2E
$GNGGA,022740.00,,,,,0,00,99.99,,,,,,*7B
$GNGSA,A,1,,,,,,,,,,,,,99.99,99.99,99.99*2E
$GNGSA,A,1,,,,,,,,,,,,,99.99,99.99,99.99*2E
$GPGSV,2,1,06,02,,,39,05,,,44,06,,,32,12,,,35*73
$GPGSV,2,2,06,19,,,30,29,,,34*78
$AAMTW,26.9,C*1E
$AAXDR,C,26.9,C,ENV_SEA_T*03
$AAMDA,,I,,B,,C,26.9,C,,,,C,,T,,M,,N,,M*09
$GLGSV,1,1,03,66,,,40,67,,,42,82,,,35*69
$GNGLL,,,,,022740.00,V,N*57
$GNZDA,022740.00,31,01,2018,00,00*73
$AAMTW,26.9,C*1E
$AAXDR,C,26.9,C,ENV_SEA_T*03
$AAMDA,,I,,B,,C,26.9,C,,,,C,,T,,M,,N,,M*09
$GNRMC,022741.00,V,,,,,,,310118,,,N*6B
$GNVTG,,,,,,,,,N*2E
$GNGGA,022741.00,,,,,0,00,99.99,,,,,,*7A
$GNGSA,A,1,,,,,,,,,,,,,99.99,99.99,99.99*2E
$GNGSA,A,1,,,,,,,,,,,,,99.99,99.99,99.99*2E
$GPGSV,2,1,07,02,,,39,05,,,43,06,,,36,12,,,35*71
$GPGSV,2,2,07,19,,,30,20,,,30,29,,,33*7F
$GLGSV,1,1,03,66,,,40,67,,,39,82,,,35*65
$GNGLL,,,,,022741.00,V,N*56
$GNZDA,022741.00,31,01,2018,00,00*72
$AAMTW,26.9,C*1E
$AAXDR,C,26.9,C,ENV_SEA_T*03
$GNRMC,022740.50,V,,,,,,,310118,,,N*6F
$AAMDA,,I,,B,,C,26.9,C,,,,C,,T,,M,,N,,M*09
$GNVTG,,,,,,,,,N*2E
$GNGGA,022740.50,,,,,0,03,4.23,,,,,,*48
$GNGSA,A,1,02,,,,,,,,,,,,4.35,4.23,1.00*1A
$GNGSA,A,1,66,67,,,,,,,,,,,4.35,4.23,1.00*19
$GPGSV,2,1,07,02,61,147,38,05,,,43,06,,,36,12,,,35*45
$GPGSV,2,2,07,19,,,29,20,,,32,29,,,34*72
$GLGSV,1,1,03,66,51,109,39,67,41,025,39,82,,,36*66
$GNGLL,,,,,022740.50,V,N*52
$GNZDA,022740.50,31,01,2018,00,00*76
$GNRMC,022741.00,V,,,,,,,310118,,,N*6B
$GNVTG,,,,,,,,,N*2E
$AAMTW,26.9,C*1E
$AAXDR,C,26.9,C,ENV_SEA_T*03
$AAMDA,,I,,B,,C,26.9,C,,,,C,,T,,M,,N,,M*09
$GNGGA,022741.00,,,,,0,03,4.23,,,,,,*4C
$GNGSA,A,1,02,,,,,,,,,,,,4.35,4.23,1.00*1A
$GNGSA,A,1,66,67,,,,,,,,,,,4.35,4.23,1.00*19
$GPGSV,2,1,07,02,61,147,38,05,,,43,06,,,35,12,,,35*46
$GPGSV,2,2,07,19,,,34,20,,,32,29,,,35*7F
$GLGSV,1,1,03,66,51,109,39,67,41,025,41,82,,,36*69
$GNGLL,,,,,022741.00,V,N*56
$GNZDA,022741.00,31,01,2018,00,00*72
$AAMTW,26.9,C*1E
$AAXDR,C,26.9,C,ENV_SEA_T*03
$AAMDA,,I,,B,,C,26.9,C,,,,C,,T,,M,,N,,M*09
$GNRMC,022742.00,V,,,,,,,310118,,,N*68
$GNVTG,,,,,,,,,N*2E
$AAMTW,26.9,C*1E
$AAXDR,C,26.9,C,ENV_SEA_T*03
$AAMDA,,I,,B,,C,26.9,C,,,,C,,T,,M,,N,,M*09
$GNGGA,022742.00,,,,,0,03,4.23,,,,,,*4F
$GNGSA,A,1,02,,,,,,,,,,,,4.35,4.23,1.00*1A
$GNGSA,A,1,66,67,,,,,,,,,,,4.35,4.23,1.00*19
$GPGSV,2,1,07,02,61,147,38,05,,,43,06,,,34,12,,,33*41
$GPGSV,2,2,07,19,,,33,20,,,33,29,,,34*78
$GLGSV,1,1,03,66,51,109,40,67,41,025,40,82,,,35*65
$GNGLL,,,,,022742.00,V,N*55
$GNZDA,022742.00,31,01,2018,00,00*71
$AAMTW,26.9,C*1E
$AAXDR,C,26.9,C,ENV_SEA_T*03
$AAMDA,,I,,B,,C,26.9,C,,,,C,,T,,M,,N,,M*09
$GNRMC,022743.00,V,,,,,,,310118,,,N*69
$GNVTG,,,,,,,,,N*2E
$AAMTW,26.9,C*1E
$AAXDR,C,26.9,C,ENV_SEA_T*03
$AAMDA,,I,,B,,C,26.9,C,,,,C,,T,,M,,N,,M*09
$GNGGA,022743.00,,,,,0,03,4.23,,,,,,*4E
$GNGSA,A,1,02,,,,,,,,,,,,4.35,4.23,1.00*1A
$GNGSA,A,1,66,67,,,,,,,,,,,4.35,4.23,1.00*19
$GPGSV,2,1,07,02,61,147,38,05,,,44,06,,,33,12,,,38*4A
$GPGSV,2,2,07,19,,,29,20,,,32,29,,,34*72
$GLGSV,1,1,03,66,51,109,38,67,41,025,38,82,,,35*65
$GNGLL,,,,,022743.00,V,N*54
$GNZDA,022743.00,31,01,2018,00,00*70
$AAMTW,26.9,C*1E
$AAXDR,C,26.9,C,ENV_SEA_T*03
$AAMDA,,I,,B,,C,26.9,C,,,,C,,T,,M,,N,,M*09
$GNRMC,022744.00,V,,,,,,,310118,,,N*6E
$GNVTG,,,,,,,,,N*2E
$AAMTW,26.9,C*1E
$AAXDR,C,26.9,C,ENV_SEA_T*03
$AAMDA,,I,,B,,C,26.9,C,,,,C,,T,,M,,N,,M*09
$GNGGA,022744.00,,,,,0,03,4.24,,,,,,*4E
$GNGSA,A,1,02,,,,,,,,,,,,4.35,4.24,1.00*1D
$GNGSA,A,1,66,67,,,,,,,,,,,4.35,4.24,1.00*1E
$GPGSV,2,1,07,02,61,147,38,05,,,44,06,,,34,12,,,37*42
$GPGSV,2,2,07,19,,,28,20,,,33,29,,,34*72
$GLGSV,1,1,03,66,51,109,39,67,41,025,37,82,,,35*6B
$GNGLL,,,,,022744.00,V,N*53
$GNZDA,022744.00,31,01,2018,00,00*77
$AAMTW,26.9,C*1E
$AAXDR,C,26.9,C,ENV_SEA_T*03
$AAMDA,,I,,B,,C,26.9,C,,,,C,,T,,M,,N,,M*09
$GNRMC,022745.00,V,,,,,,,310118,,,N*6F
$GNVTG,,,,,,,,,N*2E
$AAMTW,26.9,C*1E
$AAXDR,C,26.9,C,ENV_SEA_T*03
$AAMDA,,I,,B,,C,26.9,C,,,,C,,T,,M,,N,,M*09
$GNGGA,022745.00,,,,,0,03,4.24,,,,,,*4F
$GNGSA,A,1,02,,,,,,,,,,,,4.35,4.24,1.00*1D
$GNGSA,A,1,66,67,,,,,,,,,,,4.35,4.24,1.00*1E
$GPGSV,2,1,07,02,61,147,39,05,,,44,06,,,34,12,,,36*42
$GPGSV,2,2,07,19,,,30,20,,,33,29,,,35*7A
$GLGSV,1,1,04,65,07,155,,66,51,109,38,67,41,025,38,82,,,36*54
$GNGLL,,,,,022745.00,V,N*52
$AAMTW,26.9,C*1E
$GNZDA,022745.00,31,01,2018,00,00*76
$AAXDR,C,26.9,C,ENV_SEA_T*03
$AAMDA,,I,,B,,C,26.9,C,,,,C,,T,,M,,N,,M*09
$GNRMC,022746.00,V,,,,,,,310118,,,N*6C
$GNVTG,,,,,,,,,N*2E
$AAMTW,26.9,C*1E
$AAXDR,C,26.9,C,ENV_SEA_T*03
$AAMDA,,I,,B,,C,26.9,C,,,,C,,T,,M,,N,,M*09
$GNGGA,022746.00,,,,,0,03,4.24,,,,,,*4C
$GNGSA,A,1,02,,,,,,,,,,,,4.36,4.24,1.00*1E
$GNGSA,A,1,66,67,,,,,,,,,,,4.36,4.24,1.00*1D
$GPGSV,2,1,07,02,61,147,38,05,,,44,06,,,34,12,,,36*43
$GPGSV,2,2,07,19,,,32,20,,,33,29,,,35*78
$GLGSV,2,1,05,65,07,155,,66,51,109,38,67,41,025,36,82,,,35*5B
$GLGSV,2,2,05,,,,37*64
$AAMTW,26.9,C*1E
$AAXDR,C,26.9,C,ENV_SEA_T*03
$AAMDA,,I,,B,,C,26.9,C,,,,C,,T,,M,,N,,M*09
$GNGLL,,,,,022746.00,V,N*51
$GNZDA,022746.00,31,01,2018,00,00*75
$GNRMC,022747.00,V,,,,,,,310118,,,N*6D
$GNVTG,,,,,,,,,N*2E
$AAMTW,26.9,C*1E
$AAXDR,C,26.9,C,ENV_SEA_T*03
$AAMDA,,I,,B,,C,26.9,C,,,,C,,T,,M,,N,,M*09
$GNGGA,022747.00,,,,,0,03,4.24,,,,,,*4D
$GNGSA,A,1,02,,,,,,,,,,,,4.36,4.24,1.00*1E
$GNGSA,A,1,66,67,,,,,,,,,,,4.36,4.24,1.00*1D
$GPGSV,2,1,07,02,61,147,38,05,,,44,06,,,33,12,,,35*47
$GPGSV,2,2,07,19,,,31,20,,,33,29,,,33*7D
$GLGSV,2,1,05,65,07,155,,66,51,109,38,67,41,025,38,82,,,36*56
$GLGSV,2,2,05,,,,37*64
$AAMTW,26.9,C*1E
$AAXDR,C,26.9,C,ENV_SEA_T*03
$AAMDA,,I,,B,,C,26.9,C,,,,C,,T,,M,,N,,M*09
$GNGLL,,,,,022747.00,V,N*50
$GNZDA,022747.00,31,01,2018,00,00*74
$GNRMC,022748.00,V,,,,,,,310118,,,N*62
$GNVTG,,,,,,,,,N*2E
$AAMTW,26.9,C*1E
$AAXDR,C,26.9,C,ENV_SEA_T*03
$AAMDA,,I,,B,,C,26.9,C,,,,C,,T,,M,,N,,M*09
$GNGGA,022748.00,,,,,0,03,4.24,,,,,,*42
$GNGSA,A,1,02,,,,,,,,,,,,4.36,4.24,1.00*1E
$GNGSA,A,1,66,67,,,,,,,,,,,4.36,4.24,1.00*1D
$GPGSV,2,1,07,02,61,147,38,05,,,43,06,,,33,12,,,36*43
$GPGSV,2,2,07,19,,,29,20,,,32,29,,,33*75
$GLGSV,2,1,05,65,07,155,,66,51,109,38,67,41,025,38,82,,,36*56
$GLGSV,2,2,05,,,,37*64
$AAMTW,26.9,C*1E
$AAXDR,C,26.9,C,ENV_SEA_T*03
$GNGLL,,,,,022748.00,V,N*5F
$AAMDA,,I,,B,,C,26.9,C,,,,C,,T,,M,,N,,M*09
$GNZDA,022748.00,31,01,2018,00,00*7B
$AAMTW,26.9,C*1E
$AAXDR,C,26.9,C,ENV_SEA_T*03
$AAMDA,,I,,B,,C,26.9,C,,,,C,,T,,M,,N,,M*09
$GNRMC,022749.00,V,,,,,,,310118,,,N*63
$GNVTG,,,,,,,,,N*2E
$GNGGA,022749.00,,,,,0,04,5.94,,,,,,*4E
$GNGSA,A,1,02,05,,,,,,,,,,,12.01,5.94,10.43*15
$GNGSA,A,1,66,67,,,,,,,,,,,12.01,5.94,10.43*13
$GPGSV,2,1,07,02,61,147,38,05,67,010,45,06,,,33,12,,,38*7B
$GPGSV,2,2,07,19,,,29,20,,,33,29,,,32*75
$GLGSV,2,1,05,65,07,155,,66,51,110,36,67,41,025,38,82,,,36*50
$GLGSV,2,2,05,,,,37*64
$AAMTW,26.9,C*1E
$AAXDR,C,26.9,C,ENV_SEA_T*03
$AAMDA,,I,,B,,C,26.9,C,,,,C,,T,,M,,N,,M*09
$GNGLL,,,,,022749.00,V,N*5E
$GNZDA,022749.00,31,01,2018,00,00*7A
$GNRMC,022750.00,A,3651.99241,S,17443.44681,E,0.111,,310118,,,A*76
$AAMTW,26.9,C*1E
$AAXDR,C,26.9,C,ENV_SEA_T*03
$AAMDA,,I,,B,,C,26.9,C,,,,C,,T,,M,,N,,M*09
$GNVTG,,T,,M,0.111,N,0.206,K,A*38
$GNGGA,022750.00,3651.99241,S,17443.44681,E,1,04,5.95,68.1,M,28.1,M,,*68
$GNGSA,A,3,02,05,,,,,,,,,,,12.01,5.95,10.44*11
$GNGSA,A,3,66,67,,,,,,,,,,,12.01,5.95,10.44*17
$GPGSV,2,1,07,02,61,147,40,05,67,010,45,06,,,33,12,,,39*75
$GPGSV,2,2,07,19,,,29,20,,,34,29,,,31*71
$GLGSV,2,1,05,65,07,155,,66,51,110,37,67,41,025,39,82,,,36*50
$GLGSV,2,2,05,,,,37*64
$AAMTW,26.9,C*1E
$AAXDR,C,26.9,C,ENV_SEA_T*03
$AAMDA,,I,,B,,C,26.9,C,,,,C,,T,,M,,N,,M*09
$GNGLL,3651.99241,S,17443.44681,E,022750.00,A,A*64
$GNZDA,022750.00,31,01,2018,00,00*72
$GNRMC,022751.00,A,3651.99245,S,17443.44696,E,0.281,,310118,,,A*7F
$AAMTW,26.9,C*1E
$AAXDR,C,26.9,C,ENV_SEA_T*03
$AAMDA,,I,,B,,C,26.9,C,,,,C,,T,,M,,N,,M*09
$GNVTG,,T,,M,0.281,N,0.520,K,A*31
$GNGGA,022751.00,3651.99245,S,17443.44696,E,1,04,5.95,68.0,M,28.1,M,,*6A
$GNGSA,A,3,02,05,,,,,,,,,,,12.02,5.95,10.44*12
$GNGSA,A,3,66,67,,,,,,,,,,,12.02,5.95,10.44*14
$GPGSV,2,1,07,02,61,147,39,05,67,010,45,06,,,33,12,,,39*7B
$GPGSV,2,2,07,19,,,30,20,,,34,29,,,32*7A
$GLGSV,2,1,05,65,07,155,,66,51,110,38,67,41,025,39,82,,,34*5D
$GLGSV,2,2,05,,,,37*64
$AAMTW,26.9,C*1E
$AAXDR,C,26.9,C,ENV_SEA_T*03
$AAMDA,,I,,B,,C,26.9,C,,,,C,,T,,M,,N,,M*09
$GNGLL,3651.99245,S,17443.44696,E,022751.00,A,A*67
$GNZDA,022751.00,31,01,2018,00,00*73
$GNRMC,022752.00,A,3651.99251,S,17443.44693,E,0.232,,310118,,,A*74
$AAMTW,26.9,C*1E
$AAXDR,C,26.9,C,ENV_SEA_T*03
$AAMDA,,I,,B,,C,26.9,C,,,,C,,T,,M,,N,,M*09
$GNVTG,,T,,M,0.232,N,0.430,K,A*39
$GNGGA,022752.00,3651.99251,S,17443.44693,E,1,04,5.96,67.3,M,28.1,M,,*66
$GNGSA,A,3,02,05,,,,,,,,,,,12.03,5.96,10.45*11
$GNGSA,A,3,66,67,,,,,,,,,,,12.03,5.96,10.45*17
$GPGSV,2,1,07,02,61,147,39,05,67,010,44,06,,,32,12,,,37*75
$GPGSV,2,2,07,19,,,31,20,,,35,29,,,31*79
$GLGSV,2,1,05,65,07,155,,66,51,110,37,67,41,025,40,82,,,33*5B
$GLGSV,2,2,05,,,,37*64
$AAMTW,26.9,C*1E
$AAXDR,C,26.9,C,ENV_SEA_T*03
$AAMDA,,I,,B,,C,26.9,C,,,,C,,T,,M,,N,,M*09
$GNGLL,3651.99251,S,17443.44693,E,022752.00,A,A*64
$GNZDA,022752.00,31,01,2018,00,00*70
$GNRMC,022753.00,A,3651.99252,S,17443.44710,E,0.276,,310118,,,A*7C
$AAMTW,26.9,C*1E
$AAXDR,C,26.9,C,ENV_SEA_T*03
$AAMDA,,I,,B,,C,26.9,C,,,,C,,T,,M,,N,,M*09
$GNVTG,,T,,M,0.276,N,0.510,K,A*3A
$GNGGA,022753.00,3651.99252,S,17443.44710,E,1,04,5.96,67.2,M,28.1,M,,*6F
$GNGSA,A,3,02,05,,,,,,,,,,,12.04,5.96,10.46*15
$GNGSA,A,3,66,67,,,,,,,,,,,12.04,5.96,10.46*13
$GPGSV,2,1,07,02,61,147,39,05,67,010,44,06,,,32,12,,,35*77
$GPGSV,2,2,07,19,,,34,20,,,36,29,,,30*7E
$GLGSV,2,1,05,65,07,155,,66,51,110,39,67,41,025,38,82,,,31*58
$GLGSV,2,2,05,,,,36*65
$AAMTW,26.9,C*1E
$AAXDR,C,26.9,C,ENV_SEA_T*03
$AAMDA,,I,,B,,C,26.9,C,,,,C,,T,,M,,N,,M*09
$GNGLL,3651.99252,S,17443.44710,E,022753.00,A,A*6C
$GNZDA,022753.00,31,01,2018,00,00*71
$AAMTW,26.9,C*1E
$GNRMC,022754.00,A,3651.99252,S,17443.44715,E,0.289,,310118,,,A*7E
$AAXDR,C,26.9,C,ENV_SEA_T*03
$AAMDA,,I,,B,,C,26.9,C,,,,C,,T,,M,,N,,M*09
$GNVTG,,T,,M,0.289,N,0.535,K,A*3D
$GNGGA,022754.00,3651.99252,S,17443.44715,E,1,04,5.97,66.8,M,28.1,M,,*67
$GNGSA,A,3,02,05,,,,,,,,,,,12.04,5.97,10.46*14
$GNGSA,A,3,66,67,,,,,,,,,,,12.04,5.97,10.46*12
$GPGSV,2,1,07,02,61,147,38,05,67,010,45,06,,,36,12,,,34*72
$GPGSV,2,2,07,19,,,34,20,,,37,29,,,29*77
$GLGSV,2,1,05,65,07,155,,66,51,110,36,67,41,025,38,82,,,31*57
$GLGSV,2,2,05,,,,36*65
$AAMTW,26.9,C*1E
$AAXDR,C,26.9,C,ENV_SEA_T*03
$AAMDA,,I,,B,,C,26.9,C,,,,C,,T,,M,,N,,M*09
$GNGLL,3651.99252,S,17443.44715,E,022754.00,A,A*6E
$GNZDA,022754.00,31,01,2018,00,00*76
$AAMTW,26.9,C*1E
$AAXDR,C,26.9,C,ENV_SEA_T*03
$AAMDA,,I,,B,,C,26.9,C,,,,C,,T,,M,,N,,M*09
$GNRMC,022755.00,A,3651.99503,S,17443.43877,E,0.112,,310118,,,A*71
$GNVTG,,T,,M,0.112,N,0.207,K,A*3A
$GNGGA,022755.00,3651.99503,S,17443.43877,E,1,05,1.78,49.4,M,28.1,M,,*6C
$GNGSA,A,3,02,05,29,,,,,,,,,,3.85,1.78,3.41*16
$GNGSA,A,3,66,67,,,,,,,,,,,3.85,1.78,3.41*1B
$GPGSV,2,1,07,02,60,147,38,05,67,010,45,06,,,36,12,,,37*70
$GPGSV,2,2,07,19,,,33,20,,,36,29,24,230,29*46
$GLGSV,2,1,05,65,07,155,,66,51,110,37,67,41,025,38,82,,,32*55
$GLGSV,2,2,05,,,,36*65
$AAMTW,26.9,C*1E
$AAXDR,C,26.9,C,ENV_SEA_T*03
$AAMDA,,I,,B,,C,26.9,C,,,,C,,T,,M,,N,,M*09
$GNGLL,3651.99503,S,17443.43877,E,022755.00,A,A*60
$GNZDA,022755.00,31,01,2018,00,00*77
$AAMTW,26.9,C*1E
$AAXDR,C,26.9,C,ENV_SEA_T*03
$GNRMC,022756.00,A,3651.99545,S,17443.43670,E,0.051,,310118,,,A*7F
$AAMDA,,I,,B,,C,26.9,C,,,,C,,T,,M,,N,,M*09
$GNVTG,,T,,M,0.051,N,0.094,K,A*34
$GNGGA,022756.00,3651.99545,S,17443.43670,E,1,05,1.78,44.8,M,28.1,M,,*65
$GNGSA,A,3,02,05,29,,,,,,,,,,3.85,1.78,3.41*16
$GNGSA,A,3,66,67,,,,,,,,,,,3.85,1.78,3.41*1B
$GPGSV,2,1,07,02,60,147,38,05,67,010,45,06,,,36,12,,,37*70
$GPGSV,2,2,07,19,,,35,20,,,35,29,24,230,29*43
$GLGSV,2,1,05,65,07,155,,66,51,110,37,67,41,025,38,82,,,34*53
$GLGSV,2,2,05,,,,36*65
$AAMTW,26.9,C*1E
$AAXDR,C,26.9,C,ENV_SEA_T*03
$AAMDA,,I,,B,,C,26.9,C,,,,C,,T,,M,,N,,M*09
$GNGLL,3651.99545,S,17443.43670,E,022756.00,A,A*68
$GNZDA,022756.00,31,01,2018,00,00*74
$AAMTW,26.9,C*1E
$AAXDR,C,26.9,C,ENV_SEA_T*03
$AAMDA,,I,,B,,C,26.9,C,,,,C,,T,,M,,N,,M*09
$GNRMC,022757.00,A,3651.99607,S,17443.43329,E,0.067,,310118,,,A*77
$GNVTG,,T,,M,0.067,N,0.124,K,A*3B
$GNGGA,022757.00,3651.99607,S,17443.43329,E,1,04,2.83,36.7,M,28.1,M,,*64
$GNGSA,A,3,02,05,29,,,,,,,,,,6.48,2.83,5.82*1C
$GNGSA,A,3,66,,,,,,,,,,,,6.48,2.83,5.82*10
$GPGSV,2,1,07,02,60,147,40,05,67,010,44,06,,,39,12,,,40*71
$GPGSV,2,2,07,19,,,30,20,,,32,29,24,230,36*4F
$GLGSV,2,1,05,65,07,155,,66,51,110,45,67,41,025,,82,,,39*50
$GLGSV,2,2,05,,,,40*64
$AAMTW,26.9,C*1E
$AAXDR,C,26.9,C,ENV_SEA_T*03
$AAMDA,,I,,B,,C,26.9,C,,,,C,,T,,M,,N,,M*09
$GNGLL,3651.99607,S,17443.43329,E,022757.00,A,A*65
$GNZDA,022757.00,31,01,2018,00,00*75
$AAMTW,26.9,C*1E
$AAXDR,C,26.9,C,ENV_SEA_T*03
$GNRMC,022758.00,A,3651.99591,S,17443.43306,E,0.102,,310118,,,A*7B
$AAMDA,,I,,B,,C,26.9,C,,,,C,,T,,M,,N,,M*09
$GNVTG,,T,,M,0.102,N,0.190,K,A*36
$GNGGA,022758.00,3651.99591,S,17443.43306,E,1,04,2.83,36.1,M,28.1,M,,*6C
$GNGSA,A,3,02,05,29,,,,,,,,,,6.48,2.83,5.83*1D
$GNGSA,A,3,66,,,,,,,,,,,,6.48,2.83,5.83*11
$GPGSV,2,1,07,02,60,147,40,05,67,010,43,06,,,38,12,,,38*78
$GPGSV,2,2,07,19,,,29,20,,,32,29,24,230,36*47
$GLGSV,2,1,06,65,07,155,,66,51,110,44,67,41,025,21,82,,,39*51
$GLGSV,2,2,06,,,,40,,,,29*6C
$AAMTW,26.9,C*1E
$AAXDR,C,26.9,C,ENV_SEA_T*03
$AAMDA,,I,,B,,C,26.9,C,,,,C,,T,,M,,N,,M*09
$GNGLL,3651.99591,S,17443.43306,E,022758.00,A,A*6B
$GNZDA,022758.00,31,01,2018,00,00*7A
$AAMTW,26.9,C*1E
$AAXDR,C,26.9,C,ENV_SEA_T*03
$AAMDA,,I,,B,,C,26.9,C,,,,C,,T,,M,,N,,M*09
$GNRMC,022759.00,A,3651.99577,S,17443.43303,E,0.107,,310118,,,A*72
$GNVTG,,T,,M,0.107,N,0.197,K,A*34
$GNGGA,022759.00,3651.99577,S,17443.43303,E,1,04,2.83,36.0,M,28.1,M,,*61
$GNGSA,A,3,02,05,29,,,,,,,,,,6.48,2.83,5.83*1D
$GNGSA,A,3,66,,,,,,,,,,,,6.48,2.83,5.83*11
$GPGSV,2,1,07,02,60,147,39,05,67,010,44,06,,,38,12,,,38*71
$GPGSV,2,2,07,19,,,28,20,,,33,29,24,230,34*45
$GLGSV,2,1,06,65,07,155,,66,51,110,45,67,41,025,21,82,,,39*50
$GLGSV,2,2,06,,,,40,,,,30*64
$AAMTW,26.9,C*1E
$AAXDR,C,26.9,C,ENV_SEA_T*03
$AAMDA,,I,,B,,C,26.9,C,,,,C,,T,,M,,N,,M*09
$GNGLL,3651.99577,S,17443.43303,E,022759.00,A,A*67
$GNZDA,022759.00,31,01,2018,00,00*7B
$AAMTW,26.9,C*1E
$AAXDR,C,26.9,C,ENV_SEA_T*03
$AAMDA,,I,,B,,C,26.9,C,,,,C,,T,,M,,N,,M*09
$GNRMC,022800.00,A,3651.99564,S,17443.43312,E,0.056,,310118,,,A*76
$GNVTG,,T,,M,0.056,N,0.103,K,A*3C
$GNGGA,022800.00,3651.99564,S,17443.43312,E,1,05,1.78,35.7,M,28.1,M,,*62
$GNGSA,A,3,02,05,29,,,,,,,,,,3.85,1.78,3.41*16
$GNGSA,A,3,66,67,,,,,,,,,,,3.85,1.78,3.41*1B
$GPGSV,2,1,07,02,60,147,39,05,67,010,41,06,,,36,12,,,36*74
$GPGSV,2,2,07,19,,,27,20,,,32,29,24,230,34*4B
$GLGSV,2,1,06,65,07,155,,66,51,110,45,67,41,025,25,82,,,38*55
$GLGSV,2,2,06,,,,39,,,,31*6B
$AAMTW,26.9,C*1E
$AAXDR,C,26.9,C,ENV_SEA_T*03
$AAMDA,,I,,B,,C,26.9,C,,,,C,,T,,M,,N,,M*09
$GNGLL,3651.99564,S,17443.43312,E,022800.00,A,A*66
$GNZDA,022800.00,31,01,2018,00,00*78
$AAMTW,26.9,C*1E
$AAXDR,C,26.9,C,ENV_SEA_T*03
$AAMDA,,I,,B,,C,26.9,C,,,,C,,T,,M,,N,,M*09
$GNRMC,022801.00,A,3651.99528,S,17443.43431,E,0.024,,310118,,,A*7C
$GNVTG,,T,,M,0.024,N,0.045,K,A*3A
$GNGGA,022801.00,3651.99528,S,17443.43431,E,1,08,0.98,30.3,M,28.1,M,,*6E
$GNGSA,A,3,02,05,29,12,06,20,,,,,,,1.84,0.98,1.56*19
$GNGSA,A,3,66,67,,,,,,,,,,,1.84,0.98,1.56*13
$GPGSV,2,1,07,02,60,147,38,05,67,010,41,06,28,121,37,12,57,311,37*7C
$GPGSV,2,2,07,19,,,26,20,17,327,30,29,24,230,34*78
$GLGSV,2,1,06,65,07,155,,66,51,110,43,67,41,025,31,82,,,38*56
$GLGSV,2,2,06,,,,40,,,,30*64
$AAMTW,26.9,C*1E
$AAXDR,C,26.9,C,ENV_SEA_T*03
$AAMDA,,I,,B,,C,26.9,C,,,,C,,T,,M,,N,,M*09
$GNGLL,3651.99528,S,17443.43431,E,022801.00,A,A*69
$GNZDA,022801.00,31,01,2018,00,00*79
$AAMTW,26.9,C*1E
$AAXDR,C,26.9,C,ENV_SEA_T*03
$AAMDA,,I,,B,,C,26.9,C,,,,C,,T,,M,,N,,M*09
$GNRMC,022802.00,A,3651.99498,S,17443.43504,E,0.038,,310118,,,A*7F
$GNVTG,,T,,M,0.038,N,0.070,K,A*31
$GNGGA,022802.00,3651.99498,S,17443.43504,E,1,08,0.98,27.1,M,28.1,M,,*64
$GNGSA,A,3,02,05,29,12,06,20,,,,,,,1.84,0.98,1.56*19
$GNGSA,A,3,66,67,,,,,,,,,,,1.84,0.98,1.56*13
$GPGSV,2,1,07,02,60,147,37,05,67,010,43,06,28,121,37,12,57,311,37*71
$GPGSV,2,2,07,19,,,27,20,17,327,32,29,24,230,34*7B
$GLGSV,2,1,06,65,07,155,,66,51,110,42,67,41,025,29,82,,,38*5E
$GLGSV,2,2,06,,,,41,,,,30*65
$AAMTW,26.9,C*1E
$AAXDR,C,26.9,C,ENV_SEA_T*03
$AAMDA,,I,,B,,C,26.9,C,,,,C,,T,,M,,N,,M*09
$GNGLL,3651.99498,S,17443.43504,E,022802.00,A,A*67
$GNZDA,022802.00,31,01,2018,00,00*7A
$AAMTW,26.9,C*1E
$AAXDR,C,26.9,C,ENV_SEA_T*03
$AAMDA,,I,,B,,C,26.9,C,,,,C,,T,,M,,N,,M*09
$GNRMC,022803.00,A,3651.99467,S,17443.43559,E,0.008,,310118,,,A*75
$GNVTG,,T,,M,0.008,N,0.014,K,A*30
$GNGGA,022803.00,3651.99467,S,17443.43559,E,1,09,0.92,25.2,M,28.1,M,,*67
$GNGSA,A,3,02,05,29,12,06,20,,,,,,,1.81,0.92,1.56*16
$GNGSA,A,3,66,67,82,,,,,,,,,,1.81,0.92,1.56*16
$GPGSV,2,1,07,02,60,147,38,05,67,010,42,06,28,121,36,12,57,311,37*7E
$GPGSV,2,2,07,19,,,28,20,17,327,32,29,24,230,35*75
$GLGSV,2,1,06,65,07,155,,66,51,110,44,67,41,025,28,82,45,208,38*62
$GLGSV,2,2,06,,,,41,,,,30*65
$AAMTW,26.9,C*1E
$AAXDR,C,26.9,C,ENV_SEA_T*03
$AAMDA,,I,,B,,C,26.9,C,,,,C,,T,,M,,N,,M*09
$GNGLL,3651.99467,S,17443.43559,E,022803.00,A,A*6E
$GNZDA,022803.00,31,01,2018,00,00*7B
$AAMTW,26.9,C*1E
$AAXDR,C,26.9,C,ENV_SEA_T*03
$AAMDA,,I,,B,,C,26.9,C,,,,C,,T,,M,,N,,M*09
$GNRMC,022804.00,A,3651.99445,S,17443.43601,E,0.020,,310118,,,A*76
$GNVTG,,T,,M,0.020,N,0.037,K,A*3B
$GNGGA,022804.00,3651.99445,S,17443.43601,E,1,09,0.92,24.0,M,28.1,M,,*6D
$GNGSA,A,3,02,05,29,12,06,20,,,,,,,1.81,0.92,1.56*16
$GNGSA,A,3,66,67,82,,,,,,,,,,1.81,0.92,1.56*16
$GPGSV,2,1,07,02,60,147,37,05,67,010,43,06,28,121,36,12,57,311,36*71
$AAMTW,26.9,C*1E
$GPGSV,2,2,07,19,,,27,20,17,327,32,29,24,230,36*79
$GLGSV,2,1,06,65,07,155,,66,51,110,44,67,41,025,21,82,45,208,38*6B
$AAXDR,C,26.9,C,ENV_SEA_T*03
$GLGSV,2,2,06,,,,40,,,,31*65
$AAMDA,,I,,B,,C,26.9,C,,,,C,,T,,M,,N,,M*09
$GNGLL,3651.99445,S,17443.43601,E,022804.00,A,A*67
$GNZDA,022804.00,31,01,2018,00,00*7C
$AAMTW,26.9,C*1E
$AAXDR,C,26.9,C,ENV_SEA_T*03
$AAMDA,,I,,B,,C,26.9,C,,,,C,,T,,M,,N,,M*09
$GNRMC,022805.00,A,3651.99430,S,17443.43623,E,0.043,,310118,,,A*70
$GNVTG,,T,,M,0.043,N,0.079,K,A*34
$GNGGA,022805.00,3651.99430,S,17443.43623,E,1,09,0.92,23.1,M,28.1,M,,*68
$GNGSA,A,3,02,05,29,12,06,20,,,,,,,1.81,0.92,1.56*16
$GNGSA,A,3,66,67,82,,,,,,,,,,1.81,0.92,1.56*16
$GPGSV,2,1,07,02,60,147,38,05,67,010,41,06,28,121,36,12,57,311,36*7C
$GPGSV,2,2,07,19,,,25,20,17,327,31,29,24,230,36*78
$GLGSV,2,1,06,65,07,155,,66,51,110,45,67,41,025,23,82,45,208,38*68
$GLGSV,2,2,06,,,,41,,,,31*64
$AAMTW,26.9,C*1E
$AAXDR,C,26.9,C,ENV_SEA_T*03
$AAMDA,,I,,B,,C,26.9,C,,,,C,,T,,M,,N,,M*09
$GNGLL,3651.99430,S,17443.43623,E,022805.00,A,A*64
$GNZDA,022805.00,31,01,2018,00,00*7D
$AAMTW,26.9,C*1E
$AAXDR,C,26.9,C,ENV_SEA_T*03
$AAMDA,,I,,B,,C,26.9,C,,,,C,,T,,M,,N,,M*09
$GNRMC,022806.00,A,3651.99420,S,17443.43638,E,0.048,,310118,,,A*73
$GNVTG,,T,,M,0.048,N,0.089,K,A*30
$GNGGA,022806.00,3651.99420,S,17443.43638,E,1,09,0.92,22.4,M,28.1,M,,*64
$GNGSA,A,3,02,05,29,12,06,20,,,,,,,1.81,0.92,1.56*16
$GNGSA,A,3,66,67,82,,,,,,,,,,1.81,0.92,1.56*16
$GPGSV,2,1,07,02,60,147,37,05,67,010,44,06,28,121,35,12,57,311,33*70
$GPGSV,2,2,07,19,,,26,20,17,327,30,29,24,230,35*79
$AAMTW,26.9,C*1E
$AAXDR,C,26.9,C,ENV_SEA_T*03
$GLGSV,2,1,06,65,07,155,,66,51,110,44,67,41,025,21,82,45,208,39*6A
$GLGSV,2,2,06,,,,41,,,,30*65
$AAMDA,,I,,B,,C,26.9,C,,,,C,,T,,M,,N,,M*09
$GNGLL,3651.99420,S,17443.43638,E,022806.00,A,A*6C
$GNZDA,022806.00,31,01,2018,00,00*7E
$AAMTW,26.9,C*1E
$AAXDR,C,26.9,C,ENV_SEA_T*03
$AAMDA,,I,,B,,C,26.9,C,,,,C,,T,,M,,N,,M*09
$GNRMC,022807.00,A,3651.99410,S,17443.43643,E,0.034,,310118,,,A*76
$GNVTG,,T,,M,0.034,N,0.063,K,A*3F
$GNGGA,022807.00,3651.99410,S,17443.43643,E,1,09,0.92,21.8,M,28.1,M,,*65
$GNGSA,A,3,02,05,29,12,06,20,,,,,,,1.81,0.92,1.56*16
$GNGSA,A,3,66,67,82,,,,,,,,,,1.81,0.92,1.56*16
$GPGSV,2,1,07,02,60,147,37,05,67,010,43,06,28,121,35,12,57,311,36*72
$GPGSV,2,2,07,19,,,32,20,17,327,30,29,24,230,31*78
$GLGSV,2,1,06,65,07,155,,66,51,110,44,67,41,025,22,82,45,208,38*68
$GLGSV,2,2,06,,,,41,,,,29*6D
$AAMTW,26.9,C*1E
$AAXDR,C,26.9,C,ENV_SEA_T*03
$AAMDA,,I,,B,,C,26.9,C,,,,C,,T,,M,,N,,M*09
$GNGLL,3651.99410,S,17443.43643,E,022807.00,A,A*62
$GNZDA,022807.00,31,01,2018,00,00*7F
$AAMTW,26.9,C*1E
$AAXDR,C,26.9,C,ENV_SEA_T*03
$AAMDA,,I,,B,,C,26.9,C,,,,C,,T,,M,,N,,M*09
$GNRMC,022808.00,A,3651.99394,S,17443.43626,E,0.031,,310118,,,A*74
$GNVTG,,T,,M,0.031,N,0.058,K,A*32
$GNGGA,022808.00,3651.99394,S,17443.43626,E,1,09,0.92,21.1,M,28.1,M,,*6B
$GNGSA,A,3,02,05,29,12,06,20,,,,,,,1.81,0.92,1.56*16
$GNGSA,A,3,66,67,82,,,,,,,,,,1.81,0.92,1.56*16
$GPGSV,2,1,07,02,60,147,36,05,67,010,41,06,28,121,35,12,57,311,39*7E
$AAMTW,26.9,C*1E
$AAXDR,C,26.9,C,ENV_SEA_T*03
$AAMDA,,I,,B,,C,26.9,C,,,,C,,T,,M,,N,,M*09
$GPGSV,2,2,07,19,,,28,20,17,327,31,29,24,230,35*76
$GLGSV,2,1,06,65,07,155,,66,51,110,43,67,41,025,30,82,45,208,41*62
$GLGSV,2,2,06,,,,40,,,,28*6D
$GNGLL,3651.99394,S,17443.43626,E,022808.00,A,A*65
$GNZDA,022808.00,31,01,2018,00,00*70
$AAMTW,26.9,C*1E
$AAXDR,C,26.9,C,ENV_SEA_T*03
$AAMDA,,I,,B,,C,26.9,C,,,,C,,T,,M,,N,,M*09
$GNRMC,022809.00,A,3651.99378,S,17443.43615,E,0.042,,310118,,,A*73
$GNVTG,,T,,M,0.042,N,0.079,K,A*35
$GNGGA,022809.00,3651.99378,S,17443.43615,E,1,10,0.88,20.7,M,28.1,M,,*6C
$GNGSA,A,3,02,05,29,12,06,20,,,,,,,1.79,0.88,1.56*1A
$GNGSA,A,3,66,67,82,81,,,,,,,,,1.79,0.88,1.56*13
$GPGSV,2,1,07,02,60,147,36,05,67,010,42,06,28,121,37,12,57,311,39*7F
$AAMTW,26.9,C*1E
$GPGSV,2,2,07,19,,,28,20,17,327,32,29,24,230,37*77
$AAXDR,C,26.9,C,ENV_SEA_T*03
$GLGSV,2,1,06,65,07,155,,66,51,110,42,67,41,025,22,81,47,125,40*6C
$AAMDA,,I,,B,,C,26.9,C,,,,C,,T,,M,,N,,M*09
$GLGSV,2,2,06,82,45,208,41,88,,,29*5C
$GNGLL,3651.99378,S,17443.43615,E,022809.00,A,A*66
$GNZDA,022809.00,31,01,2018,00,00*71
$AAMTW,26.9,C*1E
$AAXDR,C,26.9,C,ENV_SEA_T*03
$AAMDA,,I,,B,,C,26.9,C,,,,C,,T,,M,,N,,M*09
$GNRMC,022810.00,A,3651.99366,S,17443.43609,E,0.040,,310118,,,A*7B
$GNVTG,,T,,M,0.040,N,0.073,K,A*3D
$GNGGA,022810.00,3651.99366,S,17443.43609,E,1,10,0.88,20.1,M,28.1,M,,*60
$GNGSA,A,3,02,05,29,12,06,20,,,,,,,1.79,0.88,1.56*1A
$GNGSA,A,3,66,67,82,81,,,,,,,,,1.79,0.88,1.56*13
$GPGSV,2,1,07,02,60,147,37,05,67,010,42,06,28,121,37,12,57,311,40*70
$AAMTW,26.9,C*1E
$AAXDR,C,26.9,C,ENV_SEA_T*03
$AAMDA,,I,,B,,C,26.9,C,,,,C,,T,,M,,N,,M*09
$GPGSV,2,2,07,19,,,33,20,17,327,33,29,24,230,34*7F
$GLGSV,2,1,06,65,07,155,,66,51,110,42,67,41,025,29,81,47,125,38*68
$GLGSV,2,2,06,82,45,208,40,88,,,30*55
$GNGLL,3651.99366,S,17443.43609,E,022810.00,A,A*6C
$GNZDA,022810.00,31,01,2018,00,00*79
$AAMTW,26.9,C*1E
$AAXDR,C,26.9,C,ENV_SEA_T*03
$AAMDA,,I,,B,,C,26.9,C,,,,C,,T,,M,,N,,M*09
$GNRMC,022811.00,A,3651.99362,S,17443.43615,E,0.066,,310118,,,A*77
$GNVTG,,T,,M,0.066,N,0.123,K,A*3D
$GNGGA,022811.00,3651.99362,S,17443.43615,E,1,10,0.88,19.8,M,28.1,M,,*6B
$GNGSA,A,3,02,05,29,12,06,20,,,,,,,1.79,0.88,1.56*1A
$GNGSA,A,3,66,67,82,81,,,,,,,,,1.79,0.88,1.56*13
$GPGSV,2,1,07,02,60,147,37,05,67,010,42,06,28,121,37,12,57,311,37*70
$AAMTW,26.9,C*1E
$AAXDR,C,26.9,C,ENV_SEA_T*03
$GPGSV,2,2,07,19,,,29,20,17,327,33,29,24,230,34*74
$GLGSV,2,1,06,65,07,155,,66,51,110,43,67,41,025,28,81,47,125,39*69
$AAMDA,,I,,B,,C,26.9,C,,,,C,,T,,M,,N,,M*09
$GLGSV,2,2,06,82,45,208,38,88,,,30*5A
$GNGLL,3651.99362,S,17443.43615,E,022811.00,A,A*64
$GNZDA,022811.00,31,01,2018,00,00*78
$AAMTW,26.9,C*1E
$AAXDR,C,26.9,C,ENV_SEA_T*03
$AAMDA,,I,,B,,C,26.9,C,,,,C,,T,,M,,N,,M*09
$GNRMC,022812.00,A,3651.99357,S,17443.43619,E,0.017,,310118,,,A*78
$GNVTG,,T,,M,0.017,N,0.032,K,A*3A
$GNGGA,022812.00,3651.99357,S,17443.43619,E,1,10,0.88,19.3,M,28.1,M,,*69
$GNGSA,A,3,02,05,29,12,06,20,,,,,,,1.79,0.88,1.56*1A
$GNGSA,A,3,66,67,82,81,,,,,,,,,1.79,0.88,1.56*13
$GPGSV,2,1,07,02,60,147,37,05,67,010,43,06,28,121,37,12,57,311,37*71
$AAMTW,26.9,C*1E
$AAXDR,C,26.9,C,ENV_SEA_T*03
$AAMDA,,I,,B,,C,26.9,C,,,,C,,T,,M,,N,,M*09
$GPGSV,2,2,07,19,,,25,20,17,327,33,29,24,230,34*78
$GLGSV,2,1,06,65,07,155,,66,51,110,44,67,41,025,28,81,47,125,40*60
$GLGSV,2,2,06,82,45,208,38,88,,,30*5A
$GNGLL,3651.99357,S,17443.43619,E,022812.00,A,A*6D
$GNZDA,022812.00,31,01,2018,00,00*7B
$AAMTW,26.9,C*1E
$AAXDR,C,26.9,C,ENV_SEA_T*03
$AAMDA,,I,,B,,C,26.9,C,,,,C,,T,,M,,N,,M*09
$GNRMC,022813.00,A,3651.99352,S,17443.43621,E,0.011,,310118,,,A*71
$GNVTG,,T,,M,0.011,N,0.021,K,A*3E
$GNGGA,022813.00,3651.99352,S,17443.43621,E,1,10,0.88,18.9,M,28.1,M,,*6D
$GNGSA,A,3,02,05,29,12,06,20,,,,,,,1.79,0.88,1.56*1A
$GNGSA,A,3,66,67,82,81,,,,,,,,,1.79,0.88,1.56*13
$GPGSV,2,1,07,02,60,147,37,05,67,010,42,06,28,121,37,12,57,311,39*7E
$AAMTW,26.9,C*1E
$AAXDR,C,26.9,C,ENV_SEA_T*03
$AAMDA,,I,,B,,C,26.9,C,,,,C,,T,,M,,N,,M*09
$GPGSV,2,2,07,19,,,26,20,17,327,33,29,24,230,35*7A
$GLGSV,2,1,06,65,07,155,,66,51,110,43,67,41,025,26,81,47,125,40*69
$GLGSV,2,2,06,82,45,208,39,88,,,29*53
$GNGLL,3651.99352,S,17443.43621,E,022813.00,A,A*62
$GNZDA,022813.00,31,01,2018,00,00*7A
$AAMTW,26.9,C*1E
$AAXDR,C,26.9,C,ENV_SEA_T*03
$AAMDA,,I,,B,,C,26.9,C,,,,C,,T,,M,,N,,M*09
$GNRMC,022814.00,A,3651.99354,S,17443.43627,E,0.043,,310118,,,A*71
$GNVTG,,T,,M,0.043,N,0.080,K,A*32
$GNGGA,022814.00,3651.99354,S,17443.43627,E,1,10,0.88,18.9,M,28.1,M,,*6A
$GNGSA,A,3,02,05,29,12,06,20,,,,,,,1.79,0.88,1.56*1A
$GNGSA,A,3,66,67,82,81,,,,,,,,,1.79,0.88,1.56*13
$GPGSV,2,1,07,02,60,147,39,05,67,010,42,06,28,121,36,12,57,311,37*7F
$AAMTW,26.9,C*1E
$AAXDR,C,26.9,C,ENV_SEA_T*03
$AAMDA,,I,,B,,C,26.9,C,,,,C,,T,,M,,N,,M*09
$GPGSV,2,2,07,19,,,35,20,17,327,33,29,24,230,37*7A
$GLGSV,2,1,06,65,07,155,,66,51,110,44,67,41,025,26,81,47,125,42*6C
$GLGSV,2,2,06,82,45,207,35,88,,,29*50
$GNGLL,3651.99354,S,17443.43627,E,022814.00,A,A*65
$GNZDA,022814.00,31,01,2018,00,00*7D
$AAMTW,26.9,C*1E
$AAXDR,C,26.9,C,ENV_SEA_T*03
$AAMDA,,I,,B,,C,26.9,C,,,,C,,T,,M,,N,,M*09
$GNRMC,022815.00,A,3651.99356,S,17443.43629,E,0.061,,310118,,,A*7C
$GNVTG,,T,,M,0.061,N,0.113,K,A*39
$GNGGA,022815.00,3651.99356,S,17443.43629,E,1,10,0.88,18.7,M,28.1,M,,*69
$GNGSA,A,3,02,05,29,12,06,20,,,,,,,1.79,0.88,1.56*1A
$GNGSA,A,3,66,67,82,81,,,,,,,,,1.79,0.88,1.56*13
$GPGSV,2,1,07,02,60,147,40,05,67,010,42,06,28,121,38,12,57,311,38*70
$AAMTW,26.9,C*1E
$AAXDR,C,26.9,C,ENV_SEA_T*03
$AAMDA,,I,,B,,C,26.9,C,,,,C,,T,,M,,N,,M*09
$GPGSV,2,2,07,19,,,32,20,17,327,34,29,24,230,31*7C
$GLGSV,2,1,06,65,07,155,,66,51,110,45,67,41,025,23,81,47,125,44*6E
$GLGSV,2,2,06,82,45,207,41,88,,,29*53
$GNGLL,3651.99356,S,17443.43629,E,022815.00,A,A*68
$GNZDA,022815.00,31,01,2018,00,00*7C
$AAMTW,26.9,C*1E
$AAXDR,C,26.9,C,ENV_SEA_T*03
$AAMDA,,I,,B,,C,26.9,C,,,,C,,T,,M,,N,,M*09
$GNRMC,022816.00,A,3651.99357,S,17443.43629,E,0.023,,310118,,,A*78
$GNVTG,,T,,M,0.023,N,0.042,K,A*3A
$GNGGA,022816.00,3651.99357,S,17443.43629,E,1,10,0.88,18.5,M,28.1,M,,*69
$GNGSA,A,3,02,05,29,12,06,20,,,,,,,1.79,0.88,1.56*1A
$GNGSA,A,3,66,67,82,81,,,,,,,,,1.79,0.88,1.56*13
$GPGSV,2,1,07,02,60,147,40,05,67,010,43,06,28,121,38,12,57,311,38*71
$AAMTW,26.9,C*1E
$AAXDR,C,26.9,C,ENV_SEA_T*03
$AAMDA,,I,,B,,C,26.9,C,,,,C,,T,,M,,N,,M*09
$GPGSV,2,2,07,19,,,29,20,17,327,34,29,24,230,35*72
$GLGSV,2,1,06,65,07,155,,66,51,110,44,67,41,025,23,81,47,125,43*68
$GLGSV,2,2,06,82,45,207,42,88,,,30*58
$GNGLL,3651.99357,S,17443.43629,E,022816.00,A,A*6A
$GNZDA,022816.00,31,01,2018,00,00*7F
$AAMTW,26.9,C*1E
$AAXDR,C,26.9,C,ENV_SEA_T*03
$AAMDA,,I,,B,,C,26.9,C,,,,C,,T,,M,,N,,M*09
$GNRMC,022817.00,A,3651.99357,S,17443.43635,E,0.023,,310118,,,A*74
$GNVTG,,T,,M,0.023,N,0.042,K,A*3A
$GNGGA,022817.00,3651.99357,S,17443.43635,E,1,10,0.88,18.4,M,28.1,M,,*64
$GNGSA,A,3,02,05,29,12,06,20,,,,,,,1.79,0.88,1.56*1A
$GNGSA,A,3,66,67,82,81,,,,,,,,,1.79,0.88,1.56*13
$GPGSV,2,1,07,02,60,147,40,05,67,010,42,06,28,121,37,12,57,311,38*7F
$AAMTW,26.9,C*1E
$AAXDR,C,26.9,C,ENV_SEA_T*03
$AAMDA,,I,,B,,C,26.9,C,,,,C,,T,,M,,N,,M*09
$GPGSV,2,2,07,19,,,31,20,17,327,34,29,24,230,35*7B
$GLGSV,2,1,06,65,07,155,,66,51,110,42,67,41,025,25,81,47,125,42*69
$GLGSV,2,2,06,82,45,207,41,88,,,30*5B
$GNGLL,3651.99357,S,17443.43635,E,022817.00,A,A*66
$GNZDA,022817.00,31,01,2018,00,00*7E
$AAMTW,26.9,C*1E
$AAXDR,C,26.9,C,ENV_SEA_T*03
$AAMDA,,I,,B,,C,26.9,C,,,,C,,T,,M,,N,,M*09
$GNRMC,022818.00,A,3651.99356,S,17443.43641,E,0.029,,310118,,,A*73
$GNVTG,,T,,M,0.029,N,0.054,K,A*37
$GNGGA,022818.00,3651.99356,S,17443.43641,E,1,10,0.88,18.3,M,28.1,M,,*6E
$GNGSA,A,3,02,05,29,12,06,20,,,,,,,1.80,0.88,1.56*1C
$GNGSA,A,3,66,67,82,81,,,,,,,,,1.80,0.88,1.56*15
$GPGSV,2,1,07,02,60,147,40,05,67,010,43,06,28,121,37,12,57,311,37*71
$AAMTW,26.9,C*1E
$AAXDR,C,26.9,C,ENV_SEA_T*03
$AAMDA,,I,,B,,C,26.9,C,,,,C,,T,,M,,N,,M*09
$GPGSV,2,2,07,19,,,32,20,17,327,34,29,24,230,35*78
$GLGSV,2,1,06,65,07,155,,66,51,110,43,67,41,025,25,81,47,125,42*68
$GLGSV,2,2,06,82,45,207,39,88,,,30*54
$GNGLL,3651.99356,S,17443.43641,E,022818.00,A,A*6B
$GNZDA,022818.00,31,01,2018,00,00*71
$AAMTW,26.9,C*1E
$AAXDR,C,26.9,C,ENV_SEA_T*03
$AAMDA,,I,,B,,C,26.9,C,,,,C,,T,,M,,N,,M*09
$GNRMC,022819.00,A,3651.99357,S,17443.43643,E,0.032,,310118,,,A*7B
$GNVTG,,T,,M,0.032,N,0.058,K,A*31
$GNGGA,022819.00,3651.99357,S,17443.43643,E,1,10,0.88,18.3,M,28.1,M,,*6C
$GNGSA,A,3,02,05,29,12,06,20,,,,,,,1.80,0.88,1.56*1C
$GNGSA,A,3,66,67,82,81,,,,,,,,,1.80,0.88,1.56*15
$GPGSV,2,1,07,02,60,147,40,05,67,010,42,06,28,121,36,12,57,312,37*72
$AAMTW,26.9,C*1E
$AAXDR,C,26.9,C,ENV_SEA_T*03
$AAMDA,,I,,B,,C,26.9,C,,,,C,,T,,M,,N,,M*09
$GPGSV,2,2,07,19,,,34,20,17,327,33,29,24,230,35*79
$GLGSV,2,1,06,65,07,155,,66,51,110,43,67,41,025,23,81,47,125,42*6E
$GLGSV,2,2,06,82,45,207,40,88,,,29*52
$GNGLL,3651.99357,S,17443.43643,E,022819.00,A,A*69
$GNZDA,022819.00,31,01,2018,00,00*70
$AAMTW,26.9,C*1E
$AAXDR,C,26.9,C,ENV_SEA_T*03
$AAMDA,,I,,B,,C,26.9,C,,,,C,,T,,M,,N,,M*09
$GNRMC,022820.00,A,3651.99358,S,17443.43644,E,0.065,,310118,,,A*7B
$GNVTG,,T,,M,0.065,N,0.120,K,A*3D
$GNGGA,022820.00,3651.99358,S,17443.43644,E,1,10,0.88,18.3,M,28.1,M,,*6E
$GNGSA,A,3,02,05,29,12,06,20,,,,,,,1.80,0.88,1.56*1C
$GNGSA,A,3,66,67,82,81,,,,,,,,,1.80,0.88,1.56*15
$GPGSV,2,1,07,02,60,147,40,05,67,010,41,06,28,121,37,12,57,312,38*7F
$AAMTW,26.9,C*1E
$AAXDR,C,26.9,C,ENV_SEA_T*03
$AAMDA,,I,,B,,C,26.9,C,,,,C,,T,,M,,N,,M*09
$GPGSV,2,2,07,19,,,31,20,18,327,33,29,24,230,35*73
$GLGSV,2,1,06,65,07,155,,66,51,110,44,67,41,025,25,81,47,125,43*6E
$GLGSV,2,2,06,82,45,207,40,88,,,29*52
$GNGLL,3651.99358,S,17443.43644,E,022820.00,A,A*6B
$GNZDA,022820.00,31,01,2018,00,00*7A
$AAMTW,26.9,C*1E
$AAXDR,C,26.9,C,ENV_SEA_T*03
$AAMDA,,I,,B,,C,26.9,C,,,,C,,T,,M,,N,,M*09
$GNRMC,022821.00,A,3651.99357,S,17443.43643,E,0.038,,310118,,,A*7A
$GNVTG,,T,,M,0.038,N,0.070,K,A*31
$GNGGA,022821.00,3651.99357,S,17443.43643,E,1,10,0.88,18.2,M,28.1,M,,*66
$GNGSA,A,3,02,05,29,12,06,20,,,,,,,1.80,0.88,1.56*1C
$GNGSA,A,3,66,67,82,81,,,,,,,,,1.80,0.88,1.56*15
$GPGSV,2,1,07,02,60,147,40,05,67,010,42,06,28,121,37,12,57,312,38*7C
$AAMTW,26.9,C*1E
$AAXDR,C,26.9,C,ENV_SEA_T*03
$AAMDA,,I,,B,,C,26.9,C,,,,C,,T,,M,,N,,M*09
$GPGSV,2,2,07,19,,,31,20,18,327,33,29,25,230,33*74
$GLGSV,2,1,06,65,07,155,,66,51,110,44,67,41,025,26,81,47,125,43*6D
$GLGSV,2,2,06,82,45,207,40,88,,,29*52
$GNGLL,3651.99357,S,17443.43643,E,022821.00,A,A*62
$GNZDA,022821.00,31,01,2018,00,00*7B
$AAMTW,26.9,C*1E
$AAXDR,C,26.9,C,ENV_SEA_T*03
$AAMDA,,I,,B,,C,26.9,C,,,,C,,T,,M,,N,,M*09
$GNRMC,022822.00,A,3651.99355,S,17443.43643,E,0.079,,310118,,,A*7E
$GNVTG,,T,,M,0.079,N,0.146,K,A*30
$GNGGA,022822.00,3651.99355,S,17443.43643,E,1,10,0.88,18.0,M,28.1,M,,*65
$GNGSA,A,3,02,05,29,12,06,20,,,,,,,1.80,0.88,1.56*1C
$GNGSA,A,3,66,67,82,81,,,,,,,,,1.80,0.88,1.56*15
$GPGSV,2,1,07,02,60,147,39,05,67,010,42,06,28,121,37,12,57,312,38*72
$AAMTW,26.9,C*1E
$AAXDR,C,26.9,C,ENV_SEA_T*03
$AAMDA,,I,,B,,C,26.9,C,,,,C,,T,,M,,N,,M*09
$GPGSV,2,2,07,19,,,30,20,18,327,34,29,25,230,35*74
$GLGSV,2,1,06,65,07,155,,66,51,110,44,67,41,025,27,81,47,125,43*6C
$GLGSV,2,2,06,82,45,207,40,88,,,29*52
$GNGLL,3651.99355,S,17443.43643,E,022822.00,A,A*63
$GNZDA,022822.00,31,01,2018,00,00*78
$AAMTW,26.9,C*1E
$AAXDR,C,26.9,C,ENV_SEA_T*03
$AAMDA,,I,,B,,C,26.9,C,,,,C,,T,,M,,N,,M*09
$GNRMC,022823.00,A,3651.99352,S,17443.43644,E,0.013,,310118,,,A*73
$GNVTG,,T,,M,0.013,N,0.024,K,A*39
$GNGGA,022823.00,3651.99352,S,17443.43644,E,1,10,0.88,17.9,M,28.1,M,,*62
$GNGSA,A,3,02,05,29,12,06,20,,,,,,,1.80,0.88,1.56*1C
$GNGSA,A,3,66,67,82,81,,,,,,,,,1.80,0.88,1.56*15
$GPGSV,2,1,07,02,60,147,40,05,67,010,42,06,28,121,38,12,57,312,39*72
$AAMTW,26.9,C*1E
$AAXDR,C,26.9,C,ENV_SEA_T*03
$AAMDA,,I,,B,,C,26.9,C,,,,C,,T,,M,,N,,M*09
$GPGSV,2,2,07,19,,,31,20,18,327,34,29,25,230,36*76
$GLGSV,2,1,06,65,07,155,,66,51,110,44,67,41,025,27,81,47,125,43*6C
$GLGSV,2,2,06,82,45,207,39,88,,,28*5D
$GNGLL,3651.99352,S,17443.43644,E,022823.00,A,A*62
$GNZDA,022823.00,31,01,2018,00,00*79
$AAMTW,26.9,C*1E
$AAXDR,C,26.9,C,ENV_SEA_T*03
$AAMDA,,I,,B,,C,26.9,C,,,,C,,T,,M,,N,,M*09
$GNRMC,022824.00,A,3651.99350,S,17443.43648,E,0.044,,310118,,,A*78
$GNVTG,,T,,M,0.044,N,0.082,K,A*37
$GNGGA,022824.00,3651.99350,S,17443.43648,E,1,10,0.88,18.0,M,28.1,M,,*6D
$GNGSA,A,3,02,05,29,12,06,20,,,,,,,1.80,0.88,1.56*1C
$GNGSA,A,3,66,67,82,81,,,,,,,,,1.80,0.88,1.56*15
$GPGSV,2,1,07,02,60,147,40,05,67,010,42,06,28,121,38,12,57,312,38*73
$AAMTW,26.9,C*1E
$AAXDR,C,26.9,C,ENV_SEA_T*03
$AAMDA,,I,,B,,C,26.9,C,,,,C,,T,,M,,N,,M*09
$GPGSV,2,2,07,19,,,31,20,18,327,33,29,25,230,40*70
$GLGSV,2,1,06,65,07,155,,66,51,110,42,67,41,025,21,81,47,125,42*6D
$GLGSV,2,2,06,82,45,207,39,88,,,29*5C
$GNGLL,3651.99350,S,17443.43648,E,022824.00,A,A*6B
$GNZDA,022824.00,31,01,2018,00,00*7E
$AAMTW,26.9,C*1E
$AAXDR,C,26.9,C,ENV_SEA_T*03
$AAMDA,,I,,B,,C,26.9,C,,,,C,,T,,M,,N,,M*09
$GNRMC,022825.00,A,3651.99351,S,17443.43651,E,0.014,,310118,,,A*75
$GNVTG,,T,,M,0.014,N,0.026,K,A*3C
$GNGGA,022825.00,3651.99351,S,17443.43651,E,1,10,0.88,18.1,M,28.1,M,,*64
$GNGSA,A,3,02,05,29,12,06,20,,,,,,,1.80,0.88,1.56*1C
$GNGSA,A,3,66,67,82,81,,,,,,,,,1.80,0.88,1.56*15
$GPGSV,2,1,07,02,60,147,40,05,67,010,42,06,28,121,38,12,57,312,35*7E
$AAMTW,26.9,C*1E
$AAXDR,C,26.9,C,ENV_SEA_T*03
$AAMDA,,I,,B,,C,26.9,C,,,,C,,T,,M,,N,,M*09
$GPGSV,2,2,07,19,,,30,20,18,327,34,29,25,230,40*76
$GLGSV,2,1,06,65,07,155,,66,51,110,43,67,41,025,20,81,47,125,43*6C
$GLGSV,2,2,06,82,45,207,40,88,,,29*52
$GNGLL,3651.99351,S,17443.43651,E,022825.00,A,A*63
$GNZDA,022825.00,31,01,2018,00,00*7F
$AAMTW,26.9,C*1E
$AAXDR,C,26.9,C,ENV_SEA_T*03
$AAMDA,,I,,B,,C,26.9,C,,,,C,,T,,M,,N,,M*09
$GNRMC,022826.00,A,3651.99351,S,17443.43653,E,0.033,,310118,,,A*71
$GNVTG,,T,,M,0.033,N,0.061,K,A*3A
$GNGGA,022826.00,3651.99351,S,17443.43653,E,1,10,0.88,18.3,M,28.1,M,,*67
$GNGSA,A,3,02,05,29,12,06,20,,,,,,,1.80,0.88,1.56*1C
$GNGSA,A,3,66,67,82,81,,,,,,,,,1.80,0.88,1.56*15
$GPGSV,2,1,07,02,60,147,40,05,67,010,42,06,28,121,37,12,57,312,37*73
$AAMTW,26.9,C*1E
$AAXDR,C,26.9,C,ENV_SEA_T*03
$AAMDA,,I,,B,,C,26.9,C,,,,C,,T,,M,,N,,M*09
$GPGSV,2,2,07,19,,,30,20,18,327,33,29,25,230,40*71
$GLGSV,2,1,06,65,07,155,,66,51,110,42,67,41,025,21,81,47,125,42*6D
$GLGSV,2,2,06,82,45,207,40,88,,,29*52
$GNGLL,3651.99351,S,17443.43653,E,022826.00,A,A*62
$GNZDA,022826.00,31,01,2018,00,00*7C
$AAMTW,26.9,C*1E
$AAXDR,C,26.9,C,ENV_SEA_T*03
$AAMDA,,I,,B,,C,26.9,C,,,,C,,T,,M,,N,,M*09
$GNRMC,022827.00,A,3651.99350,S,17443.43657,E,0.062,,310118,,,A*71
$GNVTG,,T,,M,0.062,N,0.114,K,A*3D
$GNGGA,022827.00,3651.99350,S,17443.43657,E,1,10,0.88,18.4,M,28.1,M,,*64
$GNGSA,A,3,02,05,29,12,06,20,,,,,,,1.80,0.88,1.56*1C
$GNGSA,A,3,66,67,82,81,,,,,,,,,1.80,0.88,1.56*15
$GPGSV,2,1,07,02,60,147,40,05,67,010,42,06,28,121,37,12,57,312,38*7C
$AAMTW,26.9,C*1E
$AAXDR,C,26.9,C,ENV_SEA_T*03
$AAMDA,,I,,B,,C,26.9,C,,,,C,,T,,M,,N,,M*09
$GPGSV,2,2,07,19,,,30,20,18,327,34,29,25,230,40*76
$GLGSV,2,1,07,65,07,155,,66,51,110,43,67,41,025,23,73,13,214,*64
$GLGSV,2,2,07,81,47,125,42,82,45,207,40,88,,,29*69
$GNGLL,3651.99350,S,17443.43657,E,022827.00,A,A*66
$GNZDA,022827.00,31,01,2018,00,00*7D
$AAMTW,26.9,C*1E
$AAXDR,C,26.9,C,ENV_SEA_T*03
$AAMDA,,I,,B,,C,26.9,C,,,,C,,T,,M,,N,,M*09
$GNRMC,022828.00,A,3651.99349,S,17443.43663,E,0.004,,310118,,,A*71
$GNVTG,,T,,M,0.004,N,0.007,K,A*3E
$GNGGA,022828.00,3651.99349,S,17443.43663,E,1,10,0.88,18.3,M,28.1,M,,*63
$GNGSA,A,3,02,05,29,12,06,20,,,,,,,1.80,0.88,1.56*1C
$GNGSA,A,3,66,67,82,81,,,,,,,,,1.80,0.88,1.56*15
$GPGSV,2,1,07,02,60,147,41,05,67,010,42,06,28,121,38,12,57,312,37*7D
$AAMTW,26.9,C*1E
$AAXDR,C,26.9,C,ENV_SEA_T*03
$AAMDA,,I,,B,,C,26.9,C,,,,C,,T,,M,,N,,M*09
$GPGSV,2,2,07,19,,,30,20,18,327,33,29,25,230,39*7F
$GLGSV,2,1,07,65,07,155,,66,51,110,43,67,41,025,24,73,13,214,25*64
$GLGSV,2,2,07,81,47,125,42,82,45,207,39,88,,,28*66
$GNGLL,3651.99349,S,17443.43663,E,022828.00,A,A*66
$GNZDA,022828.00,31,01,2018,00,00*72
$AAMTW,26.9,C*1E
$AAXDR,C,26.9,C,ENV_SEA_T*03
$AAMDA,,I,,B,,C,26.9,C,,,,C,,T,,M,,N,,M*09
$GNRMC,022829.00,A,3651.99346,S,17443.43667,E,0.061,,310118,,,A*78
$GNVTG,,T,,M,0.061,N,0.114,K,A*3E
$GNGGA,022829.00,3651.99346,S,17443.43667,E,1,10,0.88,18.2,M,28.1,M,,*68
$GNGSA,A,3,02,05,29,12,06,20,,,,,,,1.80,0.88,1.56*1C
$GNGSA,A,3,66,67,82,81,,,,,,,,,1.80,0.88,1.56*15
$GPGSV,2,1,07,02,60,147,40,05,67,010,42,06,28,121,37,12,57,312,37*73
$AAMTW,26.9,C*1E
$AAXDR,C,26.9,C,ENV_SEA_T*03
$AAMDA,,I,,B,,C,26.9,C,,,,C,,T,,M,,N,,M*09
$GPGSV,2,2,07,19,,,34,20,18,327,33,29,25,230,38*7A
$GLGSV,2,1,07,65,07,155,,66,51,110,42,67,41,025,22,73,13,214,31*66
$GLGSV,2,2,07,81,47,125,42,82,45,207,38,88,,,28*67
$GNGLL,3651.99346,S,17443.43667,E,022829.00,A,A*6C
$GNZDA,022829.00,31,01,2018,00,00*73
$AAMTW,26.9,C*1E
$AAXDR,C,26.9,C,ENV_SEA_T*03
$AAMDA,,I,,B,,C,26.9,C,,,,C,,T,,M,,N,,M*09
$GNRMC,022830.00,A,3651.99345,S,17443.43670,E,0.040,,310118,,,A*76
$GNVTG,,T,,M,0.040,N,0.075,K,A*3B
$GNGGA,022830.00,3651.99345,S,17443.43670,E,1,10,0.88,18.3,M,28.1,M,,*64
$GNGSA,A,3,02,05,29,12,06,20,,,,,,,1.80,0.88,1.56*1C
$GNGSA,A,3,66,67,82,81,,,,,,,,,1.80,0.88,1.56*15
$AAMTW,26.9,C*1E
$GPGSV,2,1,07,02,60,147,40,05,67,010,41,06,28,121,37,12,57,312,37*70
$AAXDR,C,26.9,C,ENV_SEA_T*03
$AAMDA,,I,,B,,C,26.9,C,,,,C,,T,,M,,N,,M*09
$GPGSV,2,2,07,19,,,32,20,18,327,33,29,25,230,38*7C
$GLGSV,2,1,07,65,07,155,,66,51,110,42,67,41,025,21,73,13,214,31*65
$GLGSV,2,2,07,81,47,125,42,82,45,207,40,88,,,28*68
$GNGLL,3651.99345,S,17443.43670,E,022830.00,A,A*61
$GNZDA,022830.00,31,01,2018,00,00*7B
$AAMTW,26.9,C*1E
$AAXDR,C,26.9,C,ENV_SEA_T*03
$AAMDA,,I,,B,,C,26.9,C,,,,C,,T,,M,,N,,M*09
$GNRMC,022831.00,A,3651.99345,S,17443.43674,E,0.074,,310118,,,A*74
$GNVTG,,T,,M,0.074,N,0.137,K,A*3B
$GNGGA,022831.00,3651.99345,S,17443.43674,E,1,11,0.82,18.3,M,28.1,M,,*6A
$GNGSA,A,3,02,05,19,29,12,06,20,,,,,,1.61,0.82,1.38*19
$GNGSA,A,3,66,67,82,81,,,,,,,,,1.61,0.82,1.38*18
$AAMTW,26.9,C*1E
$GPGSV,2,1,07,02,60,147,40,05,67,010,42,06,28,121,38,12,57,312,35*7E
$AAXDR,C,26.9,C,ENV_SEA_T*03
$AAMDA,,I,,B,,C,26.9,C,,,,C,,T,,M,,N,,M*09
$GPGSV,2,2,07,19,19,069,33,20,18,327,34,29,25,230,39*4C
$GLGSV,2,1,07,65,07,155,,66,51,110,43,67,41,025,29,73,13,214,32*6F
$GLGSV,2,2,07,81,47,125,42,82,45,207,41,88,,,28*69
$GNGLL,3651.99345,S,17443.43674,E,022831.00,A,A*64
$GNZDA,022831.00,31,01,2018,00,00*7A
$AAMTW,26.9,C*1E
$AAXDR,C,26.9,C,ENV_SEA_T*03
$AAMDA,,I,,B,,C,26.9,C,,,,C,,T,,M,,N,,M*09
$GNRMC,022832.00,A,3651.99345,S,17443.43677,E,0.013,,310118,,,A*75
$GNVTG,,T,,M,0.013,N,0.024,K,A*39
$GNGGA,022832.00,3651.99345,S,17443.43677,E,1,11,0.82,18.4,M,28.1,M,,*6D
$GNGSA,A,3,02,05,19,29,12,06,20,,,,,,1.61,0.82,1.38*19
$GNGSA,A,3,66,67,82,81,,,,,,,,,1.61,0.82,1.38*18
$AAMTW,26.9,C*1E
$GPGSV,2,1,07,02,60,147,39,05,67,010,43,06,28,121,38,12,57,312,36*72
$AAXDR,C,26.9,C,ENV_SEA_T*03
$AAMDA,,I,,B,,C,26.9,C,,,,C,,T,,M,,N,,M*09
$GPGSV,2,2,07,19,19,069,32,20,18,327,33,29,25,230,39*4A
$GLGSV,2,1,07,65,07,155,,66,51,110,44,67,41,025,27,73,13,214,32*66
$GLGSV,2,2,07,81,47,125,43,82,45,207,41,88,,,28*68
$GNGLL,3651.99345,S,17443.43677,E,022832.00,A,A*64
$GNZDA,022832.00,31,01,2018,00,00*79
$AAMTW,26.9,C*1E
$AAXDR,C,26.9,C,ENV_SEA_T*03
$AAMDA,,I,,B,,C,26.9,C,,,,C,,T,,M,,N,,M*09
$GNRMC,022833.00,A,3651.99344,S,17443.43679,E,0.023,,310118,,,A*78
$GNVTG,,T,,M,0.023,N,0.042,K,A*3A
$GNGGA,022833.00,3651.99344,S,17443.43679,E,1,12,0.86,18.4,M,28.1,M,,*64
$GNGSA,A,3,02,05,19,29,12,06,20,,,,,,1.49,0.86,1.22*1C
$GNGSA,A,3,66,67,82,81,88,,,,,,,,1.49,0.86,1.22*1D
$AAMTW,26.9,C*1E
$AAXDR,C,26.9,C,ENV_SEA_T*03
$AAMDA,,I,,B,,C,26.9,C,,,,C,,T,,M,,N,,M*09
$GPGSV,2,1,07,02,60,147,40,05,67,010,42,06,28,121,38,12,57,312,37*7C
$GPGSV,2,2,07,19,19,069,32,20,18,327,34,29,25,230,39*4D
$GLGSV,2,1,07,65,07,155,,66,51,110,44,67,41,025,32,73,13,214,32*62
$GLGSV,2,2,07,81,47,125,44,82,45,207,41,88,09,087,27*56
$GNGLL,3651.99344,S,17443.43679,E,022833.00,A,A*6A
$GNZDA,022833.00,31,01,2018,00,00*78
$AAMTW,26.9,C*1E
$AAXDR,C,26.9,C,ENV_SEA_T*03
$AAMDA,,I,,B,,C,26.9,C,,,,C,,T,,M,,N,,M*09
$GNRMC,022834.00,A,3651.99342,S,17443.43682,E,0.017,,310118,,,A*7A
$GNVTG,,T,,M,0.017,N,0.032,K,A*3A
$GNGGA,022834.00,3651.99342,S,17443.43682,E,1,12,0.79,18.3,M,28.1,M,,*66
$GNGSA,A,3,02,05,19,29,12,06,20,,,,,,1.44,0.79,1.21*12
$GNGSA,A,3,66,67,82,81,88,,,,,,,,1.44,0.79,1.21*13
$AAMTW,26.9,C*1E
$AAXDR,C,26.9,C,ENV_SEA_T*03
$AAMDA,,I,,B,,C,26.9,C,,,,C,,T,,M,,N,,M*09
$GPGSV,2,1,07,02,60,147,39,05,67,010,42,06,28,121,39,12,57,312,37*73
$GPGSV,2,2,07,19,19,069,31,20,18,327,33,29,25,230,39*49
$GLGSV,2,1,07,65,07,155,,66,51,110,43,67,41,025,26,73,13,214,32*60
$GLGSV,2,2,07,81,47,125,42,82,45,207,41,88,09,087,27*50
$GNGLL,3651.99342,S,17443.43682,E,022834.00,A,A*6F
$GNZDA,022834.00,31,01,2018,00,00*7F
$AAMTW,26.9,C*1E
$AAXDR,C,26.9,C,ENV_SEA_T*03
$AAMDA,,I,,B,,C,26.9,C,,,,C,,T,,M,,N,,M*09
$GNRMC,022835.00,A,3651.99339,S,17443.43682,E,0.024,,310118,,,A*77
$GNVTG,,T,,M,0.024,N,0.044,K,A*3B
$GNGGA,022835.00,3651.99339,S,17443.43682,E,1,12,0.79,18.2,M,28.1,M,,*6A
$GNGSA,A,3,02,05,19,29,12,06,20,,,,,,1.44,0.79,1.21*12
$GNGSA,A,3,66,67,82,81,88,,,,,,,,1.44,0.79,1.21*13
$AAMTW,26.9,C*1E
$AAXDR,C,26.9,C,ENV_SEA_T*03
$AAMDA,,I,,B,,C,26.9,C,,,,C,,T,,M,,N,,M*09
$GPGSV,2,1,07,02,60,147,40,05,67,010,42,06,28,121,38,12,57,312,38*73
$GPGSV,2,2,07,19,19,069,32,20,18,327,33,29,25,230,39*4A
$GLGSV,2,1,07,65,07,155,,66,51,110,43,67,41,025,24,73,13,214,32*62
$GLGSV,2,2,07,81,47,125,43,82,45,207,40,88,09,087,27*50
$GNGLL,3651.99339,S,17443.43682,E,022835.00,A,A*62
$GNZDA,022835.00,31,01,2018,00,00*7E
$AAMTW,26.9,C*1E
$AAXDR,C,26.9,C,ENV_SEA_T*03
$AAMDA,,I,,B,,C,26.9,C,,,,C,,T,,M,,N,,M*09
$GNRMC,022836.00,A,3651.99337,S,17443.43682,E,0.033,,310118,,,A*7C
$GNVTG,,T,,M,0.033,N,0.061,K,A*3A
$GNGGA,022836.00,3651.99337,S,17443.43682,E,1,12,0.79,18.1,M,28.1,M,,*64
$GNGSA,A,3,02,05,19,29,12,06,20,,,,,,1.44,0.79,1.21*12
$GNGSA,A,3,66,67,82,81,88,,,,,,,,1.44,0.79,1.21*13
$AAMTW,26.9,C*1E
$AAXDR,C,26.9,C,ENV_SEA_T*03
$AAMDA,,I,,B,,C,26.9,C,,,,C,,T,,M,,N,,M*09
$GPGSV,2,1,07,02,60,147,40,05,67,010,42,06,28,121,37,12,57,312,38*7C
$GPGSV,2,2,07,19,19,069,33,20,18,327,33,29,25,230,38*4A
$GLGSV,2,1,07,65,07,155,,66,51,110,42,67,41,025,22,73,13,214,32*65
$GLGSV,2,2,07,81,47,125,42,82,45,207,40,88,09,087,28*5E
$GNGLL,3651.99337,S,17443.43682,E,022836.00,A,A*6F
$GNZDA,022836.00,31,01,2018,00,00*7D
$AAMTW,26.9,C*1E
$AAXDR,C,26.9,C,ENV_SEA_T*03
$AAMDA,,I,,B,,C,26.9,C,,,,C,,T,,M,,N,,M*09
$GNRMC,022837.00,A,3651.99336,S,17443.43681,E,0.033,,310118,,,A*7F
$GNVTG,,T,,M,0.033,N,0.062,K,A*39
$GNGGA,022837.00,3651.99336,S,17443.43681,E,1,12,0.86,18.1,M,28.1,M,,*67
$GNGSA,A,3,02,05,19,29,12,06,20,,,,,,1.49,0.86,1.22*1C
$GNGSA,A,3,66,67,82,81,88,,,,,,,,1.49,0.86,1.22*1D
$AAMTW,26.9,C*1E
$AAXDR,C,26.9,C,ENV_SEA_T*03
$AAMDA,,I,,B,,C,26.9,C,,,,C,,T,,M,,N,,M*09
$GPGSV,2,1,07,02,60,147,40,05,67,010,42,06,28,121,37,12,57,312,38*7C
$GPGSV,2,2,07,19,19,069,33,20,18,327,33,29,25,230,38*4A
$GLGSV,2,1,07,65,07,155,,66,51,110,42,67,41,025,31,73,13,214,33*66
$GLGSV,2,2,07,81,47,125,42,82,45,207,42,88,09,087,29*5D
$GNGLL,3651.99336,S,17443.43681,E,022837.00,A,A*6C
$GNZDA,022837.00,31,01,2018,00,00*7C
$AAMTW,26.9,C*1E
$AAXDR,C,26.9,C,ENV_SEA_T*03
$AAMDA,,I,,B,,C,26.9,C,,,,C,,T,,M,,N,,M*09
$GNRMC,022838.00,A,3651.99335,S,17443.43679,E,0.043,,310118,,,A*73
$GNVTG,,T,,M,0.043,N,0.080,K,A*32
$GNGGA,022838.00,3651.99335,S,17443.43679,E,1,12,0.86,18.1,M,28.1,M,,*6C
$GNGSA,A,3,02,05,19,29,12,06,20,,,,,,1.49,0.86,1.22*1C
$GNGSA,A,3,66,67,82,81,88,,,,,,,,1.49,0.86,1.22*1D
$AAMTW,26.9,C*1E
$AAXDR,C,26.9,C,ENV_SEA_T*03
$AAMDA,,I,,B,,C,26.9,C,,,,C,,T,,M,,N,,M*09
$GPGSV,2,1,07,02,60,147,40,05,67,010,43,06,28,121,36,12,57,312,38*7C
$GPGSV,2,2,07,19,19,069,33,20,18,327,34,29,25,230,37*42
$GLGSV,2,1,07,65,07,155,,66,51,110,43,67,41,025,29,73,13,214,33*6E
$GLGSV,2,2,07,81,47,125,42,82,45,207,42,88,09,087,29*5D
$GNGLL,3651.99335,S,17443.43679,E,022838.00,A,A*67
$GNZDA,022838.00,31,01,2018,00,00*73
$AAMTW,26.9,C*1E
$AAXDR,C,26.9,C,ENV_SEA_T*03
$AAMDA,,I,,B,,C,26.9,C,,,,C,,T,,M,,N,,M*09
$GNRMC,022839.00,A,3651.99335,S,17443.43676,E,0.009,,310118,,,A*73
$GNVTG,,T,,M,0.009,N,0.016,K,A*33
$GNGGA,022839.00,3651.99335,S,17443.43676,E,1,12,0.79,18.1,M,28.1,M,,*62
$GNGSA,A,3,02,05,19,29,12,06,20,,,,,,1.44,0.79,1.21*12
$GNGSA,A,3,66,67,82,81,88,,,,,,,,1.44,0.79,1.21*13
$AAMTW,26.9,C*1E
$AAXDR,C,26.9,C,ENV_SEA_T*03
$AAMDA,,I,,B,,C,26.9,C,,,,C,,T,,M,,N,,M*09
$GPGSV,2,1,07,02,60,147,40,05,67,010,42,06,28,121,36,12,57,312,39*7C
$GPGSV,2,2,07,19,19,069,31,20,18,327,33,29,25,230,38*48
$GLGSV,2,1,07,65,07,155,,66,51,110,43,67,41,025,22,73,13,214,32*64
$GLGSV,2,2,07,81,47,125,43,82,45,207,41,88,09,087,28*5E
$GNGLL,3651.99335,S,17443.43676,E,022839.00,A,A*69
$GNZDA,022839.00,31,01,2018,00,00*72
$AAMTW,26.9,C*1E
$AAXDR,C,26.9,C,ENV_SEA_T*03
$AAMDA,,I,,B,,C,26.9,C,,,,C,,T,,M,,N,,M*09
$GNRMC,022840.00,A,3651.99334,S,17443.43674,E,0.015,,310118,,,A*73
$GNVTG,,T,,M,0.015,N,0.027,K,A*3C
$GNGGA,022840.00,3651.99334,S,17443.43674,E,1,12,0.79,18.1,M,28.1,M,,*6F
$GNGSA,A,3,02,05,19,29,12,06,20,,,,,,1.44,0.79,1.21*12
$GNGSA,A,3,66,67,82,81,88,,,,,,,,1.44,0.79,1.21*13
$AAMTW,26.9,C*1E
$AAXDR,C,26.9,C,ENV_SEA_T*03
$AAMDA,,I,,B,,C,26.9,C,,,,C,,T,,M,,N,,M*09
$GPGSV,2,1,07,02,60,147,40,05,67,010,43,06,28,121,36,12,57,312,39*7D
$GPGSV,2,2,07,19,19,069,34,20,18,327,32,29,25,230,38*4C
$GLGSV,2,1,07,65,07,155,,66,51,110,43,67,41,025,21,73,13,214,31*64
$GLGSV,2,2,07,81,47,124,43,82,45,207,41,88,09,087,28*5F
$GNGLL,3651.99334,S,17443.43674,E,022840.00,A,A*64
$GNZDA,022840.00,31,01,2018,00,00*7C
$AAMTW,26.9,C*1E
$AAXDR,C,26.9,C,ENV_SEA_T*03
$AAMDA,,I,,B,,C,26.9,C,,,,C,,T,,M,,N,,M*09
$GNRMC,022841.00,A,3651.99334,S,17443.43671,E,0.025,,310118,,,A*74
$GNVTG,,T,,M,0.025,N,0.047,K,A*39
$GNGGA,022841.00,3651.99334,S,17443.43671,E,1,12,0.86,18.0,M,28.1,M,,*6A
$GNGSA,A,3,02,05,19,29,12,06,20,,,,,,1.49,0.86,1.22*1C
$GNGSA,A,3,66,67,82,81,88,,,,,,,,1.49,0.86,1.22*1D
$AAMTW,26.9,C*1E
$AAXDR,C,26.9,C,ENV_SEA_T*03
$AAMDA,,I,,B,,C,26.9,C,,,,C,,T,,M,,N,,M*09
$GPGSV,2,1,07,02,60,147,40,05,67,010,42,06,28,121,36,12,57,312,41*73
$GPGSV,2,2,07,19,19,069,34,20,18,327,32,29,25,230,37*43
$GLGSV,2,1,07,65,07,155,,66,51,110,43,67,41,025,21,73,13,214,31*64
$GLGSV,2,2,07,81,47,124,42,82,45,207,41,88,09,087,28*5E
$GNGLL,3651.99334,S,17443.43671,E,022841.00,A,A*60
$GNZDA,022841.00,31,01,2018,00,00*7D
$AAMTW,26.9,C*1E
$AAXDR,C,26.9,C,ENV_SEA_T*03
$AAMDA,,I,,B,,C,26.9,C,,,,C,,T,,M,,N,,M*09
$GNRMC,022842.00,A,3651.99335,S,17443.43668,E,0.061,,310118,,,A*7E
$GNVTG,,T,,M,0.061,N,0.113,K,A*39
$GNGGA,022842.00,3651.99335,S,17443.43668,E,1,12,0.86,18.0,M,28.1,M,,*60
$GNGSA,A,3,02,05,19,29,12,06,20,,,,,,1.49,0.86,1.22*1C
$GNGSA,A,3,66,67,82,81,88,,,,,,,,1.49,0.86,1.22*1D
$AAMTW,26.9,C*1E
$AAXDR,C,26.9,C,ENV_SEA_T*03
$AAMDA,,I,,B,,C,26.9,C,,,,C,,T,,M,,N,,M*09
$GPGSV,2,1,07,02,60,147,40,05,67,010,42,06,28,121,37,12,57,312,40*73
$GPGSV,2,2,07,19,19,069,33,20,18,327,33,29,25,230,38*4A
$GLGSV,2,1,07,65,07,155,,66,51,110,41,67,41,025,22,73,13,214,30*64
$GLGSV,2,2,07,81,47,124,42,82,45,207,42,88,09,087,28*5D
$GNGLL,3651.99335,S,17443.43668,E,022842.00,A,A*6A
$AAMTW,26.9,C*1E
$GNZDA,022842.00,31,01,2018,00,00*7E
$AAXDR,C,26.9,C,ENV_SEA_T*03
$AAMDA,,I,,B,,C,26.9,C,,,,C,,T,,M,,N,,M*09
$GNRMC,022843.00,A,3651.99335,S,17443.43668,E,0.029,,310118,,,A*73
$GNVTG,,T,,M,0.029,N,0.054,K,A*37
$GNGGA,022843.00,3651.99335,S,17443.43668,E,1,12,0.79,18.0,M,28.1,M,,*61
$GNGSA,A,3,02,05,19,29,12,06,20,,,,,,1.44,0.79,1.21*12
$GNGSA,A,3,66,67,82,81,88,,,,,,,,1.44,0.79,1.21*13
$AAMTW,26.9,C*1E
$AAXDR,C,26.9,C,ENV_SEA_T*03
$AAMDA,,I,,B,,C,26.9,C,,,,C,,T,,M,,N,,M*09
$GPGSV,2,1,07,02,60,147,40,05,67,010,42,06,28,121,37,12,57,312,40*73
$GPGSV,2,2,07,19,19,069,32,20,18,327,33,29,25,230,38*4B
$GLGSV,2,1,07,65,07,155,,66,51,110,41,67,41,025,23,73,13,214,30*65
$GLGSV,2,2,07,81,47,124,42,82,45,207,41,88,09,087,28*5E
$GNGLL,3651.99335,S,17443.43668,E,022843.00,A,A*6B
$AAMTW,26.9,C*1E
$GNZDA,022843.00,31,01,2018,00,00*7F
$AAXDR,C,26.9,C,ENV_SEA_T*03
$AAMDA,,I,,B,,C,26.9,C,,,,C,,T,,M,,N,,M*09
$GNRMC,022844.00,A,3651.99336,S,17443.43666,E,0.008,,310118,,,A*7A
$GNVTG,,T,,M,0.008,N,0.016,K,A*32
$GNGGA,022844.00,3651.99336,S,17443.43666,E,1,12,0.79,17.9,M,28.1,M,,*6D
$GNGSA,A,3,02,05,19,29,12,06,20,,,,,,1.44,0.79,1.21*12
$GNGSA,A,3,66,67,82,81,88,,,,,,,,1.44,0.79,1.21*13
$AAMTW,26.9,C*1E
$AAXDR,C,26.9,C,ENV_SEA_T*03
$AAMDA,,I,,B,,C,26.9,C,,,,C,,T,,M,,N,,M*09
$GPGSV,2,1,07,02,60,147,40,05,68,010,42,06,28,121,37,12,57,312,40*7C
$GPGSV,2,2,07,19,19,069,32,20,18,327,33,29,25,230,37*44
$GLGSV,2,1,07,65,07,155,,66,51,110,44,67,41,025,24,73,13,214,30*67
$GLGSV,2,2,07,81,47,124,43,82,45,207,41,88,09,087,28*5F
$GNGLL,3651.99336,S,17443.43666,E,022844.00,A,A*61
$AAMTW,26.9,C*1E
$AAXDR,C,26.9,C,ENV_SEA_T*03
$GNZDA,022844.00,31,01,2018,00,00*78
$AAMDA,,I,,B,,C,26.9,C,,,,C,,T,,M,,N,,M*09
$GNRMC,022845.00,A,3651.99338,S,17443.43662,E,0.026,,310118,,,A*7D
$GNVTG,,T,,M,0.026,N,0.049,K,A*34
$GNGGA,022845.00,3651.99338,S,17443.43662,E,1,12,0.79,18.0,M,28.1,M,,*60
$GNGSA,A,3,02,05,19,29,12,06,20,,,,,,1.45,0.79,1.21*13
$GNGSA,A,3,66,67,82,81,88,,,,,,,,1.45,0.79,1.21*12
$AAMTW,26.9,C*1E
$AAXDR,C,26.9,C,ENV_SEA_T*03
$AAMDA,,I,,B,,C,26.9,C,,,,C,,T,,M,,N,,M*09
$GPGSV,2,1,07,02,60,147,40,05,68,010,42,06,28,121,37,12,57,312,40*7C
$GPGSV,2,2,07,19,19,069,33,20,18,327,33,29,25,230,37*45
$GLGSV,2,1,07,65,07,155,,66,51,110,43,67,41,025,25,73,13,214,31*60
$GLGSV,2,2,07,81,47,124,43,82,45,207,41,88,09,087,29*5E
$GNGLL,3651.99338,S,17443.43662,E,022845.00,A,A*6A
$AAMTW,26.9,C*1E
$GNZDA,022845.00,31,01,2018,00,00*79
$AAXDR,C,26.9,C,ENV_SEA_T*03
$AAMDA,,I,,B,,C,26.9,C,,,,C,,T,,M,,N,,M*09
$GNRMC,022846.00,A,3651.99339,S,17443.43659,E,0.036,,310118,,,A*76
$GNVTG,,T,,M,0.036,N,0.066,K,A*38
$GNGGA,022846.00,3651.99339,S,17443.43659,E,1,12,0.79,18.0,M,28.1,M,,*6A
$GNGSA,A,3,02,05,19,29,12,06,20,,,,,,1.45,0.79,1.21*13
$GNGSA,A,3,66,67,82,81,88,,,,,,,,1.45,0.79,1.21*12
$AAMTW,26.9,C*1E
$AAXDR,C,26.9,C,ENV_SEA_T*03
$AAMDA,,I,,B,,C,26.9,C,,,,C,,T,,M,,N,,M*09
$GPGSV,2,1,07,02,60,147,40,05,68,010,42,06,28,121,37,12,57,312,40*7C
$GPGSV,2,2,07,19,19,069,33,20,18,327,34,29,25,230,36*43
$GLGSV,2,1,07,65,07,155,,66,51,110,43,67,41,025,24,73,13,214,31*61
$GLGSV,2,2,07,81,47,124,43,82,45,207,41,88,09,087,29*5E
$GNGLL,3651.99339,S,17443.43659,E,022846.00,A,A*60
$AAMTW,26.9,C*1E
$AAXDR,C,26.9,C,ENV_SEA_T*03
$AAMDA,,I,,B,,C,26.9,C,,,,C,,T,,M,,N,,M*09
$GNZDA,022846.00,31,01,2018,00,00*7A
$GNRMC,022847.00,A,3651.99340,S,17443.43656,E,0.033,,310118,,,A*73
$GNVTG,,T,,M,0.033,N,0.061,K,A*3A
$GNGGA,022847.00,3651.99340,S,17443.43656,E,1,12,0.79,17.9,M,28.1,M,,*6C
$GNGSA,A,3,02,05,19,29,12,06,20,,,,,,1.45,0.79,1.21*13
$GNGSA,A,3,66,67,82,81,88,,,,,,,,1.45,0.79,1.21*12
$AAMTW,26.9,C*1E
$AAXDR,C,26.9,C,ENV_SEA_T*03
$AAMDA,,I,,B,,C,26.9,C,,,,C,,T,,M,,N,,M*09
$GPGSV,2,1,07,02,60,147,40,05,68,010,42,06,28,121,37,12,57,312,41*7D
$GPGSV,2,2,07,19,19,069,33,20,18,327,34,29,25,230,36*43
$GLGSV,2,1,07,65,07,155,,66,51,110,42,67,41,025,22,73,13,214,29*6F
$GLGSV,2,2,07,81,47,124,43,82,45,207,41,88,09,087,29*5E
$GNGLL,3651.99340,S,17443.43656,E,022847.00,A,A*60
$AAMTW,26.9,C*1E
$AAXDR,C,26.9,C,ENV_SEA_T*03
$AAMDA,,I,,B,,C,26.9,C,,,,C,,T,,M,,N,,M*09
$GNZDA,022847.00,31,01,2018,00,00*7B
$GNRMC,022848.00,A,3651.99343,S,17443.43653,E,0.023,,310118,,,A*7B
$GNVTG,,T,,M,0.023,N,0.042,K,A*3A
$GNGGA,022848.00,3651.99343,S,17443.43653,E,1,12,0.79,17.9,M,28.1,M,,*65
$GNGSA,A,3,02,05,19,29,12,06,20,,,,,,1.45,0.79,1.21*13
$GNGSA,A,3,66,67,82,81,88,,,,,,,,1.45,0.79,1.21*12
$AAMTW,26.9,C*1E
$AAXDR,C,26.9,C,ENV_SEA_T*03
$AAMDA,,I,,B,,C,26.9,C,,,,C,,T,,M,,N,,M*09
$GPGSV,2,1,07,02,60,147,41,05,68,010,43,06,28,121,37,12,57,312,41*7D
$GPGSV,2,2,07,19,19,069,32,20,18,327,35,29,25,230,37*42
$GLGSV,2,1,07,65,07,155,,66,51,110,43,67,41,025,21,73,13,214,29*6D
$GLGSV,2,2,07,81,47,124,43,82,45,207,42,88,09,087,28*5C
$GNGLL,3651.99343,S,17443.43653,E,022848.00,A,A*69
$AAMTW,26.9,C*1E
$AAXDR,C,26.9,C,ENV_SEA_T*03
$AAMDA,,I,,B,,C,26.9,C,,,,C,,T,,M,,N,,M*09
$GNZDA,022848.00,31,01,2018,00,00*74
$GNRMC,022849.00,A,3651.99345,S,17443.43651,E,0.030,,310118,,,A*7C
$GNVTG,,T,,M,0.030,N,0.055,K,A*3E
$GNGGA,022849.00,3651.99345,S,17443.43651,E,1,12,0.82,17.8,M,28.1,M,,*65
$GNGSA,A,3,02,05,19,29,12,06,20,,,,,,1.61,0.82,1.39*18
$GNGSA,A,3,66,67,82,81,88,,,,,,,,1.61,0.82,1.39*19
$AAMTW,26.9,C*1E
$AAXDR,C,26.9,C,ENV_SEA_T*03
$AAMDA,,I,,B,,C,26.9,C,,,,C,,T,,M,,N,,M*09
$GPGSV,2,1,07,02,60,147,41,05,68,010,42,06,28,121,36,12,57,312,37*7C
$GPGSV,2,2,07,19,19,068,32,20,18,327,35,29,25,230,37*43
$GLGSV,2,1,07,65,07,155,,66,51,110,43,67,41,025,23,73,13,214,29*6F
$GLGSV,2,2,07,81,47,124,43,82,45,207,42,88,09,087,29*5D
$GNGLL,3651.99345,S,17443.43651,E,022849.00,A,A*6C
$AAMTW,26.9,C*1E
$AAXDR,C,26.9,C,ENV_SEA_T*03
$AAMDA,,I,,B,,C,26.9,C,,,,C,,T,,M,,N,,M*09
$GNZDA,022849.00,31,01,2018,00,00*75
$GNRMC,022850.00,A,3651.99346,S,17443.43650,E,0.026,,310118,,,A*71
$GNVTG,,T,,M,0.026,N,0.048,K,A*35
