$GNRMC,034320.00,A,3651.97541,S,17443.43617,E,0.784,,260118,,,A*7F
$AADPT,1.40,0.00*45
$AADBT,4.5,f,1.40,M,0.7,F*22
$AADBS,4.5,f,1.40,M,0.7,F*25
$AAMTW,25.8,C*1C
$GNVTG,,T,,M,0.784,N,1.452,K,A*34
$AAXDR,C,25.8,C,ENV_SEA_T*01
$GNGGA,034320.00,3651.97541,S,17443.43617,E,1,05,2.71,29.9,M,28.1,M,,*6C
$AAMDA,,I,,B,,C,25.8,C,,,,C,,T,,M,,N,,M*0B
$AADPT,1.40,0.00*45
$GNGSA,A,3,02,13,05,12,,,,,,,,,4.09,2.71,3.07*17
$GNGSA,A,3,70,,,,,,,,,,,,4.09,2.71,3.07*16
$GPGSV,2,1,08,02,43,117,33,05,78,111,33,06,,,33,12,34,334,33*4D
$GPGSV,2,2,08,13,17,036,36,20,,,26,25,,,23,29,,,40*4A
$GLGSV,2,1,06,70,69,048,34,71,26,352,37,,,,35,,,,27*62
$GLGSV,2,2,06,,,,35,,,,27*60
$AADPT,1.40,0.00*45
$AADBT,4.5,f,1.40,M,0.7,F*22
$AADBS,4.5,f,1.40,M,0.7,F*25
$AAMTW,25.8,C*1C
$AAXDR,C,25.8,C,ENV_SEA_T*01
$AAMDA,,I,,B,,C,25.8,C,,,,C,,T,,M,,N,,M*0B
$AADPT,1.40,0.00*45
$GNGLL,3651.97541,S,17443.43617,E,034320.00,A,A*61
$GNZDA,034320.00,26,01,2018,00,00*70
$GNRMC,034321.00,A,3651.97491,S,17443.43665,E,0.504,,260118,,,A*7D
$AADPT,1.42,0.00*47
$AADBT,4.6,f,1.42,M,0.7,F*23
$AADBS,4.6,f,1.42,M,0.7,F*24
$AAMTW,25.8,C*1C
$GNVTG,,T,,M,0.504,N,0.934,K,A*32
$GNGGA,034321.00,3651.97491,S,17443.43665,E,1,05,2.71,31.0,M,28.1,M,,*64
$AAXDR,C,25.8,C,ENV_SEA_T*01
$AAMDA,,I,,B,,C,25.8,C,,,,C,,T,,M,,N,,M*0B
$AADPT,1.42,0.00*47
$GNGSA,A,3,02,13,05,12,,,,,,,,,4.09,2.71,3.07*17
$GNGSA,A,3,70,,,,,,,,,,,,4.09,2.71,3.07*16
$GPGSV,2,1,08,02,43,117,32,05,78,111,32,06,,,32,12,34,334,35*4A
$GPGSV,2,2,08,13,17,036,37,20,,,24,25,,,21,29,,,40*4B
$GLGSV,2,1,06,70,69,048,34,71,26,352,34,,,,27,,,,27*62
$GLGSV,2,2,06,,,,27,,,,27*63
$AADPT,1.42,0.00*47
$AADBT,4.6,f,1.42,M,0.7,F*23
$AADBS,4.6,f,1.42,M,0.7,F*24
$AAMTW,25.8,C*1C
$AAXDR,C,25.8,C,ENV_SEA_T*01
$AAMDA,,I,,B,,C,25.8,C,,,,C,,T,,M,,N,,M*0B
$AADPT,1.42,0.00*47
$GNGLL,3651.97491,S,17443.43665,E,034321.00,A,A*69
$GNZDA,034321.00,26,01,2018,00,00*71
$GNRMC,034322.00,A,3651.97444,S,17443.43717,E,0.358,,260118,,,A*7D
$AADPT,1.57,0.00*43
$AADBT,5.1,f,1.57,M,0.8,F*2E
$AADBS,5.1,f,1.57,M,0.8,F*29
$AAMTW,25.8,C*1C
$AAXDR,C,25.8,C,ENV_SEA_T*01
$GNVTG,,T,,M,0.358,N,0.663,K,A*30
$GNGGA,034322.00,3651.97444,S,17443.43717,E,1,05,2.71,31.6,M,28.1,M,,*6D
$AAMDA,,I,,B,,C,25.8,C,,,,C,,T,,M,,N,,M*0B
$AADPT,1.57,0.00*43
$GNGSA,A,3,02,13,05,12,,,,,,,,,4.09,2.71,3.07*17
$GNGSA,A,3,70,,,,,,,,,,,,4.09,2.71,3.07*16
$GPGSV,2,1,08,02,43,117,32,05,78,111,32,06,,,32,12,34,334,36*49
$GPGSV,2,2,08,13,17,036,39,20,,,23,25,,,26,29,,,40*45
$GLGSV,2,1,06,70,69,048,35,71,26,352,30,,,,26,,,,28*69
$GLGSV,2,2,06,,,,26,,,,28*6D
$AADPT,1.57,0.00*43
$AADBT,5.1,f,1.57,M,0.8,F*2E
$AADBS,5.1,f,1.57,M,0.8,F*29
$AAMTW,25.8,C*1C
$AAXDR,C,25.8,C,ENV_SEA_T*01
$AAMDA,,I,,B,,C,25.8,C,,,,C,,T,,M,,N,,M*0B
$AADPT,1.57,0.00*43
$GNGLL,3651.97444,S,17443.43717,E,034322.00,A,A*66
$GNZDA,034322.00,26,01,2018,00,00*72
$GNRMC,034323.00,A,3651.97391,S,17443.43784,E,0.924,,260118,,,A*78
$AADPT,1.48,0.00*4D
$AADBT,4.8,f,1.48,M,0.8,F*28
$AADBS,4.8,f,1.48,M,0.8,F*2F
$AAMTW,25.8,C*1C
$GNVTG,,T,,M,0.924,N,1.711,K,A*34
$GNGGA,034323.00,3651.97391,S,17443.43784,E,1,05,2.71,32.8,M,28.1,M,,*64
$AAXDR,C,25.8,C,ENV_SEA_T*01
$AAMDA,,I,,B,,C,25.8,C,,,,C,,T,,M,,N,,M*0B
$AADPT,1.48,0.00*4D
$GNGSA,A,3,02,13,05,12,,,,,,,,,4.09,2.71,3.07*17
$GNGSA,A,3,70,,,,,,,,,,,,4.09,2.71,3.07*16
$GPGSV,2,1,08,02,43,117,31,05,78,111,31,06,,,25,12,34,334,33*4A
$GPGSV,2,2,08,13,17,036,40,20,,,21,25,,,32,29,,,39*42
$GLGSV,2,1,06,70,69,048,37,71,26,352,34,,,,25,,,,29*6D
$GLGSV,2,2,06,,,,25,,,,29*6F
$AADPT,1.48,0.00*4D
$AADBT,4.8,f,1.48,M,0.8,F*28
$AADBS,4.8,f,1.48,M,0.8,F*2F
$AAMTW,25.8,C*1C
$AAXDR,C,25.8,C,ENV_SEA_T*01
$AAMDA,,I,,B,,C,25.8,C,,,,C,,T,,M,,N,,M*0B
$AADPT,1.48,0.00*4D
$GNGLL,3651.97391,S,17443.43784,E,034323.00,A,A*62
$GNZDA,034323.00,26,01,2018,00,00*73
$GNRMC,034324.00,A,3651.97332,S,17443.43866,E,0.815,,260118,,,A*76
$AADPT,1.54,0.00*40
$AADBT,5.0,f,1.54,M,0.8,F*2C
$AADBS,5.0,f,1.54,M,0.8,F*2B
$AAMTW,25.8,C*1C
$AAXDR,C,25.8,C,ENV_SEA_T*01
$AAMDA,,I,,B,,C,25.8,C,,,,C,,T,,M,,N,,M*0B
$GNVTG,,T,,M,0.815,N,1.510,K,A*34
$GNGGA,034324.00,3651.97332,S,17443.43866,E,1,05,2.71,34.3,M,28.1,M,,*64
$AADPT,1.54,0.00*40
$GNGSA,A,3,02,13,05,12,,,,,,,,,4.09,2.71,3.07*17
$GNGSA,A,3,70,,,,,,,,,,,,4.09,2.71,3.07*16
$GPGSV,2,1,08,02,43,117,32,05,78,111,31,06,,,26,12,34,334,33*4A
$GPGSV,2,2,08,13,17,036,40,20,,,20,25,,,33,29,,,38*43
$GLGSV,2,1,06,70,69,048,36,71,26,352,30,,,,24,,,,31*60
$GLGSV,2,2,06,,,,24,,,,31*67
$AADPT,1.54,0.00*40
$AADBT,5.0,f,1.54,M,0.8,F*2C
$AADBS,5.0,f,1.54,M,0.8,F*2B
$GNGLL,3651.97332,S,17443.43866,E,034324.00,A,A*6F
$GNZDA,034324.00,26,01,2018,00,00*74
$AAMTW,25.8,C*1C
$GNRMC,034325.00,A,3651.97325,S,17443.43897,E,1.262,2.17,260118,,,A*6E
$GNVTG,2.17,T,,M,1.262,N,2.337,K,A*25
$AAXDR,C,25.8,C,ENV_SEA_T*01
$GNGGA,034325.00,3651.97325,S,17443.43897,E,1,05,2.04,32.7,M,28.1,M,,*6D
$GNGSA,A,3,02,13,05,12,,,,,,,,,3.50,2.04,2.84*14
$AAMDA,,I,,B,,C,25.8,C,,,,C,,T,,M,,N,,M*0B
$GNGSA,A,3,70,,,,,,,,,,,,3.50,2.04,2.84*15
$GPGSV,2,1,08,02,43,117,32,05,78,111,31,06,,,27,12,34,334,32*4A
$AADPT,1.54,0.00*40
$GPGSV,2,2,08,13,17,036,40,20,,,20,25,,,33,29,,,37*4C
$GLGSV,2,1,06,70,69,048,37,71,26,352,34,,,,26,,,,32*64
$AADPT,1.54,0.00*40
$GLGSV,2,2,06,,,,26,,,,32*66
$AADBT,5.0,f,1.54,M,0.8,F*2C
$AADBS,5.0,f,1.54,M,0.8,F*2B
$AAMTW,25.8,C*1C
$AAXDR,C,25.8,C,ENV_SEA_T*01
$AAMDA,,I,,B,,C,25.8,C,,,,C,,T,,M,,N,,M*0B
$AADPT,1.54,0.00*40
$AADPT,1.54,0.00*40
$AADBT,5.0,f,1.54,M,0.8,F*2C
$AADBS,5.0,f,1.54,M,0.8,F*2B
$AAMTW,25.8,C*1C
$AAXDR,C,25.8,C,ENV_SEA_T*01
$AAMDA,,I,,B,,C,25.8,C,,,,C,,T,,M,,N,,M*0B
$AADPT,1.54,0.00*40
$GNGLL,3651.97325,S,17443.43897,E,034325.00,A,A*66
$GNZDA,034325.00,26,01,2018,00,00*75
$GNRMC,034326.00,A,3651.97336,S,17443.43902,E,1.305,37.92,260118,,,A*59
$AADPT,1.51,0.00*45
$AADBT,4.9,f,1.51,M,0.8,F*21
$AADBS,4.9,f,1.51,M,0.8,F*26
$AAMTW,25.8,C*1C
$AAXDR,C,25.8,C,ENV_SEA_T*01
$AAMDA,,I,,B,,C,25.8,C,,,,C,,T,,M,,N,,M*0B
$AADPT,1.51,0.00*45
$GNVTG,37.92,T,,M,1.305,N,2.416,K,A*1A
$GNGGA,034326.00,3651.97336,S,17443.43902,E,1,05,2.04,31.4,M,28.1,M,,*61
$GNGSA,A,3,02,13,05,12,,,,,,,,,3.50,2.04,2.84*14
$GNGSA,A,3,70,,,,,,,,,,,,3.50,2.04,2.84*15
$GPGSV,2,1,08,02,43,117,33,05,78,111,31,06,,,29,12,34,334,35*42
$GPGSV,2,2,08,13,17,036,40,20,,,25,25,,,32,29,,,36*49
$GLGSV,2,1,06,70,69,048,37,71,26,352,38,,,,36,,,,32*69
$GLGSV,2,2,06,,,,36,,,,32*67
$AADPT,1.51,0.00*45
$AADBT,4.9,f,1.51,M,0.8,F*21
$AADBS,4.9,f,1.51,M,0.8,F*26
$AAMTW,25.8,C*1C
$AAXDR,C,25.8,C,ENV_SEA_T*01
$AAMDA,,I,,B,,C,25.8,C,,,,C,,T,,M,,N,,M*0B
$AADPT,1.51,0.00*45
$GNGLL,3651.97336,S,17443.43902,E,034326.00,A,A*6A
$GNZDA,034326.00,26,01,2018,00,00*76
$GNRMC,034327.00,A,3651.97338,S,17443.43915,E,1.010,45.74,260118,,,A*5A
$AADPT,1.57,0.00*43
$AADBT,5.1,f,1.57,M,0.8,F*2E
$AADBS,5.1,f,1.57,M,0.8,F*29
$AAMTW,25.8,C*1C
$AAXDR,C,25.8,C,ENV_SEA_T*01
$AAMDA,,I,,B,,C,25.8,C,,,,C,,T,,M,,N,,M*0B
$AADPT,1.57,0.00*43
$GNVTG,45.74,T,,M,1.010,N,1.871,K,A*1E
$GNGGA,034327.00,3651.97338,S,17443.43915,E,1,05,2.04,30.6,M,28.1,M,,*6B
$GNGSA,A,3,02,13,05,12,,,,,,,,,3.50,2.04,2.84*14
$GNGSA,A,3,70,,,,,,,,,,,,3.50,2.04,2.84*15
$GPGSV,2,1,08,02,43,117,33,05,78,111,30,06,,,29,12,34,334,34*42
$GPGSV,2,2,08,13,17,036,40,20,,,25,25,,,34,29,,,38*41
$GLGSV,2,1,06,70,69,049,36,71,26,352,32,,,,28,,,,32*6C
$GLGSV,2,2,06,,,,28,,,,32*68
$AADPT,1.57,0.00*43
$AADBT,5.1,f,1.57,M,0.8,F*2E
$AADBS,5.1,f,1.57,M,0.8,F*29
$AAMTW,25.8,C*1C
$AAXDR,C,25.8,C,ENV_SEA_T*01
$AAMDA,,I,,B,,C,25.8,C,,,,C,,T,,M,,N,,M*0B
$AADPT,1.57,0.00*43
$GNGLL,3651.97338,S,17443.43915,E,034327.00,A,A*63
$GNZDA,034327.00,26,01,2018,00,00*77
$GNRMC,034328.00,A,3651.97335,S,17443.43922,E,0.961,43.57,260118,,,A*55
$AADPT,1.54,0.00*40
$AADBT,5.0,f,1.54,M,0.8,F*2C
$AADBS,5.0,f,1.54,M,0.8,F*2B
$AAMTW,25.8,C*1C
$AAXDR,C,25.8,C,ENV_SEA_T*01
$AAMDA,,I,,B,,C,25.8,C,,,,C,,T,,M,,N,,M*0B
$AADPT,1.54,0.00*40
$GNVTG,43.57,T,,M,0.961,N,1.779,K,A*10
$GNGGA,034328.00,3651.97335,S,17443.43922,E,1,05,2.04,29.8,M,28.1,M,,*6B
$GNGSA,A,3,02,13,05,12,,,,,,,,,3.50,2.04,2.84*14
$GNGSA,A,3,70,,,,,,,,,,,,3.50,2.04,2.84*15
$GPGSV,2,1,08,02,43,117,32,05,78,111,34,06,,,33,12,34,334,34*4C
$GPGSV,2,2,08,13,17,036,38,20,,,24,25,,,20,29,,,40*45
$GLGSV,2,1,07,70,69,049,35,71,26,352,36,,,,27,,,,27*61
$GLGSV,2,2,07,,,,27,,,,27,,,,27*67
$AADPT,1.54,0.00*40
$AADBT,5.0,f,1.54,M,0.8,F*2C
$AADBS,5.0,f,1.54,M,0.8,F*2B
$AAMTW,25.8,C*1C
$AAXDR,C,25.8,C,ENV_SEA_T*01
$AAMDA,,I,,B,,C,25.8,C,,,,C,,T,,M,,N,,M*0B
$AADPT,1.54,0.00*40
$GNGLL,3651.97335,S,17443.43922,E,034328.00,A,A*65
$GNZDA,034328.00,26,01,2018,00,00*78
$GNRMC,034329.00,A,3651.97314,S,17443.43925,E,1.192,24.85,260118,,,A*5B
$AADPT,1.81,0.00*48
$AADBT,5.9,f,1.81,M,0.9,F*2C
$AADBS,5.9,f,1.81,M,0.9,F*2B
$AAMTW,25.8,C*1C
$AAXDR,C,25.8,C,ENV_SEA_T*01
$AAMDA,,I,,B,,C,25.8,C,,,,C,,T,,M,,N,,M*0B
$AADPT,1.81,0.00*48
$GNVTG,24.85,T,,M,1.192,N,2.207,K,A*14
$GNGGA,034329.00,3651.97314,S,17443.43925,E,1,05,2.04,29.5,M,28.1,M,,*63
$GNGSA,A,3,02,13,05,12,,,,,,,,,3.50,2.04,2.84*14
$GNGSA,A,3,70,,,,,,,,,,,,3.50,2.04,2.84*15
$GPGSV,2,1,08,02,43,117,32,05,78,111,33,06,,,28,12,34,334,33*46
$GPGSV,2,2,08,13,17,036,36,20,,,22,25,,,22,29,,,40*4F
$GLGSV,2,1,07,70,69,049,34,71,26,352,38,,,,38,,,,25*62
$GLGSV,2,2,07,,,,38,,,,25,,,,32*6F
$AADPT,1.81,0.00*48
$AADBT,5.9,f,1.81,M,0.9,F*2C
$AADBS,5.9,f,1.81,M,0.9,F*2B
$AAMTW,25.8,C*1C
$AAXDR,C,25.8,C,ENV_SEA_T*01
$AAMDA,,I,,B,,C,25.8,C,,,,C,,T,,M,,N,,M*0B
$GNGLL,3651.97314,S,17443.43925,E,034329.00,A,A*60
$GNZDA,034329.00,26,01,2018,00,00*79
$AADPT,1.81,0.00*48
$GNRMC,034330.00,A,3651.97320,S,17443.43872,E,1.346,7.96,260118,,,A*6F
$AADPT,1.66,0.00*41
$AADBT,5.4,f,1.66,M,0.9,F*28
$AADBS,5.4,f,1.66,M,0.9,F*2F
$AAMTW,25.8,C*1C
$AAXDR,C,25.8,C,ENV_SEA_T*01
$AAMDA,,I,,B,,C,25.8,C,,,,C,,T,,M,,N,,M*0B
$AADPT,1.66,0.00*41
$GNVTG,7.96,T,,M,1.346,N,2.493,K,A*27
$GNGGA,034330.00,3651.97320,S,17443.43872,E,1,05,2.04,27.4,M,28.1,M,,*60
$GNGSA,A,3,02,13,05,12,,,,,,,,,3.50,2.04,2.84*14
$GNGSA,A,3,70,,,,,,,,,,,,3.50,2.04,2.84*15
$GPGSV,2,1,08,02,43,117,32,05,78,111,33,06,,,29,12,34,334,38*4C
$GPGSV,2,2,08,13,17,036,35,20,,,25,25,,,22,29,,,39*45
$GLGSV,2,1,07,70,69,049,35,71,26,352,38,,,,40,,,,28*61
$GLGSV,2,2,07,,,,40,,,,28,,,,28*66
$AADPT,1.66,0.00*41
$AADBT,5.4,f,1.66,M,0.9,F*28
$AADBS,5.4,f,1.66,M,0.9,F*2F
$AAMTW,25.8,C*1C
$AAXDR,C,25.8,C,ENV_SEA_T*01
$AAMDA,,I,,B,,C,25.8,C,,,,C,,T,,M,,N,,M*0B
$AADPT,1.66,0.00*41
$GNGLL,3651.97320,S,17443.43872,E,034330.00,A,A*6C
$GNZDA,034330.00,26,01,2018,00,00*71
$GNRMC,034331.00,A,3651.97342,S,17443.43809,E,1.220,355.72,260118,,,A*69
$AADPT,1.60,0.00*47
$AADBT,5.2,f,1.60,M,0.8,F*29
$AADBS,5.2,f,1.60,M,0.8,F*2E
$AAMTW,25.8,C*1C
$AAXDR,C,25.8,C,ENV_SEA_T*01
$AAMDA,,I,,B,,C,25.8,C,,,,C,,T,,M,,N,,M*0B
$AADPT,1.60,0.00*47
$GNVTG,355.72,T,,M,1.220,N,2.260,K,A*22
$GNGGA,034331.00,3651.97342,S,17443.43809,E,1,07,1.20,25.5,M,28.1,M,,*6D
$GNGSA,A,3,02,13,05,12,29,06,,,,,,,2.02,1.20,1.63*10
$GNGSA,A,3,70,,,,,,,,,,,,2.02,1.20,1.63*1C
$GPGSV,2,1,08,02,43,117,32,05,78,111,33,06,11,104,29,12,34,334,36*77
$GPGSV,2,2,08,13,17,036,31,20,,,32,25,,,20,29,47,222,34*79
$GLGSV,2,1,07,70,69,049,35,71,26,352,40,76,,,40,,,,37*61
$AADPT,1.60,0.00*47
$GLGSV,2,2,07,,,,37,,,,28,,,,34*6B
$GNGLL,3651.97342,S,17443.43809,E,034331.00,A,A*65
$AADBT,5.2,f,1.60,M,0.8,F*29
$AADBS,5.2,f,1.60,M,0.8,F*2E
$AAMTW,25.8,C*1C
$AAXDR,C,25.8,C,ENV_SEA_T*01
$AAMDA,,I,,B,,C,25.8,C,,,,C,,T,,M,,N,,M*0B
$AADPT,1.60,0.00*47
$GNZDA,034331.00,26,01,2018,00,00*70
$AADPT,1.63,0.00*44
$AADBT,5.3,f,1.63,M,0.8,F*2B
$GNRMC,034332.00,A,3651.97394,S,17443.43728,E,1.134,348.74,260118,,,A*61
$AADBS,5.3,f,1.63,M,0.8,F*2C
$AAMTW,25.8,C*1C
$AAXDR,C,25.8,C,ENV_SEA_T*01
$AAMDA,,I,,B,,C,25.8,C,,,,C,,T,,M,,N,,M*0B
$AADPT,1.63,0.00*44
$GNVTG,348.74,T,,M,1.134,N,2.099,K,A*2A
$GNGGA,034332.00,3651.97394,S,17443.43728,E,1,07,1.20,22.5,M,28.1,M,,*6E
$GNGSA,A,3,02,13,05,12,29,06,,,,,,,2.02,1.20,1.63*10
$GNGSA,A,3,70,,,,,,,,,,,,2.02,1.20,1.63*1C
$GPGSV,2,1,08,02,43,117,33,05,78,111,33,06,11,104,29,12,34,334,36*76
$GPGSV,2,2,08,13,17,036,31,20,,,30,25,,,17,29,47,222,37*7C
$GLGSV,2,1,07,70,69,049,35,71,26,352,40,76,,,40,,,,34*62
$AADPT,1.63,0.00*44
$AADBT,5.3,f,1.63,M,0.8,F*2B
$AADBS,5.3,f,1.63,M,0.8,F*2C
$AAMTW,25.8,C*1C
$GLGSV,2,2,07,,,,34,,,,29,,,,34*69
$AAXDR,C,25.8,C,ENV_SEA_T*01
$GNGLL,3651.97394,S,17443.43728,E,034332.00,A,A*61
$AAMDA,,I,,B,,C,25.8,C,,,,C,,T,,M,,N,,M*0B
$AADPT,1.63,0.00*44
$GNZDA,034332.00,26,01,2018,00,00*73
$GNRMC,034333.00,A,3651.97427,S,17443.43664,E,1.192,350.08,260118,,,A*68
$AADPT,1.54,0.00*40
$AADBT,5.0,f,1.54,M,0.8,F*2C
$AADBS,5.0,f,1.54,M,0.8,F*2B
$AAMTW,25.8,C*1C
$AAXDR,C,25.8,C,ENV_SEA_T*01
$AAMDA,,I,,B,,C,25.8,C,,,,C,,T,,M,,N,,M*0B
$AADPT,1.54,0.00*40
$GNVTG,350.08,T,,M,1.192,N,2.208,K,A*2E
$GNGGA,034333.00,3651.97427,S,17443.43664,E,1,07,1.20,20.1,M,28.1,M,,*6F
$GNGSA,A,3,02,13,05,12,29,06,,,,,,,2.02,1.20,1.63*10
$GNGSA,A,3,70,,,,,,,,,,,,2.02,1.20,1.63*1C
$GPGSV,2,1,08,02,43,117,33,05,78,111,32,06,11,104,29,12,34,334,34*75
$GPGSV,2,2,08,13,17,036,35,20,,,29,25,,,21,29,47,222,40*75
$GLGSV,2,1,07,70,69,049,34,71,26,352,38,76,,,39,,,,29*6E
$AADPT,1.54,0.00*40
$GLGSV,2,2,07,,,,29,,,,31,,,,34*6C
$AADBT,5.0,f,1.54,M,0.8,F*2C
$GNGLL,3651.97427,S,17443.43664,E,034333.00,A,A*66
$AADBS,5.0,f,1.54,M,0.8,F*2B
$AAMTW,25.8,C*1C
$AAXDR,C,25.8,C,ENV_SEA_T*01
$AAMDA,,I,,B,,C,25.8,C,,,,C,,T,,M,,N,,M*0B
$AADPT,1.54,0.00*40
$GNZDA,034333.00,26,01,2018,00,00*72
$AADPT,1.81,0.00*48
$AADBT,5.9,f,1.81,M,0.9,F*2C
$GNRMC,034334.00,A,3651.97404,S,17443.43653,E,1.314,359.02,260118,,,A*65
$AADBS,5.9,f,1.81,M,0.9,F*2B
$AAMTW,25.8,C*1C
$AAXDR,C,25.8,C,ENV_SEA_T*01
$AAMDA,,I,,B,,C,25.8,C,,,,C,,T,,M,,N,,M*0B
$AADPT,1.81,0.00*48
$GNVTG,359.02,T,,M,1.314,N,2.434,K,A*28
$GNGGA,034334.00,3651.97404,S,17443.43653,E,1,07,1.20,19.6,M,28.1,M,,*60
$GNGSA,A,3,02,13,05,12,29,06,,,,,,,2.02,1.20,1.63*10
$GNGSA,A,3,70,,,,,,,,,,,,2.02,1.20,1.63*1C
$GPGSV,2,1,08,02,43,117,32,05,78,111,33,06,11,104,34,12,34,334,33*7E
$GPGSV,2,2,08,13,17,036,36,20,,,25,25,,,22,29,47,222,40*79
$GLGSV,2,1,07,70,69,049,34,71,26,352,37,76,,,34,,,,18*6E
$AADPT,1.81,0.00*48
$AADBT,5.9,f,1.81,M,0.9,F*2C
$AADBS,5.9,f,1.81,M,0.9,F*2B
$AAMTW,25.8,C*1C
$GLGSV,2,2,07,,,,18,,,,30,,,,38*63
$AAXDR,C,25.8,C,ENV_SEA_T*01
$GNGLL,3651.97404,S,17443.43653,E,034334.00,A,A*64
$AAMDA,,I,,B,,C,25.8,C,,,,C,,T,,M,,N,,M*0B
$AADPT,1.81,0.00*48
$GNZDA,034334.00,26,01,2018,00,00*75
$GNRMC,034335.00,A,3651.97379,S,17443.43675,E,1.283,12.03,260118,,,A*5F
$AADPT,1.78,0.00*4E
$AADBT,5.8,f,1.78,M,0.9,F*2B
$AADBS,5.8,f,1.78,M,0.9,F*2C
$AAMTW,25.8,C*1C
$AAXDR,C,25.8,C,ENV_SEA_T*01
$AAMDA,,I,,B,,C,25.8,C,,,,C,,T,,M,,N,,M*0B
$AADPT,1.78,0.00*4E
$GNVTG,12.03,T,,M,1.283,N,2.376,K,A*1B
$GNGGA,034335.00,3651.97379,S,17443.43675,E,1,07,1.20,19.3,M,28.1,M,,*6D
$GNGSA,A,3,02,13,05,12,29,06,,,,,,,2.02,1.20,1.63*10
$GNGSA,A,3,70,,,,,,,,,,,,2.02,1.20,1.63*1C
$GPGSV,2,1,08,02,43,117,32,05,78,111,33,06,11,104,32,12,34,334,34*7F
$GPGSV,2,2,08,13,17,036,37,20,,,23,25,,,21,29,47,222,40*7D
$GLGSV,2,1,07,70,69,049,36,71,26,352,33,76,,,29,,,,30*6E
$AADPT,1.78,0.00*4E
$AADBT,5.8,f,1.78,M,0.9,F*2B
$AADBS,5.8,f,1.78,M,0.9,F*2C
$AAMTW,25.8,C*1C
$AAXDR,C,25.8,C,ENV_SEA_T*01
$AAMDA,,I,,B,,C,25.8,C,,,,C,,T,,M,,N,,M*0B
$AADPT,1.78,0.00*4E
$GLGSV,2,2,07,,,,30,,,,31,,,,38*68
$GNGLL,3651.97379,S,17443.43675,E,034335.00,A,A*6C
$GNZDA,034335.00,26,01,2018,00,00*74
$AADPT,1.81,0.00*48
$AADBT,5.9,f,1.81,M,0.9,F*2C
$AADBS,5.9,f,1.81,M,0.9,F*2B
$AAMTW,25.8,C*1C
$GNRMC,034336.00,A,3651.97351,S,17443.43711,E,1.266,29.67,260118,,,A*54
$AAXDR,C,25.8,C,ENV_SEA_T*01
$AAMDA,,I,,B,,C,25.8,C,,,,C,,T,,M,,N,,M*0B
$AADPT,1.81,0.00*48
$GNVTG,29.67,T,,M,1.266,N,2.345,K,A*1A
$GNGGA,034336.00,3651.97351,S,17443.43711,E,1,07,1.20,19.5,M,28.1,M,,*61
$GNGSA,A,3,02,13,05,12,29,06,,,,,,,2.02,1.20,1.63*10
$GNGSA,A,3,70,,,,,,,,,,,,2.02,1.20,1.63*1C
$GPGSV,2,1,08,02,43,117,32,05,78,111,32,06,11,104,32,12,34,334,35*7F
$GPGSV,2,2,08,13,17,036,39,20,,,20,25,,,31,29,47,222,40*71
$GLGSV,2,1,07,70,69,049,36,71,26,352,32,76,,,21,,,,30*67
$AADPT,1.81,0.00*48
$AADBT,5.9,f,1.81,M,0.9,F*2C
$AADBS,5.9,f,1.81,M,0.9,F*2B
$AAMTW,25.8,C*1C
$AAXDR,C,25.8,C,ENV_SEA_T*01
$AAMDA,,I,,B,,C,25.8,C,,,,C,,T,,M,,N,,M*0B
$AADPT,1.81,0.00*48
$GLGSV,2,2,07,,,,30,,,,35,,,,28*6D
$GNGLL,3651.97351,S,17443.43711,E,034336.00,A,A*66
$GNZDA,034336.00,26,01,2018,00,00*77
$GNRMC,034337.00,A,3651.97328,S,17443.43743,E,1.041,37.01,260118,,,A*54
$AADPT,1.81,0.00*48
$AADBT,5.9,f,1.81,M,0.9,F*2C
$AADBS,5.9,f,1.81,M,0.9,F*2B
$AAMTW,25.8,C*1C
$AAXDR,C,25.8,C,ENV_SEA_T*01
$AAMDA,,I,,B,,C,25.8,C,,,,C,,T,,M,,N,,M*0B
$AADPT,1.81,0.00*48
$GNVTG,37.01,T,,M,1.041,N,1.928,K,A*10
$GNGGA,034337.00,3651.97328,S,17443.43743,E,1,07,1.20,19.5,M,28.1,M,,*69
$GNGSA,A,3,02,13,05,12,29,06,,,,,,,2.02,1.20,1.63*10
$GNGSA,A,3,70,,,,,,,,,,,,2.02,1.20,1.63*1C
$GPGSV,2,1,08,02,43,117,32,05,78,111,28,06,11,104,28,12,34,334,30*7A
$GPGSV,2,2,08,13,17,036,40,20,,,23,25,,,32,29,47,222,37*7F
$GLGSV,2,1,07,70,69,049,36,71,26,352,37,76,,,30,,,,32*60
$AADPT,1.81,0.00*48
$AADBT,5.9,f,1.81,M,0.9,F*2C
$AADBS,5.9,f,1.81,M,0.9,F*2B
$AAMTW,25.8,C*1C
$AAXDR,C,25.8,C,ENV_SEA_T*01
$AAMDA,,I,,B,,C,25.8,C,,,,C,,T,,M,,N,,M*0B
$AADPT,1.81,0.00*48
$GLGSV,2,2,07,,,,32,,,,37,,,,36*62
$GNGLL,3651.97328,S,17443.43743,E,034337.00,A,A*6E
$GNZDA,034337.00,26,01,2018,00,00*76
$AADPT,1.81,0.00*48
$AADBT,5.9,f,1.81,M,0.9,F*2C
$GNRMC,034338.00,A,3651.97307,S,17443.43781,E,1.005,42.79,260118,,,A*55
$AADBS,5.9,f,1.81,M,0.9,F*2B
$AAMTW,25.8,C*1C
$AAXDR,C,25.8,C,ENV_SEA_T*01
$AAMDA,,I,,B,,C,25.8,C,,,,C,,T,,M,,N,,M*0B
$AADPT,1.81,0.00*48
$GNVTG,42.79,T,,M,1.005,N,1.862,K,A*12
$GNGGA,034338.00,3651.97307,S,17443.43781,E,1,07,1.20,19.7,M,28.1,M,,*67
$GNGSA,A,3,02,13,05,12,29,06,,,,,,,2.02,1.20,1.63*10
$GNGSA,A,3,70,,,,,,,,,,,,2.02,1.20,1.63*1C
$GPGSV,2,1,08,02,43,117,32,05,78,111,30,06,11,104,32,12,34,334,37*7F
$GPGSV,2,2,08,13,17,036,40,20,,,22,25,,,31,29,47,222,41*7C
$GLGSV,2,1,07,70,69,049,36,71,26,352,29,76,,,23,,,,31*6E
$AADPT,1.81,0.00*48
$AADBT,5.9,f,1.81,M,0.9,F*2C
$AADBS,5.9,f,1.81,M,0.9,F*2B
$AAMTW,25.8,C*1C
$AAXDR,C,25.8,C,ENV_SEA_T*01
$AAMDA,,I,,B,,C,25.8,C,,,,C,,T,,M,,N,,M*0B
$AADPT,1.81,0.00*48
$GLGSV,2,2,07,,,,31,,,,34,,,,26*63
$GNGLL,3651.97307,S,17443.43781,E,034338.00,A,A*62
$GNZDA,034338.00,26,01,2018,00,00*79
$AADPT,1.83,0.00*4A
$AADBT,6.0,f,1.83,M,1.0,F*2C
$AADBS,6.0,f,1.83,M,1.0,F*2B
$AAMTW,25.8,C*1C
$GNRMC,034339.00,A,3651.97280,S,17443.43811,E,1.174,39.49,260118,,,A*54
$AAXDR,C,25.8,C,ENV_SEA_T*01
$AAMDA,,I,,B,,C,25.8,C,,,,C,,T,,M,,N,,M*0B
$AADPT,1.83,0.00*4A
$GNVTG,39.49,T,,M,1.174,N,2.174,K,A*17
$GNGGA,034339.00,3651.97280,S,17443.43811,E,1,09,1.09,19.9,M,28.1,M,,*65
$GNGSA,A,3,02,13,05,12,29,06,,,,,,,1.92,1.09,1.59*18
$GNGSA,A,3,70,71,84,,,,,,,,,,1.92,1.09,1.59*1E
$GPGSV,2,1,08,02,43,117,32,05,78,111,32,06,11,104,32,12,34,334,34*7E
$GPGSV,2,2,08,13,17,036,38,20,,,22,25,,,23,29,47,222,40*71
$GLGSV,2,1,07,69,,,30,70,69,049,34,71,26,352,33,75,,,39*61
$AADPT,1.83,0.00*4A
$AADBT,6.0,f,1.83,M,1.0,F*2C
$AADBS,6.0,f,1.83,M,1.0,F*2B
$AAMTW,25.8,C*1C
$AAXDR,C,25.8,C,ENV_SEA_T*01
$AAMDA,,I,,B,,C,25.8,C,,,,C,,T,,M,,N,,M*0B
$GLGSV,2,2,07,76,,,26,84,34,089,29,,,,37*52
$GNGLL,3651.97280,S,17443.43811,E,034339.00,A,A*6B
$AADPT,1.83,0.00*4A
$GNZDA,034339.00,26,01,2018,00,00*78
$AADPT,1.83,0.00*4A
$AADBT,6.0,f,1.83,M,1.0,F*2C
$AADBS,6.0,f,1.83,M,1.0,F*2B
$AAMTW,25.8,C*1C
$AAXDR,C,25.8,C,ENV_SEA_T*01
$AAMDA,,I,,B,,C,25.8,C,,,,C,,T,,M,,N,,M*0B
$GNRMC,034340.00,A,3651.97242,S,17443.43833,E,1.302,30.67,260118,,,A*52
$AADPT,1.83,0.00*4A
$GNVTG,30.67,T,,M,1.302,N,2.411,K,A*17
$GNGGA,034340.00,3651.97242,S,17443.43833,E,1,09,1.09,20.2,M,28.1,M,,*64
$GNGSA,A,3,02,13,05,12,29,06,,,,,,,1.92,1.09,1.59*18
$GNGSA,A,3,70,71,84,,,,,,,,,,1.92,1.09,1.59*1E
$GPGSV,2,1,08,02,43,117,32,05,78,111,32,06,11,104,32,12,34,334,34*7E
$GPGSV,2,2,08,13,17,036,37,20,,,20,25,,,21,29,47,222,40*7E
$GLGSV,2,1,07,69,,,29,70,69,049,34,71,26,352,39,75,,,39*63
$AADPT,1.83,0.00*4A
$AADBT,6.0,f,1.83,M,1.0,F*2C
$AADBS,6.0,f,1.83,M,1.0,F*2B
$AAMTW,25.8,C*1C
$AAXDR,C,25.8,C,ENV_SEA_T*01
$AAMDA,,I,,B,,C,25.8,C,,,,C,,T,,M,,N,,M*0B
$AADPT,1.83,0.00*4A
$GLGSV,2,2,07,76,,,32,84,34,089,27,,,,39*57
$GNGLL,3651.97242,S,17443.43833,E,034340.00,A,A*6B
$GNZDA,034340.00,26,01,2018,00,00*76
$AADPT,1.81,0.00*48
$AADBT,5.9,f,1.81,M,0.9,F*2C
$AADBS,5.9,f,1.81,M,0.9,F*2B
$GNRMC,034341.00,A,3651.97210,S,17443.43857,E,1.335,26.21,260118,,,A*57
$AAMTW,25.8,C*1C
$AAXDR,C,25.8,C,ENV_SEA_T*01
$AAMDA,,I,,B,,C,25.8,C,,,,C,,T,,M,,N,,M*0B
$AADPT,1.81,0.00*48
$GNVTG,26.21,T,,M,1.335,N,2.473,K,A*12
$GNGGA,034341.00,3651.97210,S,17443.43857,E,1,09,1.09,20.2,M,28.1,M,,*60
$GNGSA,A,3,02,13,05,12,29,06,,,,,,,1.92,1.09,1.59*18
$GNGSA,A,3,70,71,84,,,,,,,,,,1.92,1.09,1.59*1E
$GPGSV,2,1,08,02,43,117,31,05,78,111,34,06,11,104,33,12,34,334,34*7A
$GPGSV,2,2,08,13,17,036,36,20,,,20,25,,,19,29,47,222,40*74
$GLGSV,2,1,07,69,,,17,70,69,049,34,71,26,352,37,75,,,38*61
$AADPT,1.81,0.00*48
$AADBT,5.9,f,1.81,M,0.9,F*2C
$AADBS,5.9,f,1.81,M,0.9,F*2B
$AAMTW,25.8,C*1C
$AAXDR,C,25.8,C,ENV_SEA_T*01
$GLGSV,2,2,07,76,,,32,84,34,089,28,,,,39*58
$AAMDA,,I,,B,,C,25.8,C,,,,C,,T,,M,,N,,M*0B
$GNGLL,3651.97210,S,17443.43857,E,034341.00,A,A*6F
$AADPT,1.81,0.00*48
$GNZDA,034341.00,26,01,2018,00,00*77
$AADPT,1.87,0.00*4E
$AADBT,6.1,f,1.87,M,1.0,F*29
$AADBS,6.1,f,1.87,M,1.0,F*2E
$AAMTW,25.8,C*1C
$AAXDR,C,25.8,C,ENV_SEA_T*01
$AAMDA,,I,,B,,C,25.8,C,,,,C,,T,,M,,N,,M*0B
$AADPT,1.87,0.00*4E
$GNRMC,034342.00,A,3651.97181,S,17443.43884,E,1.279,27.85,260118,,,A*57
$GNVTG,27.85,T,,M,1.279,N,2.369,K,A*18
$GNGGA,034342.00,3651.97181,S,17443.43884,E,1,09,1.09,20.2,M,28.1,M,,*66
$GNGSA,A,3,02,13,05,12,29,06,,,,,,,1.92,1.09,1.59*18
$GNGSA,A,3,70,71,84,,,,,,,,,,1.92,1.09,1.59*1E
$GPGSV,2,1,08,02,43,117,32,05,78,111,33,06,11,104,32,12,34,334,34*7F
$GPGSV,2,2,08,13,17,036,39,20,,,20,25,,,20,29,47,222,41*70
$GLGSV,2,1,07,69,,,29,70,69,049,34,71,26,352,33,75,,,40*67
$AADPT,1.87,0.00*4E
$AADBT,6.1,f,1.87,M,1.0,F*29
$AADBS,6.1,f,1.87,M,1.0,F*2E
$AAMTW,25.8,C*1C
$AAXDR,C,25.8,C,ENV_SEA_T*01
$AAMDA,,I,,B,,C,25.8,C,,,,C,,T,,M,,N,,M*0B
$AADPT,1.87,0.00*4E
$GLGSV,2,2,07,76,,,31,84,34,089,29,,,,37*54
$GNGLL,3651.97181,S,17443.43884,E,034342.00,A,A*69
$GNZDA,034342.00,26,01,2018,00,00*74
$AADPT,1.78,0.00*4E
$AADBT,5.8,f,1.78,M,0.9,F*2B
$AADBS,5.8,f,1.78,M,0.9,F*2C
$AAMTW,25.8,C*1C
$GNRMC,034343.00,A,3651.97160,S,17443.43915,E,1.157,31.53,260118,,,A*53
$AAXDR,C,25.8,C,ENV_SEA_T*01
$AAMDA,,I,,B,,C,25.8,C,,,,C,,T,,M,,N,,M*0B
$AADPT,1.78,0.00*4E
$GNVTG,31.53,T,,M,1.157,N,2.143,K,A*11
$GNGGA,034343.00,3651.97160,S,17443.43915,E,1,09,1.09,20.3,M,28.1,M,,*60
$GNGSA,A,3,02,13,05,12,29,06,,,,,,,1.92,1.09,1.59*18
$GNGSA,A,3,70,71,84,,,,,,,,,,1.92,1.09,1.59*1E
$GPGSV,2,1,08,02,43,117,32,05,78,111,32,06,11,104,33,12,34,334,37*7C
$GPGSV,2,2,08,13,17,036,39,20,,,19,25,,,29,29,47,222,40*72
$GLGSV,2,1,07,69,,,29,70,69,049,35,71,26,352,30,75,,,38*6A
$AADPT,1.78,0.00*4E
$AADBT,5.8,f,1.78,M,0.9,F*2B
$AADBS,5.8,f,1.78,M,0.9,F*2C
$AAMTW,25.8,C*1C
$AAXDR,C,25.8,C,ENV_SEA_T*01
$AAMDA,,I,,B,,C,25.8,C,,,,C,,T,,M,,N,,M*0B
$GLGSV,2,2,07,76,,,29,84,34,089,34,,,,33*55
$GNGLL,3651.97160,S,17443.43915,E,034343.00,A,A*6E
$AADPT,1.78,0.00*4E
$GNZDA,034343.00,26,01,2018,00,00*75
$AADPT,1.69,0.00*4E
$AADBT,5.5,f,1.69,M,0.9,F*26
$AADBS,5.5,f,1.69,M,0.9,F*21
$AAMTW,25.8,C*1C
$AAXDR,C,25.8,C,ENV_SEA_T*01
$AAMDA,,I,,B,,C,25.8,C,,,,C,,T,,M,,N,,M*0B
$AADPT,1.69,0.00*4E
$GNRMC,034344.00,A,3651.97131,S,17443.43943,E,1.352,32.33,260118,,,A*51
$GNVTG,32.33,T,,M,1.352,N,2.503,K,A*13
$GNGGA,034344.00,3651.97131,S,17443.43943,E,1,09,1.09,20.3,M,28.1,M,,*60
$GNGSA,A,3,02,13,05,12,29,06,,,,,,,1.92,1.09,1.59*18
$GNGSA,A,3,70,71,84,,,,,,,,,,1.92,1.09,1.59*1E
$GPGSV,2,1,08,02,43,117,32,05,78,111,32,06,11,104,32,12,34,334,35*7F
$GPGSV,2,2,08,13,17,036,38,20,,,21,25,,,27,29,47,222,41*77
$GLGSV,2,1,07,69,,,29,70,69,049,35,71,26,352,34,75,,,38*6E
$AADPT,1.69,0.00*4E
$AADBT,5.5,f,1.69,M,0.9,F*26
$AADBS,5.5,f,1.69,M,0.9,F*21
$AAMTW,25.8,C*1C
$AAXDR,C,25.8,C,ENV_SEA_T*01
$AAMDA,,I,,B,,C,25.8,C,,,,C,,T,,M,,N,,M*0B
$AADPT,1.69,0.00*4E
$GLGSV,2,2,07,76,,,28,84,34,089,31,,,,37*55
$GNGLL,3651.97131,S,17443.43943,E,034344.00,A,A*6E
$GNZDA,034344.00,26,01,2018,00,00*72
$AADPT,1.72,0.00*44
$AADBT,5.6,f,1.72,M,0.9,F*2F
$AADBS,5.6,f,1.72,M,0.9,F*28
$AAMTW,25.8,C*1C
$AAXDR,C,25.8,C,ENV_SEA_T*01
$GNRMC,034345.00,A,3651.97098,S,17443.43975,E,1.486,31.97,260118,,,A*54
$AAMDA,,I,,B,,C,25.8,C,,,,C,,T,,M,,N,,M*0B
$AADPT,1.72,0.00*44
$GNVTG,31.97,T,,M,1.486,N,2.752,K,A*16
$GNGGA,034345.00,3651.97098,S,17443.43975,E,1,09,1.09,20.3,M,28.1,M,,*66
$GNGSA,A,3,02,13,05,12,29,06,,,,,,,1.92,1.09,1.59*18
$GNGSA,A,3,70,71,84,,,,,,,,,,1.92,1.09,1.59*1E
$GPGSV,2,1,08,02,43,117,32,05,78,111,33,06,11,104,32,12,34,334,35*7E
$GPGSV,2,2,08,13,17,036,38,20,,,21,25,,,26,29,47,222,40*77
$GLGSV,2,1,07,69,,,30,70,69,049,34,71,26,352,34,75,10,290,38*5D
$AADPT,1.72,0.00*44
$AADBT,5.6,f,1.72,M,0.9,F*2F
$AADBS,5.6,f,1.72,M,0.9,F*28
$AAMTW,25.8,C*1C
$AAXDR,C,25.8,C,ENV_SEA_T*01
$AAMDA,,I,,B,,C,25.8,C,,,,C,,T,,M,,N,,M*0B
$AADPT,1.72,0.00*44
$GLGSV,2,2,07,76,,,28,84,34,089,29,,,,37*5C
$GNGLL,3651.97098,S,17443.43975,E,034345.00,A,A*68
$GNZDA,034345.00,26,01,2018,00,00*73
$AADPT,1.75,0.00*43
$AADBT,5.7,f,1.75,M,0.9,F*29
$AADBS,5.7,f,1.75,M,0.9,F*2E
$AAMTW,25.8,C*1C
$AAXDR,C,25.8,C,ENV_SEA_T*01
$AAMDA,,I,,B,,C,25.8,C,,,,C,,T,,M,,N,,M*0B
$AADPT,1.75,0.00*43
$GNRMC,034346.00,A,3651.97063,S,17443.44001,E,1.441,29.25,260118,,,A*55
$GNVTG,29.25,T,,M,1.441,N,2.668,K,A*15
$GNGGA,034346.00,3651.97063,S,17443.44001,E,1,09,1.09,20.3,M,28.1,M,,*6C
$GNGSA,A,3,02,13,05,12,29,06,,,,,,,1.92,1.09,1.59*18
$GNGSA,A,3,70,71,84,,,,,,,,,,1.92,1.09,1.59*1E
$GPGSV,2,1,08,02,43,117,31,05,78,111,33,06,11,104,32,12,34,334,34*7C
$GPGSV,2,2,08,13,17,036,37,20,,,21,25,,,24,29,47,222,40*7A
$AADPT,1.75,0.00*43
$GLGSV,2,1,07,69,,,29,70,69,049,34,71,26,352,35,75,10,290,38*54
$AADBT,5.7,f,1.75,M,0.9,F*29
$AADBS,5.7,f,1.75,M,0.9,F*2E
$AAMTW,25.8,C*1C
$AAXDR,C,25.8,C,ENV_SEA_T*01
$AAMDA,,I,,B,,C,25.8,C,,,,C,,T,,M,,N,,M*0B
$AADPT,1.75,0.00*43
$GLGSV,2,2,07,76,,,28,84,34,089,28,,,,37*5D
$GNGLL,3651.97063,S,17443.44001,E,034346.00,A,A*62
$GNZDA,034346.00,26,01,2018,00,00*70
$AADPT,1.72,0.00*44
$AADBT,5.6,f,1.72,M,0.9,F*2F
$AADBS,5.6,f,1.72,M,0.9,F*28
$AAMTW,25.8,C*1C
$AAXDR,C,25.8,C,ENV_SEA_T*01
$AAMDA,,I,,B,,C,25.8,C,,,,C,,T,,M,,N,,M*0B
$GNRMC,034347.00,A,3651.97025,S,17443.44022,E,1.490,25.96,260118,,,A*5F
$AADPT,1.72,0.00*44
$GNVTG,25.96,T,,M,1.490,N,2.760,K,A*14
$GNGGA,034347.00,3651.97025,S,17443.44022,E,1,09,1.09,20.2,M,28.1,M,,*6F
$GNGSA,A,3,02,13,05,12,29,06,,,,,,,1.92,1.09,1.59*18
$GNGSA,A,3,70,71,84,,,,,,,,,,1.92,1.09,1.59*1E
$GPGSV,2,1,08,02,43,117,31,05,78,111,33,06,11,104,32,12,34,334,32*7A
$GPGSV,2,2,08,13,17,036,37,20,,,21,25,,,21,29,47,222,40*7F
$GLGSV,2,1,07,69,,,29,70,69,049,34,71,26,352,35,75,10,290,39*55
$AADPT,1.72,0.00*44
$AADBT,5.6,f,1.72,M,0.9,F*2F
$AADBS,5.6,f,1.72,M,0.9,F*28
$AAMTW,25.8,C*1C
$AAXDR,C,25.8,C,ENV_SEA_T*01
$AAMDA,,I,,B,,C,25.8,C,,,,C,,T,,M,,N,,M*0B
$AADPT,1.72,0.00*44
$GLGSV,2,2,07,76,,,28,84,34,089,28,,,,38*52
$GNGLL,3651.97025,S,17443.44022,E,034347.00,A,A*60
$GNZDA,034347.00,26,01,2018,00,00*71
$AADPT,1.78,0.00*4E
$AADBT,5.8,f,1.78,M,0.9,F*2B
$AADBS,5.8,f,1.78,M,0.9,F*2C
$AAMTW,25.8,C*1C
$AAXDR,C,25.8,C,ENV_SEA_T*01
$AAMDA,,I,,B,,C,25.8,C,,,,C,,T,,M,,N,,M*0B
$AADPT,1.78,0.00*4E
$GNRMC,034348.00,A,3651.96988,S,17443.44051,E,1.481,28.81,260118,,,A*50
$GNVTG,28.81,T,,M,1.481,N,2.743,K,A*1E
$GNGGA,034348.00,3651.96988,S,17443.44051,E,1,09,1.09,20.2,M,28.1,M,,*6B
$GNGSA,A,3,02,13,05,12,29,06,,,,,,,1.92,1.09,1.59*18
$GNGSA,A,3,70,71,84,,,,,,,,,,1.92,1.09,1.59*1E
$GPGSV,2,1,08,02,43,117,31,05,78,111,33,06,11,104,32,12,34,334,36*7E
$AADPT,1.78,0.00*4E
$AADBT,5.8,f,1.78,M,0.9,F*2B
$AADBS,5.8,f,1.78,M,0.9,F*2C
$GPGSV,2,2,08,13,17,036,39,20,,,21,25,,,23,29,47,222,40*73
$GLGSV,2,1,07,69,,,29,70,69,049,34,71,26,352,31,75,10,290,39*51
$AAMTW,25.8,C*1C
$AAXDR,C,25.8,C,ENV_SEA_T*01
$AAMDA,,I,,B,,C,25.8,C,,,,C,,T,,M,,N,,M*0B
$AADPT,1.78,0.00*4E
$GLGSV,2,2,07,76,,,28,84,34,089,29,,,,35*5E
$GNGLL,3651.96988,S,17443.44051,E,034348.00,A,A*64
$GNZDA,034348.00,26,01,2018,00,00*7E
$AADPT,1.72,0.00*44
$AADBT,5.6,f,1.72,M,0.9,F*2F
$AADBS,5.6,f,1.72,M,0.9,F*28
$AAMTW,25.8,C*1C
$AAXDR,C,25.8,C,ENV_SEA_T*01
$AAMDA,,I,,B,,C,25.8,C,,,,C,,T,,M,,N,,M*0B
$AADPT,1.72,0.00*44
$GNRMC,034349.00,A,3651.96956,S,17443.44084,E,1.394,35.52,260118,,,A*5B
$GNVTG,35.52,T,,M,1.394,N,2.582,K,A*10
$GNGGA,034349.00,3651.96956,S,17443.44084,E,1,09,1.09,20.0,M,28.1,M,,*63
$GNGSA,A,3,02,13,05,12,29,06,,,,,,,1.92,1.09,1.59*18
$GNGSA,A,3,70,71,84,,,,,,,,,,1.92,1.09,1.59*1E
$GPGSV,2,1,08,02,43,117,31,05,78,111,32,06,11,104,32,12,34,334,36*7F
$GPGSV,2,2,08,13,17,036,40,20,,,19,25,,,32,29,47,222,40*76
$GLGSV,2,1,07,69,,,29,70,69,049,36,71,26,352,34,75,10,290,34*5B
$AADPT,1.72,0.00*44
$AADBT,5.6,f,1.72,M,0.9,F*2F
$AADBS,5.6,f,1.72,M,0.9,F*28
$AAMTW,25.8,C*1C
$AAXDR,C,25.8,C,ENV_SEA_T*01
$AAMDA,,I,,B,,C,25.8,C,,,,C,,T,,M,,N,,M*0B
$AADPT,1.72,0.00*44
$GLGSV,2,2,07,76,14,244,26,84,34,089,36,,,,30*6C
$GNGLL,3651.96956,S,17443.44084,E,034349.00,A,A*6E
$GNZDA,034349.00,26,01,2018,00,00*7F
$AADPT,1.81,0.00*48
$AADBT,5.9,f,1.81,M,0.9,F*2C
$AADBS,5.9,f,1.81,M,0.9,F*2B
$AAMTW,25.8,C*1C
$AAXDR,C,25.8,C,ENV_SEA_T*01
$AAMDA,,I,,B,,C,25.8,C,,,,C,,T,,M,,N,,M*0B
$AADPT,1.81,0.00*48
$GNRMC,034350.00,A,3651.96934,S,17443.44117,E,1.299,46.16,260118,,,A*54
$GNVTG,46.16,T,,M,1.299,N,2.406,K,A*15
$GNGGA,034350.00,3651.96934,S,17443.44117,E,1,09,1.09,19.6,M,28.1,M,,*68
$GNGSA,A,3,02,13,05,12,29,06,,,,,,,1.92,1.09,1.59*18
$GNGSA,A,3,70,71,84,,,,,,,,,,1.92,1.09,1.59*1E
$GPGSV,2,1,08,02,43,117,32,05,78,111,31,06,11,104,26,12,34,334,33*7F
$AADPT,1.81,0.00*48
$AADBT,5.9,f,1.81,M,0.9,F*2C
$AADBS,5.9,f,1.81,M,0.9,F*2B
$AAMTW,25.8,C*1C
$GPGSV,2,2,08,13,17,036,41,20,,,23,25,,,33,29,47,222,36*7E
$AAXDR,C,25.8,C,ENV_SEA_T*01
$GLGSV,2,1,07,69,,,34,70,69,049,37,71,26,352,36,75,10,290,21*50
$AAMDA,,I,,B,,C,25.8,C,,,,C,,T,,M,,N,,M*0B
$AADPT,1.81,0.00*48
$GLGSV,2,2,07,76,14,244,32,84,34,089,36,,,,37*6E
$GNGLL,3651.96934,S,17443.44117,E,034350.00,A,A*69
$GNZDA,034350.00,26,01,2018,00,00*77
$AADPT,1.81,0.00*48
$AADBT,5.9,f,1.81,M,0.9,F*2C
$AADBS,5.9,f,1.81,M,0.9,F*2B
$AAMTW,25.8,C*1C
$AAXDR,C,25.8,C,ENV_SEA_T*01
$AAMDA,,I,,B,,C,25.8,C,,,,C,,T,,M,,N,,M*0B
$AADPT,1.81,0.00*48
$GNRMC,034351.00,A,3651.96918,S,17443.44149,E,1.167,55.63,260118,,,A*52
$GNVTG,55.63,T,,M,1.167,N,2.162,K,A*10
$GNGGA,034351.00,3651.96918,S,17443.44149,E,1,09,1.09,19.4,M,28.1,M,,*6E
$GNGSA,A,3,02,13,05,12,29,06,,,,,,,1.92,1.09,1.59*18
$GNGSA,A,3,70,71,84,,,,,,,,,,1.92,1.09,1.59*1E
$GPGSV,2,1,08,02,43,117,33,05,78,111,30,06,11,104,32,12,34,334,37*7E
$GPGSV,2,2,08,13,17,036,39,20,,,26,25,,,32,29,47,222,36*75
$GLGSV,2,1,07,69,,,32,70,69,049,36,71,26,352,39,75,10,290,18*52
$AADPT,1.81,0.00*48
$AADBT,5.9,f,1.81,M,0.9,F*2C
$AADBS,5.9,f,1.81,M,0.9,F*2B
$AAMTW,25.8,C*1C
$AAXDR,C,25.8,C,ENV_SEA_T*01
$AAMDA,,I,,B,,C,25.8,C,,,,C,,T,,M,,N,,M*0B
$AADPT,1.81,0.00*48
$GLGSV,2,2,07,76,14,244,36,84,34,089,36,,,,37*6A
$GNGLL,3651.96918,S,17443.44149,E,034351.00,A,A*6D
$GNZDA,034351.00,26,01,2018,00,00*76
$AADPT,1.83,0.00*4A
$AADBT,6.0,f,1.83,M,1.0,F*2C
$AADBS,6.0,f,1.83,M,1.0,F*2B
$AAMTW,25.8,C*1C
$AAXDR,C,25.8,C,ENV_SEA_T*01
$AAMDA,,I,,B,,C,25.8,C,,,,C,,T,,M,,N,,M*0B
$AADPT,1.83,0.00*4A
$GNRMC,034352.00,A,3651.96904,S,17443.44176,E,0.956,56.39,260118,,,A*57
$GNVTG,56.39,T,,M,0.956,N,1.771,K,A*10
$GNGGA,034352.00,3651.96904,S,17443.44176,E,1,09,1.09,19.3,M,28.1,M,,*6B
$GNGSA,A,3,02,13,05,12,29,06,,,,,,,1.92,1.09,1.59*18
$GNGSA,A,3,70,71,84,,,,,,,,,,1.92,1.09,1.59*1E
$GPGSV,2,1,08,02,43,117,32,05,78,111,30,06,11,104,31,12,34,334,34*7F
$AADPT,1.83,0.00*4A
$AADBT,6.0,f,1.83,M,1.0,F*2C
$AADBS,6.0,f,1.83,M,1.0,F*2B
$GPGSV,2,2,08,13,17,036,41,20,,,25,25,,,32,29,47,222,39*76
$AAMTW,25.8,C*1C
$GLGSV,2,1,07,69,,,32,70,69,049,36,71,26,352,31,75,10,290,33*53
$AAXDR,C,25.8,C,ENV_SEA_T*01
$AAMDA,,I,,B,,C,25.8,C,,,,C,,T,,M,,N,,M*0B
$AADPT,1.83,0.00*4A
$GLGSV,2,2,07,76,14,244,26,84,34,089,36,,,,31*6D
$GNGLL,3651.96904,S,17443.44176,E,034352.00,A,A*6F
$GNZDA,034352.00,26,01,2018,00,00*75
$AADPT,1.81,0.00*48
$AADBT,5.9,f,1.81,M,0.9,F*2C
$AADBS,5.9,f,1.81,M,0.9,F*2B
$AAMTW,25.8,C*1C
$AAXDR,C,25.8,C,ENV_SEA_T*01
$AAMDA,,I,,B,,C,25.8,C,,,,C,,T,,M,,N,,M*0B
$AADPT,1.81,0.00*48
$GNRMC,034353.00,A,3651.96889,S,17443.44187,E,0.557,,260118,,,A*76
$GNVTG,,T,,M,0.557,N,1.031,K,A*39
$GNGGA,034353.00,3651.96889,S,17443.44187,E,1,09,1.09,19.1,M,28.1,M,,*62
$GNGSA,A,3,02,13,05,12,29,06,,,,,,,1.92,1.09,1.59*18
$GNGSA,A,3,70,71,84,,,,,,,,,,1.92,1.09,1.59*1E
$GPGSV,2,1,08,02,43,117,32,05,78,111,31,06,11,104,32,12,34,334,35*7C
$AADPT,1.81,0.00*48
$AADBT,5.9,f,1.81,M,0.9,F*2C
$GPGSV,2,2,08,13,17,036,36,20,,,22,25,,,22,29,47,222,40*7E
$GLGSV,2,1,08,69,,,25,70,69,049,33,71,26,352,38,75,10,290,34*51
$AADBS,5.9,f,1.81,M,0.9,F*2B
$AAMTW,25.8,C*1C
$AAXDR,C,25.8,C,ENV_SEA_T*01
$AAMDA,,I,,B,,C,25.8,C,,,,C,,T,,M,,N,,M*0B
$AADPT,1.81,0.00*48
$GLGSV,2,2,08,76,14,244,32,77,00,192,,84,34,089,29,,,,39*5B
$GNGLL,3651.96889,S,17443.44187,E,034353.00,A,A*64
$GNZDA,034353.00,26,01,2018,00,00*74
$AADPT,1.87,0.00*4E
$AADBT,6.1,f,1.87,M,1.0,F*29
$AADBS,6.1,f,1.87,M,1.0,F*2E
$AAMTW,25.8,C*1C
$AAXDR,C,25.8,C,ENV_SEA_T*01
$AAMDA,,I,,B,,C,25.8,C,,,,C,,T,,M,,N,,M*0B
$AADPT,1.87,0.00*4E
$GNRMC,034354.00,A,3651.96867,S,17443.44185,E,0.838,35.34,260118,,,A*58
$GNVTG,35.34,T,,M,0.838,N,1.551,K,A*11
$GNGGA,034354.00,3651.96867,S,17443.44185,E,1,09,1.09,18.9,M,28.1,M,,*6E
$GNGSA,A,3,02,13,05,12,29,06,,,,,,,1.92,1.09,1.59*18
$GNGSA,A,3,70,71,84,,,,,,,,,,1.92,1.09,1.59*1E
$GPGSV,2,1,08,02,43,117,33,05,78,111,32,06,11,104,29,12,34,334,35*74
$AADPT,1.87,0.00*4E
$AADBT,6.1,f,1.87,M,1.0,F*29
$AADBS,6.1,f,1.87,M,1.0,F*2E
$AAMTW,25.8,C*1C
$AAXDR,C,25.8,C,ENV_SEA_T*01
$AAMDA,,I,,B,,C,25.8,C,,,,C,,T,,M,,N,,M*0B
$AADPT,1.87,0.00*4E
$GPGSV,2,2,08,13,17,036,32,20,,,30,25,,,21,29,47,222,39*74
$GLGSV,3,1,09,69,,,32,70,69,049,34,71,26,352,38,75,10,290,30*54
$GLGSV,3,2,09,76,14,244,40,77,00,192,,84,34,089,30,,,,34*5B
$GLGSV,3,3,09,,,,34*6B
$GNGLL,3651.96867,S,17443.44185,E,034354.00,A,A*61
$GNZDA,034354.00,26,01,2018,00,00*73
$AADPT,1.81,0.00*48
$AADBT,5.9,f,1.81,M,0.9,F*2C
$AADBS,5.9,f,1.81,M,0.9,F*2B
$AAMTW,25.8,C*1C
$AAXDR,C,25.8,C,ENV_SEA_T*01
$AAMDA,,I,,B,,C,25.8,C,,,,C,,T,,M,,N,,M*0B
$AADPT,1.81,0.00*48
$GNRMC,034355.00,A,3651.96841,S,17443.44187,E,0.871,18.26,260118,,,A*5E
$GNVTG,18.26,T,,M,0.871,N,1.612,K,A*14
$GNGGA,034355.00,3651.96841,S,17443.44187,E,1,09,1.00,18.9,M,28.1,M,,*60
$GNGSA,A,3,02,13,05,12,29,06,,,,,,,1.64,1.00,1.30*17
$GNGSA,A,3,70,71,84,,,,,,,,,,1.64,1.00,1.30*11
$GPGSV,2,1,08,02,43,117,33,05,78,111,32,06,11,104,30,12,34,334,35*7C
$AADPT,1.81,0.00*48
$AADBT,5.9,f,1.81,M,0.9,F*2C
$AADBS,5.9,f,1.81,M,0.9,F*2B
$AAMTW,25.8,C*1C
$GPGSV,2,2,08,13,17,036,32,20,,,30,25,,,19,29,47,222,39*7F
$GLGSV,3,1,09,69,,,32,70,69,049,34,71,26,352,40,75,10,290,29*53
$AAXDR,C,25.8,C,ENV_SEA_T*01
$AAMDA,,I,,B,,C,25.8,C,,,,C,,T,,M,,N,,M*0B
$AADPT,1.81,0.00*48
$GLGSV,3,2,09,76,14,244,39,77,00,192,,84,34,089,27,,,,34*53
$GLGSV,3,3,09,,,,34*6B
$GNGLL,3651.96841,S,17443.44187,E,034355.00,A,A*66
$GNZDA,034355.00,26,01,2018,00,00*72
$AADPT,1.78,0.00*4E
$AADBT,5.8,f,1.78,M,0.9,F*2B
$AADBS,5.8,f,1.78,M,0.9,F*2C
$AAMTW,25.8,C*1C
$AAXDR,C,25.8,C,ENV_SEA_T*01
$AAMDA,,I,,B,,C,25.8,C,,,,C,,T,,M,,N,,M*0B
$AADPT,1.78,0.00*4E
$GNRMC,034356.00,A,3651.96819,S,17443.44181,E,0.770,8.78,260118,,,A*62
$GNVTG,8.78,T,,M,0.770,N,1.427,K,A*24
$GNGGA,034356.00,3651.96819,S,17443.44181,E,1,09,1.00,18.8,M,28.1,M,,*69
$GNGSA,A,3,02,13,05,12,29,06,,,,,,,1.64,1.00,1.30*17
$GNGSA,A,3,70,71,84,,,,,,,,,,1.64,1.00,1.30*11
$GPGSV,2,1,08,02,43,117,33,05,78,111,32,06,11,104,29,12,34,334,34*75
$AADPT,1.78,0.00*4E
$AADBT,5.8,f,1.78,M,0.9,F*2B
$AADBS,5.8,f,1.78,M,0.9,F*2C
$AAMTW,25.8,C*1C
$AAXDR,C,25.8,C,ENV_SEA_T*01
$AAMDA,,I,,B,,C,25.8,C,,,,C,,T,,M,,N,,M*0B
$AADPT,1.78,0.00*4E
$GPGSV,2,2,08,13,17,036,35,20,,,29,25,,,20,29,47,222,40*74
$GLGSV,3,1,09,69,,,30,70,69,049,35,71,26,352,38,75,10,290,32*55
$GLGSV,3,2,09,76,14,244,39,77,00,192,,84,34,089,29,,,,31*58
$GLGSV,3,3,09,,,,31*6E
$GNGLL,3651.96819,S,17443.44181,E,034356.00,A,A*6E
$GNZDA,034356.00,26,01,2018,00,00*71
$AADPT,1.83,0.00*4A
$AADBT,6.0,f,1.83,M,1.0,F*2C
$AADBS,6.0,f,1.83,M,1.0,F*2B
$AAMTW,25.8,C*1C
$AAXDR,C,25.8,C,ENV_SEA_T*01
$AAMDA,,I,,B,,C,25.8,C,,,,C,,T,,M,,N,,M*0B
$AADPT,1.83,0.00*4A
$GNRMC,034357.00,A,3651.96794,S,17443.44175,E,0.956,1.27,260118,,,A*6B
$GNVTG,1.27,T,,M,0.956,N,1.770,K,A*2C
$GNGGA,034357.00,3651.96794,S,17443.44175,E,1,09,1.00,18.6,M,28.1,M,,*67
$GNGSA,A,3,02,13,05,12,29,06,,,,,,,1.64,1.00,1.30*17
$GNGSA,A,3,70,71,84,,,,,,,,,,1.64,1.00,1.30*11
$GPGSV,2,1,08,02,43,117,33,05,78,111,32,06,11,104,28,12,34,334,34*74
$AADPT,1.83,0.00*4A
$AADBT,6.0,f,1.83,M,1.0,F*2C
$AADBS,6.0,f,1.83,M,1.0,F*2B
$AAMTW,25.8,C*1C
$GPGSV,2,2,08,13,17,036,36,20,,,29,25,,,22,29,47,222,40*75
$AAXDR,C,25.8,C,ENV_SEA_T*01
$GLGSV,3,1,09,69,,,29,70,69,049,34,71,26,352,36,75,10,290,34*54
$AAMDA,,I,,B,,C,25.8,C,,,,C,,T,,M,,N,,M*0B
$AADPT,1.83,0.00*4A
$GLGSV,3,2,09,76,14,244,38,77,00,192,,84,34,089,31,,,,32*53
$GLGSV,3,3,09,,,,32*6D
$GNGLL,3651.96794,S,17443.44175,E,034357.00,A,A*6E
$GNZDA,034357.00,26,01,2018,00,00*70
$AADPT,1.81,0.00*48
$AADBT,5.9,f,1.81,M,0.9,F*2C
$AADBS,5.9,f,1.81,M,0.9,F*2B
$AAMTW,25.8,C*1C
$AAXDR,C,25.8,C,ENV_SEA_T*01
$AAMDA,,I,,B,,C,25.8,C,,,,C,,T,,M,,N,,M*0B
$AADPT,1.81,0.00*48
$GNRMC,034358.00,A,3651.96762,S,17443.44168,E,1.092,359.29,260118,,,A*61
$GNVTG,359.29,T,,M,1.092,N,2.023,K,A*2E
$GNGGA,034358.00,3651.96762,S,17443.44168,E,1,09,1.00,18.5,M,28.1,M,,*6E
$GNGSA,A,3,02,13,05,12,29,06,,,,,,,1.64,1.00,1.30*17
$GNGSA,A,3,70,71,84,,,,,,,,,,1.64,1.00,1.30*11
$GPGSV,2,1,08,02,42,117,33,05,78,111,33,06,11,104,28,12,34,334,35*75
$AADPT,1.81,0.00*48
$AADBT,5.9,f,1.81,M,0.9,F*2C
$AADBS,5.9,f,1.81,M,0.9,F*2B
$AAMTW,25.8,C*1C
$AAXDR,C,25.8,C,ENV_SEA_T*01
$AAMDA,,I,,B,,C,25.8,C,,,,C,,T,,M,,N,,M*0B
$AADPT,1.81,0.00*48
$GPGSV,2,2,08,13,17,036,36,20,,,27,25,,,22,29,47,222,40*7B
$GLGSV,3,1,09,69,,,29,70,69,049,34,71,26,352,37,75,10,290,34*55
$GLGSV,3,2,09,76,14,244,37,77,00,192,,84,34,089,32,,,,32*5F
$GLGSV,3,3,09,,,,32*6D
$GNGLL,3651.96762,S,17443.44168,E,034358.00,A,A*64
$GNZDA,034358.00,26,01,2018,00,00*7F
$AADPT,1.81,0.00*48
$AADBT,5.9,f,1.81,M,0.9,F*2C
$AADBS,5.9,f,1.81,M,0.9,F*2B
$AAMTW,25.8,C*1C
$AAXDR,C,25.8,C,ENV_SEA_T*01
$AAMDA,,I,,B,,C,25.8,C,,,,C,,T,,M,,N,,M*0B
$AADPT,1.81,0.00*48
$GNRMC,034359.00,A,3651.96737,S,17443.44165,E,0.835,1.91,260118,,,A*64
$GNVTG,1.91,T,,M,0.835,N,1.547,K,A*23
$GNGGA,034359.00,3651.96737,S,17443.44165,E,1,09,1.00,18.4,M,28.1,M,,*63
$GNGSA,A,3,02,13,05,12,29,06,,,,,,,1.64,1.00,1.30*17
$GNGSA,A,3,70,71,84,,,,,,,,,,1.64,1.00,1.30*11
$GPGSV,2,1,08,02,42,117,33,05,78,112,33,06,11,104,34,12,34,334,34*7A
$AADPT,1.81,0.00*48
$AADBT,5.9,f,1.81,M,0.9,F*2C
$AADBS,5.9,f,1.81,M,0.9,F*2B
$AAMTW,25.8,C*1C
$AAXDR,C,25.8,C,ENV_SEA_T*01
$GPGSV,2,2,08,13,17,036,36,20,,,25,25,,,21,29,47,222,40*7A
$GLGSV,3,1,09,69,,,20,70,69,049,35,71,26,352,37,75,10,290,35*5C
$AAMDA,,I,,B,,C,25.8,C,,,,C,,T,,M,,N,,M*0B
$AADPT,1.81,0.00*48
$GLGSV,3,2,09,76,14,244,30,77,00,192,,84,34,089,31,,,,38*51
$GLGSV,3,3,09,,,,38*67
$GNGLL,3651.96737,S,17443.44165,E,034359.00,A,A*68
$GNZDA,034359.00,26,01,2018,00,00*7E
$AADPT,1.83,0.00*4A
$AADBT,6.0,f,1.83,M,1.0,F*2C
$AADBS,6.0,f,1.83,M,1.0,F*2B
$AAMTW,25.8,C*1C
$AAXDR,C,25.8,C,ENV_SEA_T*01
$AAMDA,,I,,B,,C,25.8,C,,,,C,,T,,M,,N,,M*0B
$AADPT,1.83,0.00*4A
$GNRMC,034400.00,A,3651.96716,S,17443.44171,E,0.686,8.98,260118,,,A*6F
$GNVTG,8.98,T,,M,0.686,N,1.271,K,A*27
$GNGGA,034400.00,3651.96716,S,17443.44171,E,1,09,1.00,18.3,M,28.1,M,,*69
$GNGSA,A,3,02,13,05,12,29,06,,,,,,,1.64,1.00,1.30*17
$GNGSA,A,3,70,71,84,,,,,,,,,,1.64,1.00,1.30*11
$GPGSV,2,1,08,02,42,117,32,05,78,112,32,06,11,104,33,12,34,334,37*7E
$AADPT,1.83,0.00*4A
$AADBT,6.0,f,1.83,M,1.0,F*2C
$AADBS,6.0,f,1.83,M,1.0,F*2B
$AAMTW,25.8,C*1C
$AAXDR,C,25.8,C,ENV_SEA_T*01
$AAMDA,,I,,B,,C,25.8,C,,,,C,,T,,M,,N,,M*0B
$AADPT,1.83,0.00*4A
$GPGSV,2,2,08,13,17,036,39,20,,,22,25,,,23,29,47,222,40*70
$GLGSV,3,1,09,69,,,30,70,69,049,34,71,26,352,33,75,10,290,36*5B
$GLGSV,3,2,09,76,14,244,28,77,00,192,,84,34,089,34,,,,36*53
$GLGSV,3,3,09,,,,36*69
$GNGLL,3651.96716,S,17443.44171,E,034400.00,A,A*65
$GNZDA,034400.00,26,01,2018,00,00*75
$AADPT,1.78,0.00*4E
$AADBT,5.8,f,1.78,M,0.9,F*2B
$AADBS,5.8,f,1.78,M,0.9,F*2C
$AAMTW,25.8,C*1C
$AAXDR,C,25.8,C,ENV_SEA_T*01
$AAMDA,,I,,B,,C,25.8,C,,,,C,,T,,M,,N,,M*0B
$AADPT,1.78,0.00*4E
$GNRMC,034401.00,A,3651.96704,S,17443.44178,E,0.462,,260118,,,A*7B
$GNVTG,,T,,M,0.462,N,0.856,K,A*36
$GNGGA,034401.00,3651.96704,S,17443.44178,E,1,09,1.00,18.2,M,28.1,M,,*63
$GNGSA,A,3,02,13,05,12,29,06,,,,,,,1.64,1.00,1.30*17
$GNGSA,A,3,70,71,84,,,,,,,,,,1.64,1.00,1.30*11
$GPGSV,2,1,08,02,42,117,31,05,78,112,30,06,11,104,31,12,34,334,34*7E
$AADPT,1.78,0.00*4E
$AADBT,5.8,f,1.78,M,0.9,F*2B
$AADBS,5.8,f,1.78,M,0.9,F*2C
$AAMTW,25.8,C*1C
$AAXDR,C,25.8,C,ENV_SEA_T*01
$AAMDA,,I,,B,,C,25.8,C,,,,C,,T,,M,,N,,M*0B
$GPGSV,2,2,08,13,17,036,41,20,,,21,25,,,30,29,47,222,40*7E
$AADPT,1.78,0.00*4E
$GLGSV,3,1,09,69,,,30,70,69,049,35,71,26,352,29,75,10,290,36*51
$GLGSV,3,2,09,76,14,244,26,77,00,192,,84,34,089,35,,,,29*52
$GLGSV,3,3,09,,,,29*67
$GNGLL,3651.96704,S,17443.44178,E,034401.00,A,A*6E
$GNZDA,034401.00,26,01,2018,00,00*74
$AADPT,1.78,0.00*4E
$AADBT,5.8,f,1.78,M,0.9,F*2B
$AADBS,5.8,f,1.78,M,0.9,F*2C
$AAMTW,25.8,C*1C
$AAXDR,C,25.8,C,ENV_SEA_T*01
$AAMDA,,I,,B,,C,25.8,C,,,,C,,T,,M,,N,,M*0B
$AADPT,1.78,0.00*4E
$GNRMC,034402.00,A,3651.96700,S,17443.44185,E,0.277,,260118,,,A*7C
$GNVTG,,T,,M,0.277,N,0.512,K,A*39
$GNGGA,034402.00,3651.96700,S,17443.44185,E,1,09,1.00,17.9,M,28.1,M,,*62
$GNGSA,A,3,02,13,05,12,29,06,,,,,,,1.64,1.00,1.30*17
$GNGSA,A,3,70,71,84,,,,,,,,,,1.64,1.00,1.30*11
$GPGSV,2,1,08,02,42,117,32,05,78,112,29,06,11,104,30,12,34,334,33*73
$AADPT,1.78,0.00*4E
$AADBT,5.8,f,1.78,M,0.9,F*2B
$AADBS,5.8,f,1.78,M,0.9,F*2C
$AAMTW,25.8,C*1C
$AAXDR,C,25.8,C,ENV_SEA_T*01
$AAMDA,,I,,B,,C,25.8,C,,,,C,,T,,M,,N,,M*0B
$GPGSV,2,2,08,13,17,036,41,20,,,21,25,,,31,29,47,222,35*7D
$AADPT,1.78,0.00*4E
$GLGSV,3,1,09,69,,,32,70,69,049,37,71,26,352,37,75,10,290,27*5E
$GLGSV,3,2,09,76,14,244,26,77,00,192,,84,34,089,36,,,,34*5D
$GLGSV,3,3,09,,,,34*6B
$GNGLL,3651.96700,S,17443.44185,E,034402.00,A,A*6B
$GNZDA,034402.00,26,01,2018,00,00*77
$AADPT,1.81,0.00*48
$AADBT,5.9,f,1.81,M,0.9,F*2C
$AADBS,5.9,f,1.81,M,0.9,F*2B
$AAMTW,25.8,C*1C
$AAXDR,C,25.8,C,ENV_SEA_T*01
$AAMDA,,I,,B,,C,25.8,C,,,,C,,T,,M,,N,,M*0B
$AADPT,1.81,0.00*48
$GNRMC,034403.00,A,3651.96701,S,17443.44190,E,0.148,,260118,,,A*77
$GNVTG,,T,,M,0.148,N,0.273,K,A*36
$GNGGA,034403.00,3651.96701,S,17443.44190,E,1,10,0.89,17.8,M,28.1,M,,*6F
$GNGSA,A,3,02,13,05,12,29,06,,,,,,,1.44,0.89,1.12*15
$GNGSA,A,3,70,71,84,75,,,,,,,,,1.44,0.89,1.12*11
$GPGSV,2,1,08,02,42,117,33,05,78,112,28,06,11,104,32,12,34,334,39*7B
$AADPT,1.81,0.00*48
$AADBT,5.9,f,1.81,M,0.9,F*2C
$AADBS,5.9,f,1.81,M,0.9,F*2B
$AAMTW,25.8,C*1C
$AAXDR,C,25.8,C,ENV_SEA_T*01
$AAMDA,,I,,B,,C,25.8,C,,,,C,,T,,M,,N,,M*0B
$AADPT,1.81,0.00*48
$GPGSV,2,2,08,13,17,036,37,20,,,31,25,,,31,29,47,222,37*7F
$GLGSV,3,1,09,69,,,31,70,69,049,34,71,26,352,39,75,10,290,24*53
$GLGSV,3,2,09,76,14,244,35,77,00,192,,84,34,089,35,,,,41*5E
$GLGSV,3,3,09,,,,41*69
$GNGLL,3651.96701,S,17443.44190,E,034403.00,A,A*6F
$GNZDA,034403.00,26,01,2018,00,00*76
$AADPT,1.78,0.00*4E
$AADBT,5.8,f,1.78,M,0.9,F*2B
$AADBS,5.8,f,1.78,M,0.9,F*2C
$AAMTW,25.8,C*1C
$AAXDR,C,25.8,C,ENV_SEA_T*01
$AAMDA,,I,,B,,C,25.8,C,,,,C,,T,,M,,N,,M*0B
$AADPT,1.78,0.00*4E
$GNRMC,034404.00,A,3651.96706,S,17443.44191,E,0.091,,260118,,,A*73
$GNVTG,,T,,M,0.091,N,0.168,K,A*3A
$GNGGA,034404.00,3651.96706,S,17443.44191,E,1,10,0.89,17.5,M,28.1,M,,*63
$GNGSA,A,3,02,13,05,12,29,06,,,,,,,1.44,0.89,1.12*15
$GNGSA,A,3,70,71,84,75,,,,,,,,,1.44,0.89,1.12*11
$GPGSV,2,1,08,02,42,117,34,05,78,112,27,06,11,104,36,12,34,334,38*76
$AADPT,1.78,0.00*4E
$AADBT,5.8,f,1.78,M,0.9,F*2B
$AADBS,5.8,f,1.78,M,0.9,F*2C
$AAMTW,25.8,C*1C
$AAXDR,C,25.8,C,ENV_SEA_T*01
$GPGSV,2,2,08,13,17,036,30,20,,,31,25,,,36,29,47,222,37*7F
$AAMDA,,I,,B,,C,25.8,C,,,,C,,T,,M,,N,,M*0B
$GLGSV,3,1,09,69,,,36,70,69,049,32,71,26,352,40,75,10,290,26*5E
$AADPT,1.78,0.00*4E
$GLGSV,3,2,09,76,14,244,30,77,00,192,,84,34,089,26,,,,44*5C
$GLGSV,3,3,09,,,,44*6C
$GNGLL,3651.96706,S,17443.44191,E,034404.00,A,A*6E
$GNZDA,034404.00,26,01,2018,00,00*71
$AADPT,1.81,0.00*48
$AADBT,5.9,f,1.81,M,0.9,F*2C
$AADBS,5.9,f,1.81,M,0.9,F*2B
$AAMTW,25.8,C*1C
$AAXDR,C,25.8,C,ENV_SEA_T*01
$AAMDA,,I,,B,,C,25.8,C,,,,C,,T,,M,,N,,M*0B
$AADPT,1.81,0.00*48
$GNRMC,034405.00,A,3651.96718,S,17443.44181,E,0.478,312.92,260118,,,A*6A
$GNVTG,312.92,T,,M,0.478,N,0.884,K,A*27
$GNGGA,034405.00,3651.96718,S,17443.44181,E,1,10,0.89,17.1,M,28.1,M,,*68
$GNGSA,A,3,02,13,05,12,29,06,,,,,,,1.44,0.89,1.12*15
$GNGSA,A,3,70,71,84,75,,,,,,,,,1.44,0.89,1.12*11
$GPGSV,2,1,08,02,42,117,37,05,78,112,26,06,11,104,37,12,34,334,36*7B
$AADPT,1.81,0.00*48
$AADBT,5.9,f,1.81,M,0.9,F*2C
$AADBS,5.9,f,1.81,M,0.9,F*2B
$AAMTW,25.8,C*1C
$AAXDR,C,25.8,C,ENV_SEA_T*01
$AAMDA,,I,,B,,C,25.8,C,,,,C,,T,,M,,N,,M*0B
$AADPT,1.81,0.00*48
$GPGSV,2,2,08,13,17,036,29,20,,,35,25,,,26,29,47,222,37*72
$GLGSV,3,1,09,69,,,37,70,69,049,36,71,26,352,38,75,10,290,35*56
$GLGSV,3,2,09,76,14,244,36,77,00,192,,84,34,089,26,,,,42*5C
$GLGSV,3,3,09,,,,42*6A
$GNGLL,3651.96718,S,17443.44181,E,034405.00,A,A*61
$GNZDA,034405.00,26,01,2018,00,00*70
$AADPT,1.81,0.00*48
$AADBT,5.9,f,1.81,M,0.9,F*2C
$AADBS,5.9,f,1.81,M,0.9,F*2B
$AAMTW,25.8,C*1C
$AAXDR,C,25.8,C,ENV_SEA_T*01
$AAMDA,,I,,B,,C,25.8,C,,,,C,,T,,M,,N,,M*0B
$AADPT,1.81,0.00*48
$GNRMC,034406.00,A,3651.96724,S,17443.44155,E,0.533,,260118,,,A*74
$GNVTG,,T,,M,0.533,N,0.988,K,A*31
$GNGGA,034406.00,3651.96724,S,17443.44155,E,1,10,0.89,16.6,M,28.1,M,,*6B
$GNGSA,A,3,02,13,05,12,29,06,,,,,,,1.44,0.89,1.12*15
$GNGSA,A,3,70,71,84,75,,,,,,,,,1.44,0.89,1.12*11
$GPGSV,2,1,08,02,42,117,32,05,78,112,29,06,11,104,32,12,34,334,36*74
$AADPT,1.81,0.00*48
$AADBT,5.9,f,1.81,M,0.9,F*2C
$AADBS,5.9,f,1.81,M,0.9,F*2B
$AAMTW,25.8,C*1C
$AAXDR,C,25.8,C,ENV_SEA_T*01
$AAMDA,,I,,B,,C,25.8,C,,,,C,,T,,M,,N,,M*0B
$AADPT,1.81,0.00*48
$GPGSV,2,2,08,13,17,036,37,20,,,27,25,,,33,29,47,222,37*7A
$GLGSV,3,1,09,69,,,28,70,69,049,38,71,26,352,32,75,10,290,30*59
$GLGSV,3,2,09,76,14,244,35,77,00,192,,84,34,089,33,,,,44*5D
$GLGSV,3,3,09,,,,44*6C
$GNGLL,3651.96724,S,17443.44155,E,034406.00,A,A*64
$GNZDA,034406.00,26,01,2018,00,00*73
$AADPT,1.81,0.00*48
$AADBT,5.9,f,1.81,M,0.9,F*2C
$AADBS,5.9,f,1.81,M,0.9,F*2B
$AAMTW,25.8,C*1C
$AAXDR,C,25.8,C,ENV_SEA_T*01
$AAMDA,,I,,B,,C,25.8,C,,,,C,,T,,M,,N,,M*0B
$AADPT,1.81,0.00*48
$GNRMC,034407.00,A,3651.96722,S,17443.44140,E,0.526,,260118,,,A*73
$GNVTG,,T,,M,0.526,N,0.974,K,A*36
$GNGGA,034407.00,3651.96722,S,17443.44140,E,1,12,0.71,16.6,M,28.1,M,,*6D
$GNGSA,A,3,02,13,05,12,29,06,,,,,,,1.23,0.71,1.00*10
$GNGSA,A,3,70,71,76,69,84,75,,,,,,,1.23,0.71,1.00*1A
$GPGSV,2,1,08,02,42,117,25,05,78,112,33,06,11,104,34,12,34,334,34*7D
$AADPT,1.81,0.00*48
$AADBT,5.9,f,1.81,M,0.9,F*2C
$AADBS,5.9,f,1.81,M,0.9,F*2B
$AAMTW,25.8,C*1C
$AAXDR,C,25.8,C,ENV_SEA_T*01
$AAMDA,,I,,B,,C,25.8,C,,,,C,,T,,M,,N,,M*0B
$AADPT,1.81,0.00*48
$GPGSV,2,2,08,13,17,036,26,20,,,33,25,,,32,29,47,222,37*7E
$GLGSV,3,1,09,69,33,143,29,70,69,049,35,71,26,352,32,75,10,290,34*67
$GLGSV,3,2,09,76,14,244,28,77,00,192,,84,34,089,34,,,,43*51
$GLGSV,3,3,09,,,,43*6B
$GNGLL,3651.96722,S,17443.44140,E,034407.00,A,A*67
$GNZDA,034407.00,26,01,2018,00,00*72
$AADPT,1.81,0.00*48
$AADBT,5.9,f,1.81,M,0.9,F*2C
$AADBS,5.9,f,1.81,M,0.9,F*2B
$AAMTW,25.8,C*1C
$AAXDR,C,25.8,C,ENV_SEA_T*01
$AAMDA,,I,,B,,C,25.8,C,,,,C,,T,,M,,N,,M*0B
$AADPT,1.81,0.00*48
$GNRMC,034408.00,A,3651.96719,S,17443.44120,E,0.656,312.96,260118,,,A*67
$GNVTG,312.96,T,,M,0.656,N,1.214,K,A*2F
$GNGGA,034408.00,3651.96719,S,17443.44120,E,1,12,0.71,16.3,M,28.1,M,,*69
$GNGSA,A,3,02,13,05,12,29,06,,,,,,,1.23,0.71,1.00*10
$GNGSA,A,3,70,71,76,69,84,75,,,,,,,1.23,0.71,1.00*1A
$AADPT,1.81,0.00*48
$GPGSV,2,1,08,02,42,117,31,05,78,112,34,06,11,104,27,12,34,334,35*7C
$AADBT,5.9,f,1.81,M,0.9,F*2C
$AADBS,5.9,f,1.81,M,0.9,F*2B
$AAMTW,25.8,C*1C
$AAXDR,C,25.8,C,ENV_SEA_T*01
$AAMDA,,I,,B,,C,25.8,C,,,,C,,T,,M,,N,,M*0B
$AADPT,1.81,0.00*48
$GPGSV,2,2,08,13,17,036,26,20,,,31,25,,,31,29,47,222,41*7E
$GLGSV,3,1,09,69,33,143,34,70,69,049,30,71,26,352,26,75,10,290,24*6A
$GLGSV,3,2,09,76,14,244,34,77,00,192,,84,34,089,29,,,,40*53
$GLGSV,3,3,09,,,,40*68
$GNGLL,3651.96719,S,17443.44120,E,034408.00,A,A*66
$GNZDA,034408.00,26,01,2018,00,00*7D
$AADPT,1.75,0.00*43
$AADBT,5.7,f,1.75,M,0.9,F*29
$AADBS,5.7,f,1.75,M,0.9,F*2E
$AAMTW,25.8,C*1C
$AAXDR,C,25.8,C,ENV_SEA_T*01
$AAMDA,,I,,B,,C,25.8,C,,,,C,,T,,M,,N,,M*0B
$AADPT,1.75,0.00*43
$GNRMC,034409.00,A,3651.96713,S,17443.44110,E,0.512,328.29,260118,,,A*61
$GNVTG,328.29,T,,M,0.512,N,0.948,K,A*22
$GNGGA,034409.00,3651.96713,S,17443.44110,E,1,12,0.71,16.0,M,28.1,M,,*62
$GNGSA,A,3,02,13,05,12,29,06,,,,,,,1.23,0.71,1.00*10
$GNGSA,A,3,70,71,76,69,84,75,,,,,,,1.23,0.71,1.00*1A
$GPGSV,2,1,08,02,42,117,33,05,78,112,34,06,11,104,29,12,34,334,39*7C
$AADPT,1.75,0.00*43
$AADBT,5.7,f,1.75,M,0.9,F*29
$AADBS,5.7,f,1.75,M,0.9,F*2E
$AAMTW,25.8,C*1C
$AAXDR,C,25.8,C,ENV_SEA_T*01
$AAMDA,,I,,B,,C,25.8,C,,,,C,,T,,M,,N,,M*0B
$AADPT,1.75,0.00*43
$GPGSV,2,2,08,13,17,036,32,20,,,35,25,,,35,29,47,222,33*7E
$GLGSV,3,1,09,69,33,143,30,70,69,049,20,71,26,352,37,75,10,290,35*6F
$GLGSV,3,2,09,76,14,244,34,77,00,192,,84,34,089,38,86,,,38*52
$GLGSV,3,3,09,,,,46*6E
$GNGLL,3651.96713,S,17443.44110,E,034409.00,A,A*6E
$GNZDA,034409.00,26,01,2018,00,00*7C
$AADPT,1.81,0.00*48
$AADBT,5.9,f,1.81,M,0.9,F*2C
$AADBS,5.9,f,1.81,M,0.9,F*2B
$AAMTW,25.8,C*1C
$AAXDR,C,25.8,C,ENV_SEA_T*01
$AAMDA,,I,,B,,C,25.8,C,,,,C,,T,,M,,N,,M*0B
$AADPT,1.81,0.00*48
$GNRMC,034410.00,A,3651.96712,S,17443.44105,E,0.339,,260118,,,A*7F
$GNVTG,,T,,M,0.339,N,0.628,K,A*38
$GNGGA,034410.00,3651.96712,S,17443.44105,E,1,12,0.71,15.5,M,28.1,M,,*69
$GNGSA,A,3,02,13,05,12,29,06,,,,,,,1.23,0.71,1.00*10
$GNGSA,A,3,70,71,76,69,84,75,,,,,,,1.23,0.71,1.00*1A
$AADPT,1.81,0.00*48
$GPGSV,2,1,08,02,42,117,30,05,78,112,34,06,11,104,20,12,34,334,37*78
$AADBT,5.9,f,1.81,M,0.9,F*2C
$AADBS,5.9,f,1.81,M,0.9,F*2B
$AAMTW,25.8,C*1C
$AAXDR,C,25.8,C,ENV_SEA_T*01
$AAMDA,,I,,B,,C,25.8,C,,,,C,,T,,M,,N,,M*0B
$AADPT,1.81,0.00*48
$GPGSV,2,2,08,13,17,036,34,20,,,38,25,,,32,29,47,222,34*75
$GLGSV,3,1,09,69,33,143,36,70,69,049,23,71,26,352,42,75,10,290,38*65
$GLGSV,3,2,09,76,14,244,38,77,00,192,,84,34,089,24,86,,,40*5C
$GLGSV,3,3,09,,,,38*67
$GNGLL,3651.96712,S,17443.44105,E,034410.00,A,A*63
$GNZDA,034410.00,26,01,2018,00,00*74
$AADPT,1.81,0.00*48
$AADBT,5.9,f,1.81,M,0.9,F*2C
$AADBS,5.9,f,1.81,M,0.9,F*2B
$AAMTW,25.8,C*1C
$AAXDR,C,25.8,C,ENV_SEA_T*01
$AAMDA,,I,,B,,C,25.8,C,,,,C,,T,,M,,N,,M*0B
$AADPT,1.81,0.00*48
$GNRMC,034411.00,A,3651.96718,S,17443.44107,E,0.510,41.01,260118,,,A*51
$GNVTG,41.01,T,,M,0.510,N,0.945,K,A*1B
$GNGGA,034411.00,3651.96718,S,17443.44107,E,1,12,0.71,14.9,M,28.1,M,,*6D
$GNGSA,A,3,02,13,05,12,29,06,,,,,,,1.23,0.71,1.00*10
$GNGSA,A,3,70,71,76,69,84,75,,,,,,,1.23,0.71,1.00*1A
$GPGSV,2,1,08,02,42,117,31,05,78,112,32,06,11,104,24,12,34,334,34*78
$AADPT,1.83,0.00*4A
$AADBT,6.0,f,1.83,M,1.0,F*2C
$AADBS,6.0,f,1.83,M,1.0,F*2B
$AAMTW,25.8,C*1C
$AAXDR,C,25.8,C,ENV_SEA_T*01
$AAMDA,,I,,B,,C,25.8,C,,,,C,,T,,M,,N,,M*0B
$AADPT,1.83,0.00*4A
$GPGSV,2,2,08,13,17,036,34,20,,,30,25,,,16,29,47,222,40*78
$GLGSV,3,1,09,69,33,143,31,70,69,049,34,71,26,352,37,75,10,290,36*68
$GLGSV,3,2,09,76,14,244,38,77,00,192,,84,34,089,31,86,,,40*58
$GLGSV,3,3,09,,,,32*6D
$GNGLL,3651.96718,S,17443.44107,E,034411.00,A,A*6A
$GNZDA,034411.00,26,01,2018,00,00*75
$AADPT,1.83,0.00*4A
$AADBT,6.0,f,1.83,M,1.0,F*2C
$AADBS,6.0,f,1.83,M,1.0,F*2B
$AAMTW,25.8,C*1C
$AAXDR,C,25.8,C,ENV_SEA_T*01
$AAMDA,,I,,B,,C,25.8,C,,,,C,,T,,M,,N,,M*0B
$AADPT,1.83,0.00*4A
$GNRMC,034412.00,A,3651.96724,S,17443.44115,E,0.583,114.86,260118,,,A*6A
$GNVTG,114.86,T,,M,0.583,N,1.079,K,A*28
$GNGGA,034412.00,3651.96724,S,17443.44115,E,1,12,0.71,15.0,M,28.1,M,,*6A
$GNGSA,A,3,02,13,05,12,29,06,,,,,,,1.23,0.71,1.00*10
$GNGSA,A,3,70,71,76,69,84,75,,,,,,,1.23,0.71,1.00*1A
$AADPT,1.78,0.00*4E
$AADBT,5.8,f,1.78,M,0.9,F*2B
$GPGSV,2,1,08,02,42,117,32,05,78,112,31,06,11,104,32,12,34,334,34*7F
$AADBS,5.8,f,1.78,M,0.9,F*2C
$AAMTW,25.8,C*1C
$AAXDR,C,25.8,C,ENV_SEA_T*01
$AAMDA,,I,,B,,C,25.8,C,,,,C,,T,,M,,N,,M*0B
$AADPT,1.78,0.00*4E
$GPGSV,2,2,08,13,17,036,39,20,,,24,25,,,27,29,47,222,40*72
$GLGSV,3,1,09,69,33,143,30,70,69,049,34,71,26,352,31,75,10,290,37*6E
$GLGSV,3,2,09,76,14,244,26,77,00,192,,84,34,089,31,86,,,34*54
$GLGSV,3,3,09,,,,37*68
$AADPT,1.78,0.00*4E
$GNGLL,3651.96724,S,17443.44115,E,034412.00,A,A*65
$AADBT,5.8,f,1.78,M,0.9,F*2B
$GNZDA,034412.00,26,01,2018,00,00*76
$AADBS,5.8,f,1.78,M,0.9,F*2C
$AAMTW,25.8,C*1C
$AAXDR,C,25.8,C,ENV_SEA_T*01
$AAMDA,,I,,B,,C,25.8,C,,,,C,,T,,M,,N,,M*0B
$AADPT,1.78,0.00*4E
$GNRMC,034413.00,A,3651.96743,S,17443.44102,E,0.769,160.80,260118,,,A*6F
$GNVTG,160.80,T,,M,0.769,N,1.424,K,A*27
$GNGGA,034413.00,3651.96743,S,17443.44102,E,1,12,0.82,14.7,M,28.1,M,,*66
$GNGSA,A,3,02,13,05,12,29,06,,,,,,,1.37,0.82,1.09*10
$GNGSA,A,3,70,71,76,69,84,75,,,,,,,1.37,0.82,1.09*1A
$AADPT,1.78,0.00*4E
$GPGSV,2,1,08,02,42,117,33,05,78,112,27,06,11,104,31,12,34,334,39*77
$AADBT,5.8,f,1.78,M,0.9,F*2B
$AADBS,5.8,f,1.78,M,0.9,F*2C
$AAMTW,25.8,C*1C
$AAXDR,C,25.8,C,ENV_SEA_T*01
$AAMDA,,I,,B,,C,25.8,C,,,,C,,T,,M,,N,,M*0B
$AADPT,1.78,0.00*4E
$GPGSV,2,2,08,13,17,036,39,20,,,30,25,,,30,29,47,222,37*71
$GLGSV,3,1,09,69,33,143,31,70,69,049,37,71,26,352,39,75,10,290,25*67
$GLGSV,3,2,09,76,14,244,34,77,00,192,,84,34,089,35,86,,,31*56
$GLGSV,3,3,09,,,,40*68
$GNGLL,3651.96743,S,17443.44102,E,034413.00,A,A*63
$GNZDA,034413.00,26,01,2018,00,00*77
$AADPT,1.78,0.00*4E
$AADBT,5.8,f,1.78,M,0.9,F*2B
$AADBS,5.8,f,1.78,M,0.9,F*2C
$AAMTW,25.8,C*1C
$AAXDR,C,25.8,C,ENV_SEA_T*01
$AAMDA,,I,,B,,C,25.8,C,,,,C,,T,,M,,N,,M*0B
$AADPT,1.78,0.00*4E
$GNRMC,034414.00,A,3651.96774,S,17443.44088,E,0.988,199.97,260118,,,A*6E
$GNVTG,199.97,T,,M,0.988,N,1.831,K,A*2E
$GNGGA,034414.00,3651.96774,S,17443.44088,E,1,12,0.71,14.1,M,28.1,M,,*6C
$GNGSA,A,3,02,13,05,12,29,06,,,,,,,1.23,0.71,1.00*10
$GNGSA,A,3,70,71,76,69,84,75,,,,,,,1.23,0.71,1.00*1A
$AADPT,1.78,0.00*4E
$AADBT,5.8,f,1.78,M,0.9,F*2B
$GPGSV,2,1,08,02,42,117,38,05,78,112,26,06,11,104,38,12,34,334,36*7B
$AADBS,5.8,f,1.78,M,0.9,F*2C
$AAMTW,25.8,C*1C
$AAXDR,C,25.8,C,ENV_SEA_T*01
$AAMDA,,I,,B,,C,25.8,C,,,,C,,T,,M,,N,,M*0B
$AADPT,1.78,0.00*4E
$GPGSV,2,2,08,13,17,036,26,20,,,32,25,,,31,29,47,222,39*72
$GLGSV,3,1,09,69,33,143,37,70,69,049,37,71,26,352,40,75,10,290,32*69
$GLGSV,3,2,09,76,14,244,34,77,00,192,,84,34,089,26,86,,,37*52
$GLGSV,3,3,09,,,,42*6A
$AADPT,1.78,0.00*4E
$AADBT,5.8,f,1.78,M,0.9,F*2B
$GNGLL,3651.96774,S,17443.44088,E,034414.00,A,A*63
$GNZDA,034414.00,26,01,2018,00,00*70
$AADBS,5.8,f,1.78,M,0.9,F*2C
$AAMTW,25.8,C*1C
$AAXDR,C,25.8,C,ENV_SEA_T*01
$AAMDA,,I,,B,,C,25.8,C,,,,C,,T,,M,,N,,M*0B
$AADPT,1.78,0.00*4E
$GNRMC,034415.00,A,3651.96791,S,17443.44063,E,0.877,210.62,260118,,,A*68
$GNVTG,210.62,T,,M,0.877,N,1.623,K,A*2A
$GNGGA,034415.00,3651.96791,S,17443.44063,E,1,12,0.71,14.0,M,28.1,M,,*62
$GNGSA,A,3,02,13,05,12,29,06,,,,,,,1.23,0.71,1.00*10
$GNGSA,A,3,70,71,76,69,84,75,,,,,,,1.23,0.71,1.00*1A
$AADPT,1.81,0.00*48
$AADBT,5.9,f,1.81,M,0.9,F*2C
$AADBS,5.9,f,1.81,M,0.9,F*2B
$GPGSV,2,1,08,02,42,117,29,05,78,112,33,06,11,104,30,12,34,334,34*75
$AAMTW,25.8,C*1C
$AAXDR,C,25.8,C,ENV_SEA_T*01
$AAMDA,,I,,B,,C,25.8,C,,,,C,,T,,M,,N,,M*0B
$AADPT,1.81,0.00*48
$GPGSV,2,2,08,13,17,036,28,20,,,28,25,,,33,29,47,222,36*7A
$GLGSV,3,1,09,69,33,143,27,70,69,049,35,71,26,352,36,75,10,290,32*6B
$GLGSV,3,2,09,76,14,244,34,77,00,192,,84,34,089,35,86,,,37*50
$GLGSV,3,3,09,,,,44*6C
$AADPT,1.81,0.00*48
$AADBT,5.9,f,1.81,M,0.9,F*2C
$GNGLL,3651.96791,S,17443.44063,E,034415.00,A,A*6C
$GNZDA,034415.00,26,01,2018,00,00*71
$AADBS,5.9,f,1.81,M,0.9,F*2B
$AAMTW,25.8,C*1C
$AAXDR,C,25.8,C,ENV_SEA_T*01
$AAMDA,,I,,B,,C,25.8,C,,,,C,,T,,M,,N,,M*0B
$AADPT,1.81,0.00*48
$GNRMC,034416.00,A,3651.96803,S,17443.44042,E,0.735,227.60,260118,,,A*63
$GNVTG,227.60,T,,M,0.735,N,1.362,K,A*25
$GNGGA,034416.00,3651.96803,S,17443.44042,E,1,12,0.71,13.8,M,28.1,M,,*69
$GNGSA,A,3,02,13,05,12,29,06,,,,,,,1.23,0.71,1.00*10
$GNGSA,A,3,70,71,76,69,84,75,,,,,,,1.23,0.71,1.00*1A
$AADPT,1.81,0.00*48
$AADBT,5.9,f,1.81,M,0.9,F*2C
$AADBS,5.9,f,1.81,M,0.9,F*2B
$GPGSV,2,1,08,02,42,117,21,05,78,112,36,06,11,104,37,12,34,334,31*7A
$AAMTW,25.8,C*1C
$AAXDR,C,25.8,C,ENV_SEA_T*01
$AAMDA,,I,,B,,C,25.8,C,,,,C,,T,,M,,N,,M*0B
$AADPT,1.81,0.00*48
$GPGSV,2,2,08,13,17,036,27,20,,,32,25,,,32,29,47,222,41*7F
$GLGSV,3,1,09,69,33,143,36,70,69,050,34,71,26,352,31,75,10,290,32*65
$GLGSV,3,2,09,76,14,244,34,77,00,192,,84,34,089,34,86,,,39*5F
$GLGSV,3,3,09,,,,28*66
$AADPT,1.81,0.00*48
$AADBT,5.9,f,1.81,M,0.9,F*2C
$GNGLL,3651.96803,S,17443.44042,E,034416.00,A,A*68
$AADBS,5.9,f,1.81,M,0.9,F*2B
$GNZDA,034416.00,26,01,2018,00,00*72
$AAMTW,25.8,C*1C
$AAXDR,C,25.8,C,ENV_SEA_T*01
$AAMDA,,I,,B,,C,25.8,C,,,,C,,T,,M,,N,,M*0B
$AADPT,1.81,0.00*48
$GNRMC,034417.00,A,3651.96806,S,17443.44020,E,0.475,,260118,,,A*7B
$GNVTG,,T,,M,0.475,N,0.879,K,A*3D
$GNGGA,034417.00,3651.96806,S,17443.44020,E,1,12,0.71,13.6,M,28.1,M,,*67
$GNGSA,A,3,02,13,05,12,29,06,,,,,,,1.23,0.71,1.00*10
$GNGSA,A,3,70,71,76,69,84,75,,,,,,,1.23,0.71,1.00*1A
$AADPT,1.81,0.00*48
$AADBT,5.9,f,1.81,M,0.9,F*2C
$GPGSV,2,1,08,02,42,117,33,05,78,112,35,06,11,104,30,12,34,334,35*79
$AADBS,5.9,f,1.81,M,0.9,F*2B
$AAMTW,25.8,C*1C
$AAXDR,C,25.8,C,ENV_SEA_T*01
$AAMDA,,I,,B,,C,25.8,C,,,,C,,T,,M,,N,,M*0B
$AADPT,1.81,0.00*48
$GPGSV,2,2,08,13,17,036,26,20,,,32,25,,,32,29,47,222,34*7C
$GLGSV,3,1,09,69,33,143,35,70,69,050,29,71,26,352,39,75,10,290,32*62
$GLGSV,3,2,09,76,14,244,38,77,00,192,,84,34,089,38,86,,,38*5E
$GLGSV,3,3,09,,,,47*6F
$GNGLL,3651.96806,S,17443.44020,E,034417.00,A,A*68
$GNZDA,034417.00,26,01,2018,00,00*73
$AADPT,1.81,0.00*48
$AADBT,5.9,f,1.81,M,0.9,F*2C
$AADBS,5.9,f,1.81,M,0.9,F*2B
$AAMTW,25.8,C*1C
$AAXDR,C,25.8,C,ENV_SEA_T*01
$AAMDA,,I,,B,,C,25.8,C,,,,C,,T,,M,,N,,M*0B
$AADPT,1.81,0.00*48
$GNRMC,034418.00,A,3651.96808,S,17443.44018,E,0.044,,260118,,,A*77
$GNVTG,,T,,M,0.044,N,0.082,K,A*37
$GNGGA,034418.00,3651.96808,S,17443.44018,E,1,12,0.71,13.4,M,28.1,M,,*6F
$GNGSA,A,3,02,13,05,12,29,06,,,,,,,1.23,0.71,1.00*10
$GNGSA,A,3,70,71,76,69,84,75,,,,,,,1.23,0.71,1.00*1A
$AADPT,1.81,0.00*48
$AADBT,5.9,f,1.81,M,0.9,F*2C
$AADBS,5.9,f,1.81,M,0.9,F*2B
$AAMTW,25.8,C*1C
$AAXDR,C,25.8,C,ENV_SEA_T*01
$GPGSV,2,1,08,02,42,117,30,05,78,112,34,06,11,104,23,12,34,334,35*79
$AAMDA,,I,,B,,C,25.8,C,,,,C,,T,,M,,N,,M*0B
$AADPT,1.81,0.00*48
$GPGSV,2,2,08,13,17,036,35,20,,,36,25,,,31,29,47,222,33*7E
$GLGSV,3,1,09,69,33,143,37,70,69,050,29,71,26,352,42,75,10,290,33*6D
$GLGSV,3,2,09,76,14,244,37,77,00,192,,84,34,089,23,86,,,41*55
$GLGSV,3,3,09,,,,38*67
$AADPT,1.81,0.00*48
$AADBT,5.9,f,1.81,M,0.9,F*2C
$AADBS,5.9,f,1.81,M,0.9,F*2B
$GNGLL,3651.96808,S,17443.44018,E,034418.00,A,A*62
$AAMTW,25.8,C*1C
$GNZDA,034418.00,26,01,2018,00,00*7C
$AAXDR,C,25.8,C,ENV_SEA_T*01
$AAMDA,,I,,B,,C,25.8,C,,,,C,,T,,M,,N,,M*0B
$AADPT,1.81,0.00*48
$GNRMC,034419.00,A,3651.96817,S,17443.44021,E,0.581,194.80,260118,,,A*64
$GNVTG,194.80,T,,M,0.581,N,1.077,K,A*2A
$GNGGA,034419.00,3651.96817,S,17443.44021,E,1,12,0.71,13.4,M,28.1,M,,*6A
$GNGSA,A,3,02,13,05,12,29,06,,,,,,,1.23,0.71,1.00*10
$GNGSA,A,3,70,71,76,69,84,75,,,,,,,1.23,0.71,1.00*1A
$AADPT,1.83,0.00*4A
$AADBT,6.0,f,1.83,M,1.0,F*2C
$AADBS,6.0,f,1.83,M,1.0,F*2B
$AAMTW,25.8,C*1C
$AAXDR,C,25.8,C,ENV_SEA_T*01
$GPGSV,2,1,08,02,42,117,33,05,78,112,32,06,11,104,26,12,34,334,33*7F
$AAMDA,,I,,B,,C,25.8,C,,,,C,,T,,M,,N,,M*0B
$AADPT,1.83,0.00*4A
$GPGSV,2,2,08,13,17,036,35,20,,,29,25,,,23,29,47,222,39*79
$GLGSV,3,1,09,69,33,143,29,70,69,050,34,71,26,352,36,75,10,290,33*6D
$GLGSV,3,2,09,76,14,244,37,77,00,192,,84,34,089,34,86,,,40*52
$GLGSV,3,3,09,,,,34*6B
$AADPT,1.83,0.00*4A
$AADBT,6.0,f,1.83,M,1.0,F*2C
$AADBS,6.0,f,1.83,M,1.0,F*2B
$AAMTW,25.8,C*1C
$AAXDR,C,25.8,C,ENV_SEA_T*01
$GNGLL,3651.96817,S,17443.44021,E,034419.00,A,A*67
$GNZDA,034419.00,26,01,2018,00,00*7D
$AAMDA,,I,,B,,C,25.8,C,,,,C,,T,,M,,N,,M*0B
$AADPT,1.83,0.00*4A
$GNRMC,034420.00,A,3651.96828,S,17443.44026,E,0.655,189.91,260118,,,A*63
$GNVTG,189.91,T,,M,0.655,N,1.213,K,A*2C
$GNGGA,034420.00,3651.96828,S,17443.44026,E,1,12,0.71,13.3,M,28.1,M,,*6C
$GNGSA,A,3,02,13,05,12,29,06,,,,,,,1.23,0.71,1.00*10
$GNGSA,A,3,70,71,76,69,84,75,,,,,,,1.23,0.71,1.00*1A
$AADPT,1.78,0.00*4E
$AADBT,5.8,f,1.78,M,0.9,F*2B
$AADBS,5.8,f,1.78,M,0.9,F*2C
$AAMTW,25.8,C*1C
$AAXDR,C,25.8,C,ENV_SEA_T*01
