$GNRMC,024601.00,A,3651.98543,S,17443.44788,E,0.480,,310118,,,A*74
$AAMTW,26.2,C*15
$AAXDR,C,26.2,C,ENV_SEA_T*08
$AAMDA,,I,,B,,C,26.2,C,,,,C,,T,,M,,N,,M*02
$GNVTG,,T,,M,0.480,N,0.889,K,A*38
$GNGGA,024601.00,3651.98543,S,17443.44788,E,1,04,4.71,25.0,M,28.1,M,,*64
$GNGSA,A,3,02,05,12,06,,,,,,,,,5.66,4.71,3.14*1F
$GNGSA,A,3,,,,,,,,,,,,,5.66,4.71,3.14*1D
$GPGSV,2,1,06,02,55,136,39,05,76,023,42,06,22,116,35,12,50,322,36*75
$GPGSV,2,2,06,19,,,40,29,,,31*7A
$GLGSV,1,1,04,,,,43,,,,35,,,,44,,,,36*65
$GNGLL,3651.98543,S,17443.44788,E,024601.00,A,A*6B
$AAMTW,26.2,C*15
$AAXDR,C,26.2,C,ENV_SEA_T*08
$AAMDA,,I,,B,,C,26.2,C,,,,C,,T,,M,,N,,M*02
$GNZDA,024601.00,31,01,2018,00,00*71
$GNRMC,024602.00,A,3651.98596,S,17443.44751,E,0.174,,310118,,,A*75
$GNVTG,,T,,M,0.174,N,0.322,K,A*3C
$GNGGA,024602.00,3651.98596,S,17443.44751,E,1,04,4.71,24.5,M,28.1,M,,*6F
$AAMTW,26.2,C*15
$AAXDR,C,26.2,C,ENV_SEA_T*08
$AAMDA,,I,,B,,C,26.2,C,,,,C,,T,,M,,N,,M*02
$GNGSA,A,3,02,05,12,06,,,,,,,,,5.66,4.71,3.14*1F
$GNGSA,A,3,,,,,,,,,,,,,5.66,4.71,3.14*1D
$GPGSV,2,1,06,02,55,136,39,05,76,023,41,06,22,116,36,12,50,322,36*75
$GPGSV,2,2,06,19,,,36,29,,,31*7B
$GLGSV,1,1,04,,,,43,,,,45,,,,40,,,,38*68
$GNGLL,3651.98596,S,17443.44751,E,024602.00,A,A*64
$AAMTW,26.2,C*15
$AAXDR,C,26.2,C,ENV_SEA_T*08
$AAMDA,,I,,B,,C,26.2,C,,,,C,,T,,M,,N,,M*02
$GNZDA,024602.00,31,01,2018,00,00*72
$GNTXT,01,01,01,More
$GNRMC,024603.00,A,3651.98602,S,17443.44737,E,0.298,,310118,,,A*7B
$GNVTG,,T,,M,0.298,N,0.552,K,A*3C
$GNGGA,024603.00,3651.98602,S,17443.44737,E,1,04,4.71,24.2,M,28.1,M,,*67
$AAMTW,26.2,C*15
$AAXDR,C,26.2,C,ENV_SEA_T*08
$AAMDA,,I,,B,,C,26.2,C,,,,C,,T,,M,,N,,M*02
$GNGSA,A,3,02,05,12,06,,,,,,,,,5.67,4.71,3.14*1E
$GNGSA,A,3,,,,,,,,,,,,,5.67,4.71,3.14*1C
$GPGSV,2,1,06,02,55,136,41,05,76,023,41,06,22,115,36,12,50,322,35*7A
$GPGSV,2,2,06,19,,,36,29,,,32*78
$GLGSV,1,1,04,,,,41,,,,41,,,,43,,,,33*66
$GNGLL,3651.98602,S,17443.44737,E,024603.00,A,A*6B
$GNZDA,024603.00,31,01,2018,00,00*73
$AAMTW,26.2,C*15
$AAXDR,C,26.2,C,ENV_SEA_T*08
$AAMDA,,I,,B,,C,26.2,C,,,,C,,T,,M,,N,,M*02
$GNRMC,024604.00,A,3651.98631,S,17443.44679,E,0.424,,310118,,,A*76
$GNVTG,,T,,M,0.424,N,0.786,K,A*36
$GNGGA,024604.00,3651.98631,S,17443.44679,E,1,04,4.72,23.6,M,28.1,M,,*6B
$AAMTW,26.2,C*15
$AAXDR,C,26.2,C,ENV_SEA_T*08
$AAMDA,,I,,B,,C,26.2,C,,,,C,,T,,M,,N,,M*02
$GNGSA,A,3,02,05,12,06,,,,,,,,,5.67,4.72,3.14*1D
$GNGSA,A,3,,,,,,,,,,,,,5.67,4.72,3.14*1F
$GPGSV,2,1,06,02,55,136,41,05,76,023,41,06,22,115,36,12,50,322,39*76
$GPGSV,2,2,06,19,,,38,29,,,30*74
$GLGSV,1,1,04,,,,42,,,,38,,,,41,,,,37*6D
$GNGLL,3651.98631,S,17443.44679,E,024604.00,A,A*67
$AAMTW,26.2,C*15
$AAXDR,C,26.2,C,ENV_SEA_T*08
$AAMDA,,I,,B,,C,26.2,C,,,,C,,T,,M,,N,,M*02
$GNZDA,024604.00,31,01,2018,00,00*74
$GNTXT,01,01,01,More
$GNRMC,024605.00,A,3651.98633,S,17443.44662,E,0.743,,310118,,,A*7D
$GNVTG,,T,,M,0.743,N,1.376,K,A*3E
$GNGGA,024605.00,3651.98633,S,17443.44662,E,1,04,4.72,23.4,M,28.1,M,,*60
$AAMTW,26.2,C*15
$AAXDR,C,26.2,C,ENV_SEA_T*08
$AAMDA,,I,,B,,C,26.2,C,,,,C,,T,,M,,N,,M*02
$GNGSA,A,3,02,05,12,06,,,,,,,,,5.67,4.72,3.14*1D
$GNGSA,A,3,,,,,,,,,,,,,5.67,4.72,3.14*1F
$GPGSV,2,1,06,02,55,136,41,05,76,023,39,06,22,115,37,12,50,322,36*77
$GPGSV,2,2,06,19,,,37,29,,,30*7B
$GLGSV,1,1,04,,,,42,,,,40,,,,42,,,,34*62
$GNGLL,3651.98633,S,17443.44662,E,024605.00,A,A*6E
$GNZDA,024605.00,31,01,2018,00,00*75
$AAMTW,26.2,C*15
$AAXDR,C,26.2,C,ENV_SEA_T*08
$AAMDA,,I,,B,,C,26.2,C,,,,C,,T,,M,,N,,M*02
$GNRMC,024606.00,A,3651.98633,S,17443.44634,E,0.743,33.95,310118,,,A*5F
$GNVTG,33.95,T,,M,0.743,N,1.377,K,A*1D
$GNGGA,024606.00,3651.98633,S,17443.44634,E,1,04,4.72,23.0,M,28.1,M,,*64
$AAMTW,26.2,C*15
$AAXDR,C,26.2,C,ENV_SEA_T*08
$AAMDA,,I,,B,,C,26.2,C,,,,C,,T,,M,,N,,M*02
$GNGSA,A,3,02,05,12,06,,,,,,,,,5.67,4.72,3.14*1D
$GNGSA,A,3,,,,,,,,,,,,,5.67,4.72,3.14*1F
$GPGSV,2,1,06,02,55,136,42,05,76,023,38,06,22,115,38,12,50,322,40*7B
$GPGSV,2,2,06,19,,,36,29,,,23*78
$GLGSV,1,1,04,,,,39,,,,36,,,,40,,,,35*6C
$GNGLL,3651.98633,S,17443.44634,E,024606.00,A,A*6E
$AAMTW,26.2,C*15
$AAXDR,C,26.2,C,ENV_SEA_T*08
$AAMDA,,I,,B,,C,26.2,C,,,,C,,T,,M,,N,,M*02
$GNZDA,024606.00,31,01,2018,00,00*76
$GNTXT,01,01,01,More
$GNRMC,024607.00,A,3651.98642,S,17443.44619,E,0.506,,310118,,,A*76
$GNVTG,,T,,M,0.506,N,0.937,K,A*33
$GNGGA,024607.00,3651.98642,S,17443.44619,E,1,04,4.72,22.9,M,28.1,M,,*64
$AAMTW,26.2,C*15
$AAXDR,C,26.2,C,ENV_SEA_T*08
$AAMDA,,I,,B,,C,26.2,C,,,,C,,T,,M,,N,,M*02
$GNGSA,A,3,02,05,12,06,,,,,,,,,5.67,4.72,3.14*1D
$GNGSA,A,3,,,,,,,,,,,,,5.67,4.72,3.14*1F
$GPGSV,2,1,06,02,55,136,40,05,76,023,40,06,22,115,39,12,50,322,41*76
$GPGSV,2,2,06,19,,,37,29,,,25*7F
$GLGSV,1,1,04,,,,44,,,,44,,,,41,,,,34*63
$GNGLL,3651.98642,S,17443.44619,E,024607.00,A,A*66
$GNZDA,024607.00,31,01,2018,00,00*77
$AAMTW,26.2,C*15
$AAXDR,C,26.2,C,ENV_SEA_T*08
$AAMDA,,I,,B,,C,26.2,C,,,,C,,T,,M,,N,,M*02
$GNRMC,024608.00,A,3651.98635,S,17443.44637,E,0.841,,310118,,,A*7B
$GNVTG,,T,,M,0.841,N,1.558,K,A*39
$GNGGA,024608.00,3651.98635,S,17443.44637,E,1,04,4.72,22.7,M,28.1,M,,*69
$AAMTW,26.2,C*15
$AAXDR,C,26.2,C,ENV_SEA_T*08
$AAMDA,,I,,B,,C,26.2,C,,,,C,,T,,M,,N,,M*02
$GNGSA,A,3,02,05,12,06,,,,,,,,,5.67,4.72,3.14*1D
$GNGSA,A,3,,,,,,,,,,,,,5.67,4.72,3.14*1F
$GPGSV,2,1,06,02,55,136,39,05,76,023,42,06,22,115,39,12,50,322,40*7B
$GPGSV,2,2,06,19,,,32,29,,,24*7B
$GLGSV,1,1,04,,,,43,,,,44,,,,41,,,,38*68
$GNGLL,3651.98635,S,17443.44637,E,024608.00,A,A*65
$AAMTW,26.2,C*15
$AAXDR,C,26.2,C,ENV_SEA_T*08
$AAMDA,,I,,B,,C,26.2,C,,,,C,,T,,M,,N,,M*02
$GNZDA,024608.00,31,01,2018,00,00*78
$GNTXT,01,01,01,More
$GNRMC,024609.00,A,3651.98617,S,17443.44674,E,0.891,,310118,,,A*70
$GNVTG,,T,,M,0.891,N,1.651,K,A*3E
$GNGGA,024609.00,3651.98617,S,17443.44674,E,1,04,4.73,22.8,M,28.1,M,,*61
$AAMTW,26.2,C*15
$AAXDR,C,26.2,C,ENV_SEA_T*08
$AAMDA,,I,,B,,C,26.2,C,,,,C,,T,,M,,N,,M*02
$GNGSA,A,3,02,05,12,06,,,,,,,,,5.68,4.73,3.14*13
$GNGSA,A,3,,,,,,,,,,,,,5.68,4.73,3.14*11
$GPGSV,2,1,06,02,55,136,40,05,76,023,42,06,22,115,39,12,50,322,41*74
$GPGSV,2,2,06,19,,,37,29,,,25*7F
$GLGSV,1,1,04,,,,42,,,,45,,,,41,,,,38*68
$GNGLL,3651.98617,S,17443.44674,E,024609.00,A,A*63
$AAMTW,26.2,C*15
$GNZDA,024609.00,31,01,2018,00,00*79
$AAXDR,C,26.2,C,ENV_SEA_T*08
$AAMDA,,I,,B,,C,26.2,C,,,,C,,T,,M,,N,,M*02
$GNRMC,024610.00,A,3651.98602,S,17443.44695,E,1.084,44.01,310118,,,A*51
$AAMTW,26.2,C*15
$AAXDR,C,26.2,C,ENV_SEA_T*08
$AAMDA,,I,,B,,C,26.2,C,,,,C,,T,,M,,N,,M*02
$GNVTG,44.01,T,,M,1.084,N,2.007,K,A*1A
$GNGGA,024610.00,3651.98602,S,17443.44695,E,1,04,4.73,22.7,M,28.1,M,,*6D
$GNGSA,A,3,02,05,12,06,,,,,,,,,5.68,4.73,3.14*13
$GNGSA,A,3,,,,,,,,,,,,,5.68,4.73,3.14*11
$GPGSV,2,1,06,02,55,136,42,05,76,023,44,06,22,115,37,12,50,322,39*71
$GPGSV,2,2,06,19,,,37,29,,,32*79
$GLGSV,1,1,04,66,47,125,43,67,51,030,36,81,43,111,41,82,50,195,37*6C
$GNGLL,3651.98602,S,17443.44695,E,024610.00,A,A*60
$GNZDA,024610.00,31,01,2018,00,00*71
$AAMTW,26.2,C*15
$AAXDR,C,26.2,C,ENV_SEA_T*08
$AAMDA,,I,,B,,C,26.2,C,,,,C,,T,,M,,N,,M*02
$GNTXT,01,01,01,More
$GNRMC,024611.00,A,3651.98592,S,17443.44712,E,1.036,49.13,310118,,,A*53
$AAMTW,26.2,C*15
$GNVTG,49.13,T,,M,1.036,N,1.918,K,A*19
$AAXDR,C,26.2,C,ENV_SEA_T*08
$GNGGA,024611.00,3651.98592,S,17443.44712,E,1,04,4.73,22.6,M,28.1,M,,*69
$AAMDA,,I,,B,,C,26.2,C,,,,C,,T,,M,,N,,M*02
$GNGSA,A,3,02,05,12,06,,,,,,,,,5.68,4.73,3.14*13
$GNGSA,A,3,,,,,,,,,,,,,5.68,4.73,3.14*11
$GPGSV,2,1,06,02,55,136,41,05,76,023,41,06,22,115,40,12,50,322,41*78
$GPGSV,2,2,06,19,,,37,29,,,32*79
$GLGSV,1,1,04,66,47,125,43,67,51,030,33,81,43,111,41,82,50,195,42*6B
$AAMTW,26.2,C*15
$AAXDR,C,26.2,C,ENV_SEA_T*08
$AAMDA,,I,,B,,C,26.2,C,,,,C,,T,,M,,N,,M*02
$GNGLL,3651.98592,S,17443.44712,E,024611.00,A,A*65
$GNZDA,024611.00,31,01,2018,00,00*70
$GNRMC,024611.00,A,3651.98675,S,17443.44607,E,1.415,54.55,310118,,,A*57
$AAMTW,26.2,C*15
$AAXDR,C,26.2,C,ENV_SEA_T*08
$AAMDA,,I,,B,,C,26.2,C,,,,C,,T,,M,,N,,M*02
$GNVTG,54.55,T,,M,1.415,N,2.621,K,A*14
$GNGGA,024611.00,3651.98675,S,17443.44607,E,1,08,1.47,22.5,M,28.1,M,,*6B
$GNGSA,A,3,02,05,12,06,,,,,,,,,3.18,1.47,2.82*1E
$GNGSA,A,3,66,82,81,67,,,,,,,,,3.18,1.47,2.82*1E
$GPGSV,2,1,06,02,55,136,39,05,76,023,41,06,22,115,38,12,50,322,41*78
$GPGSV,2,2,06,19,,,39,29,,,25*71
$GLGSV,1,1,04,66,47,125,42,67,51,030,34,81,43,111,42,82,50,195,45*69
$GNGLL,3651.98675,S,17443.44607,E,024611.00,A,A*6A
$GNZDA,024611.00,31,01,2018,00,00*70
$AAMTW,26.2,C*15
$AAXDR,C,26.2,C,ENV_SEA_T*08
$AAMDA,,I,,B,,C,26.2,C,,,,C,,T,,M,,N,,M*02
$GNTXT,01,01,01,More
$GNRMC,024612.00,A,3651.98724,S,17443.44545,E,1.134,53.97,310118,,,A*5B
$AAMTW,26.2,C*15
$GNVTG,53.97,T,,M,1.134,N,2.099,K,A*1E
$AAXDR,C,26.2,C,ENV_SEA_T*08
$GNGGA,024612.00,3651.98724,S,17443.44545,E,1,08,1.47,22.3,M,28.1,M,,*6E
$AAMDA,,I,,B,,C,26.2,C,,,,C,,T,,M,,N,,M*02
$GNGSA,A,3,02,05,12,06,,,,,,,,,3.18,1.47,2.82*1E
$GNGSA,A,3,66,82,81,67,,,,,,,,,3.18,1.47,2.82*1E
$GPGSV,2,1,06,02,55,136,39,05,76,023,40,06,22,115,39,12,50,322,39*77
$GPGSV,2,2,06,19,,,37,29,,,24*7E
$GLGSV,1,1,04,66,47,125,42,67,51,030,34,81,43,111,40,82,50,195,43*6D
$AAMTW,26.2,C*15
$AAXDR,C,26.2,C,ENV_SEA_T*08
$AAMDA,,I,,B,,C,26.2,C,,,,C,,T,,M,,N,,M*02
$GNGLL,3651.98724,S,17443.44545,E,024612.00,A,A*69
$GNZDA,024612.00,31,01,2018,00,00*73
$GNRMC,024613.00,A,3651.98822,S,17443.44417,E,1.102,52.87,310118,,,A*50
$AAMTW,26.2,C*15
$AAXDR,C,26.2,C,ENV_SEA_T*08
$AAMDA,,I,,B,,C,26.2,C,,,,C,,T,,M,,N,,M*02
$GNVTG,52.87,T,,M,1.102,N,2.041,K,A*1E
$GNGGA,024613.00,3651.98822,S,17443.44417,E,1,08,1.47,22.0,M,28.1,M,,*63
$GNGSA,A,3,02,05,12,06,,,,,,,,,3.18,1.47,2.82*1E
$GNGSA,A,3,66,82,81,67,,,,,,,,,3.18,1.47,2.82*1E
$GPGSV,2,1,06,02,55,136,40,05,76,023,40,06,22,115,38,12,50,322,38*79
$GPGSV,2,2,06,19,,,37,29,,,30*7B
$GLGSV,1,1,04,66,47,125,42,67,51,030,34,81,43,111,41,82,50,195,40*6F
$GNGLL,3651.98822,S,17443.44417,E,024613.00,A,A*67
$GNZDA,024613.00,31,01,2018,00,00*72
$AAMTW,26.2,C*15
$AAXDR,C,26.2,C,ENV_SEA_T*08
$AAMDA,,I,,B,,C,26.2,C,,,,C,,T,,M,,N,,M*02
$GNTXT,01,01,01,More
$GNRMC,024614.00,A,3651.98874,S,17443.44355,E,1.131,55.34,310118,,,A*5A
$AAMTW,26.2,C*15
$AAXDR,C,26.2,C,ENV_SEA_T*08
$AAMDA,,I,,B,,C,26.2,C,,,,C,,T,,M,,N,,M*02
$GNVTG,55.34,T,,M,1.131,N,2.094,K,A*19
$GNGGA,024614.00,3651.98874,S,17443.44355,E,1,08,1.47,21.9,M,28.1,M,,*6C
$GNGSA,A,3,02,05,12,06,,,,,,,,,3.18,1.47,2.82*1E
$GNGSA,A,3,66,82,81,67,,,,,,,,,3.18,1.47,2.82*1E
$GPGSV,2,1,06,02,55,136,40,05,76,023,41,06,22,115,37,12,50,322,40*78
$GPGSV,2,2,06,19,,,39,29,,,23*77
$GLGSV,1,1,04,66,47,125,42,67,51,030,35,81,43,111,40,82,50,195,44*6B
$AAMTW,26.2,C*15
$AAXDR,C,26.2,C,ENV_SEA_T*08
$AAMDA,,I,,B,,C,26.2,C,,,,C,,T,,M,,N,,M*02
$GNGLL,3651.98874,S,17443.44355,E,024614.00,A,A*62
$GNZDA,024614.00,31,01,2018,00,00*75
$GNRMC,024615.00,A,3651.98931,S,17443.44293,E,0.992,60.61,310118,,,A*56
$AAMTW,26.2,C*15
$AAXDR,C,26.2,C,ENV_SEA_T*08
$AAMDA,,I,,B,,C,26.2,C,,,,C,,T,,M,,N,,M*02
$GNVTG,60.61,T,,M,0.992,N,1.838,K,A*12
$GNGGA,024615.00,3651.98931,S,17443.44293,E,1,08,1.47,21.7,M,28.1,M,,*68
$GNGSA,A,3,02,05,12,06,,,,,,,,,3.18,1.47,2.82*1E
$GNGSA,A,3,66,82,81,67,,,,,,,,,3.18,1.47,2.82*1E
$GPGSV,2,1,06,02,55,136,41,05,76,023,43,06,22,115,39,12,50,322,38*7A
$GPGSV,2,2,06,19,,,37,29,,,29*73
$GLGSV,1,1,04,66,47,125,43,67,51,030,35,81,43,111,41,82,50,195,43*6C
$GNGLL,3651.98931,S,17443.44293,E,024615.00,A,A*68
$GNZDA,024615.00,31,01,2018,00,00*74
$AADPT,1.42,0.00*47
$AADBT,4.6,f,1.42,M,0.7,F*23
$AADBS,4.6,f,1.42,M,0.7,F*24
$AAMTW,25.8,C*1C
$AAXDR,C,25.8,C,ENV_SEA_T*01
$AAMDA,,I,,B,,C,25.8,C,,,,C,,T,,M,,N,,M*0B
$AADPT,1.42,0.00*47
$GNTXT,01,01,01,More
$GNRMC,024616.00,A,3651.98922,S,17443.44307,E,0.834,58.01,310118,,,A*5B
$AADPT,1.42,0.00*47
$AADBT,4.6,f,1.42,M,0.7,F*23
$AADBS,4.6,f,1.42,M,0.7,F*24
$AAMTW,25.8,C*1C
$GNVTG,58.01,T,,M,0.834,N,1.545,K,A*15
$AAXDR,C,25.8,C,ENV_SEA_T*01
$GNGGA,024616.00,3651.98922,S,17443.44307,E,1,08,1.47,21.5,M,28.1,M,,*67
$AAMDA,,I,,B,,C,25.8,C,,,,C,,T,,M,,N,,M*0B
$AADPT,1.42,0.00*47
$GNGSA,A,3,02,05,12,06,,,,,,,,,3.18,1.47,2.82*1E
$GNGSA,A,3,66,82,81,67,,,,,,,,,3.18,1.47,2.82*1E
$GPGSV,2,1,06,02,55,136,42,05,76,023,42,06,22,115,39,12,50,322,38*78
$GPGSV,2,2,06,19,,,39,29,,,29*7D
$GLGSV,1,1,04,66,47,125,42,67,51,030,35,81,43,111,40,82,50,195,33*6B
$AADPT,1.40,0.00*45
$AADBT,4.5,f,1.40,M,0.7,F*22
$AADBS,4.5,f,1.40,M,0.7,F*25
$AAMTW,25.8,C*1C
$AAXDR,C,25.8,C,ENV_SEA_T*01
$AAMDA,,I,,B,,C,25.8,C,,,,C,,T,,M,,N,,M*0B
$AADPT,1.40,0.00*45
$GNGLL,3651.98922,S,17443.44307,E,024616.00,A,A*65
$GNZDA,024616.00,31,01,2018,00,00*77
$GNRMC,024617.00,A,3651.98976,S,17443.44255,E,1.012,66.29,310118,,,A*57
$AADPT,1.40,0.00*45
$AADBT,4.5,f,1.40,M,0.7,F*22
$AADBS,4.5,f,1.40,M,0.7,F*25
$AAMTW,25.8,C*1C
$AAXDR,C,25.8,C,ENV_SEA_T*01
$AAMDA,,I,,B,,C,25.8,C,,,,C,,T,,M,,N,,M*0B
$GNVTG,66.29,T,,M,1.012,N,1.874,K,A*10
$AADPT,1.40,0.00*45
$GNGGA,024617.00,3651.98976,S,17443.44255,E,1,08,1.47,21.5,M,28.1,M,,*61
$GNGSA,A,3,02,05,12,06,,,,,,,,,3.18,1.47,2.82*1E
$GNGSA,A,3,66,82,81,67,,,,,,,,,3.18,1.47,2.82*1E
$GPGSV,2,1,06,02,55,136,40,05,76,023,40,06,22,115,37,12,50,322,40*79
$GPGSV,2,2,06,19,,,38,29,,,23*76
$GLGSV,1,1,04,66,47,125,42,67,51,030,35,81,43,111,41,82,50,195,41*6F
$GNGLL,3651.98976,S,17443.44255,E,024617.00,A,A*63
$GNZDA,024617.00,31,01,2018,00,00*76
$AADPT,1.42,0.00*47
$AADBT,4.6,f,1.42,M,0.7,F*23
$AADBS,4.6,f,1.42,M,0.7,F*24
$AAMTW,25.8,C*1C
$AAXDR,C,25.8,C,ENV_SEA_T*01
$AAMDA,,I,,B,,C,25.8,C,,,,C,,T,,M,,N,,M*0B
$AADPT,1.42,0.00*47
$GNTXT,01,01,01,More
$GNRMC,024618.00,A,3651.99000,S,17443.44243,E,0.736,69.02,310118,,,A*50
$AADPT,1.42,0.00*47
$AADBT,4.6,f,1.42,M,0.7,F*23
$AADBS,4.6,f,1.42,M,0.7,F*24
$AAMTW,25.8,C*1C
$AAXDR,C,25.8,C,ENV_SEA_T*01
$AAMDA,,I,,B,,C,25.8,C,,,,C,,T,,M,,N,,M*0B
$AADPT,1.42,0.00*47
$GNVTG,69.02,T,,M,0.736,N,1.363,K,A*1B
$GNGGA,024618.00,3651.99000,S,17443.44243,E,1,08,1.47,21.4,M,28.1,M,,*61
$GNGSA,A,3,02,05,12,06,,,,,,,,,3.18,1.47,2.82*1E
$GNGSA,A,3,66,82,81,67,,,,,,,,,3.18,1.47,2.82*1E
$GPGSV,2,1,06,02,55,136,40,05,76,023,42,06,22,115,39,12,50,322,41*74
$GPGSV,2,2,06,19,,,37,29,,,30*7B
$GLGSV,1,1,04,66,47,125,43,67,51,030,33,81,43,111,41,82,50,195,43*6A
$AADPT,1.40,0.00*45
$AADBT,4.5,f,1.40,M,0.7,F*22
$AADBS,4.5,f,1.40,M,0.7,F*25
$AAMTW,25.8,C*1C
$AAXDR,C,25.8,C,ENV_SEA_T*01
$AAMDA,,I,,B,,C,25.8,C,,,,C,,T,,M,,N,,M*0B
$AADPT,1.40,0.00*45
$GNGLL,3651.99000,S,17443.44243,E,024618.00,A,A*62
$GNZDA,024618.00,31,01,2018,00,00*79
$GNRMC,024619.00,A,3651.98996,S,17443.44254,E,0.458,,310118,,,A*78
$AADPT,1.40,0.00*45
$AADBT,4.5,f,1.40,M,0.7,F*22
$AADBS,4.5,f,1.40,M,0.7,F*25
$AAMTW,25.8,C*1C
$AAXDR,C,25.8,C,ENV_SEA_T*01
$AAMDA,,I,,B,,C,25.8,C,,,,C,,T,,M,,N,,M*0B
$AADPT,1.40,0.00*45
$GNVTG,,T,,M,0.458,N,0.848,K,A*30
$GNGGA,024619.00,3651.98996,S,17443.44254,E,1,08,1.47,21.2,M,28.1,M,,*67
$GNGSA,A,3,02,05,12,06,,,,,,,,,3.18,1.47,2.82*1E
$GNGSA,A,3,66,82,81,67,,,,,,,,,3.18,1.47,2.82*1E
$GPGSV,2,1,07,02,55,136,41,05,76,023,43,06,22,115,40,09,,,37*46
$GPGSV,2,2,07,12,50,322,38,19,,,39,29,,,29*42
$GLGSV,1,1,04,66,47,125,42,67,51,030,36,81,43,111,41,82,50,195,35*6F
$GNGLL,3651.98996,S,17443.44254,E,024619.00,A,A*62
$GNZDA,024619.00,31,01,2018,00,00*78
$AADPT,1.42,0.00*47
$AADBT,4.6,f,1.42,M,0.7,F*23
$AADBS,4.6,f,1.42,M,0.7,F*24
$AAMTW,25.8,C*1C
$AAXDR,C,25.8,C,ENV_SEA_T*01
$AAMDA,,I,,B,,C,25.8,C,,,,C,,T,,M,,N,,M*0B
$AADPT,1.42,0.00*47
$GNTXT,01,01,01,More
$GNRMC,024620.00,A,3651.98997,S,17443.44258,E,0.783,54.64,310118,,,A*57
$AADPT,1.42,0.00*47
$AADBT,4.6,f,1.42,M,0.7,F*23
$AADBS,4.6,f,1.42,M,0.7,F*24
$AAMTW,25.8,C*1C
$AAXDR,C,25.8,C,ENV_SEA_T*01
$AAMDA,,I,,B,,C,25.8,C,,,,C,,T,,M,,N,,M*0B
$GNVTG,54.64,T,,M,0.783,N,1.450,K,A*1C
$AADPT,1.42,0.00*47
$GNGGA,024620.00,3651.98997,S,17443.44258,E,1,08,1.47,21.3,M,28.1,M,,*61
$GNGSA,A,3,02,05,12,06,,,,,,,,,3.18,1.47,2.82*1E
$GNGSA,A,3,66,82,81,67,,,,,,,,,3.18,1.47,2.82*1E
$GPGSV,2,1,07,02,55,136,43,05,76,023,44,06,22,115,42,09,,,33*45
$GPGSV,2,2,07,12,50,322,40,19,,,40,29,,,31*4A
$GLGSV,1,1,04,66,47,125,42,67,51,030,38,81,43,111,40,82,50,195,31*64
$AADPT,1.42,0.00*47
$AADBT,4.6,f,1.42,M,0.7,F*23
$AADBS,4.6,f,1.42,M,0.7,F*24
$AAMTW,25.8,C*1C
$AAXDR,C,25.8,C,ENV_SEA_T*01
$AAMDA,,I,,B,,C,25.8,C,,,,C,,T,,M,,N,,M*0B
$AADPT,1.42,0.00*47
$GNGLL,3651.98997,S,17443.44258,E,024620.00,A,A*65
$GNZDA,024620.00,31,01,2018,00,00*72
$GNRMC,024621.00,A,3651.99037,S,17443.44206,E,0.663,51.24,310118,,,A*51
$AADPT,1.42,0.00*47
$AADBT,4.6,f,1.42,M,0.7,F*23
$AADBS,4.6,f,1.42,M,0.7,F*24
$AAMTW,25.8,C*1C
$AAXDR,C,25.8,C,ENV_SEA_T*01
$AAMDA,,I,,B,,C,25.8,C,,,,C,,T,,M,,N,,M*0B
$AADPT,1.42,0.00*47
$GNVTG,51.24,T,,M,0.663,N,1.227,K,A*14
$GNGGA,024621.00,3651.99037,S,17443.44206,E,1,08,1.47,21.0,M,28.1,M,,*6A
$GNGSA,A,3,02,05,12,06,,,,,,,,,3.18,1.47,2.82*1E
$GNGSA,A,3,66,82,81,67,,,,,,,,,3.18,1.47,2.82*1E
$GPGSV,2,1,07,02,55,136,40,05,76,023,41,06,22,115,38,09,,,33*4E
$GPGSV,2,2,07,12,50,322,42,19,,,37,29,,,26*4E
$GLGSV,1,1,04,66,47,125,43,67,51,030,34,81,43,111,40,82,50,195,43*6C
$GNGLL,3651.99037,S,17443.44206,E,024621.00,A,A*6D
$AADPT,1.42,0.00*47
$GNZDA,024621.00,31,01,2018,00,00*73
$AADBT,4.6,f,1.42,M,0.7,F*23
$AADBS,4.6,f,1.42,M,0.7,F*24
$AAMTW,25.8,C*1C
$AAXDR,C,25.8,C,ENV_SEA_T*01
$AAMDA,,I,,B,,C,25.8,C,,,,C,,T,,M,,N,,M*0B
$AADPT,1.42,0.00*47
$GNTXT,01,01,01,More
$GNRMC,024622.00,A,3651.99045,S,17443.44182,E,0.632,,310118,,,A*70
$AADPT,1.42,0.00*47
$AADBT,4.6,f,1.42,M,0.7,F*23
$AADBS,4.6,f,1.42,M,0.7,F*24
$AAMTW,25.8,C*1C
$AAXDR,C,25.8,C,ENV_SEA_T*01
$AAMDA,,I,,B,,C,25.8,C,,,,C,,T,,M,,N,,M*0B
$AADPT,1.42,0.00*47
$GNVTG,,T,,M,0.632,N,1.171,K,A*3C
$GNGGA,024622.00,3651.99045,S,17443.44182,E,1,08,1.47,20.8,M,28.1,M,,*6A
$GNGSA,A,3,02,05,12,06,,,,,,,,,3.18,1.47,2.82*1E
$GNGSA,A,3,66,82,81,67,,,,,,,,,3.18,1.47,2.82*1E
$GPGSV,2,1,07,02,55,136,40,05,76,023,40,06,22,115,40,09,,,33*40
$GPGSV,2,2,07,12,50,322,39,19,,,37,29,,,26*42
$GLGSV,1,1,04,66,47,125,43,67,51,030,35,81,43,111,41,82,50,195,41*6E
$AADPT,1.51,0.00*45
$AADBT,4.9,f,1.51,M,0.8,F*21
$AADBS,4.9,f,1.51,M,0.8,F*26
$AAMTW,25.8,C*1C
$AAXDR,C,25.8,C,ENV_SEA_T*01
$AAMDA,,I,,B,,C,25.8,C,,,,C,,T,,M,,N,,M*0B
$AADPT,1.51,0.00*45
$GNGLL,3651.99045,S,17443.44182,E,024622.00,A,A*64
$GNZDA,024622.00,31,01,2018,00,00*70
$GNRMC,024623.00,A,3651.99023,S,17443.44203,E,0.181,,310118,,,A*74
$AADPT,1.51,0.00*45
$AADBT,4.9,f,1.51,M,0.8,F*21
$AADBS,4.9,f,1.51,M,0.8,F*26
$AAMTW,25.8,C*1C
$AAXDR,C,25.8,C,ENV_SEA_T*01
$AAMDA,,I,,B,,C,25.8,C,,,,C,,T,,M,,N,,M*0B
$AADPT,1.51,0.00*45
$GNVTG,,T,,M,0.181,N,0.335,K,A*30
$GNGGA,024623.00,3651.99023,S,17443.44203,E,1,08,1.47,20.8,M,28.1,M,,*61
$GNGSA,A,3,02,05,12,06,,,,,,,,,3.18,1.47,2.82*1E
$GNGSA,A,3,66,82,81,67,,,,,,,,,3.18,1.47,2.82*1E
$GPGSV,2,1,07,02,55,136,42,05,76,023,42,06,22,115,40,09,,,36*45
$GPGSV,2,2,07,12,50,322,40,19,,,35,29,,,27*4F
$GLGSV,1,1,04,66,47,125,42,67,51,030,35,81,43,111,42,82,50,195,41*6C
$AADPT,1.40,0.00*45
$GNGLL,3651.99023,S,17443.44203,E,024623.00,A,A*6F
$AADBT,4.5,f,1.40,M,0.7,F*22
$GNZDA,024623.00,31,01,2018,00,00*71
$AADBS,4.5,f,1.40,M,0.7,F*25
$AAMTW,25.8,C*1C
$AAXDR,C,25.8,C,ENV_SEA_T*01
$AAMDA,,I,,B,,C,25.8,C,,,,C,,T,,M,,N,,M*0B
$AADPT,1.40,0.00*45
$GNTXT,01,01,01,More
$GNRMC,024624.00,A,3651.99032,S,17443.44199,E,0.239,,310118,,,A*73
$AADPT,1.40,0.00*45
$AADBT,4.5,f,1.40,M,0.7,F*22
$AADBS,4.5,f,1.40,M,0.7,F*25
$AAMTW,25.8,C*1C
$AAXDR,C,25.8,C,ENV_SEA_T*01
$AAMDA,,I,,B,,C,25.8,C,,,,C,,T,,M,,N,,M*0B
$AADPT,1.40,0.00*45
$GNVTG,,T,,M,0.239,N,0.443,K,A*36
$GNGGA,024624.00,3651.99032,S,17443.44199,E,1,08,1.47,20.6,M,28.1,M,,*68
$GNGSA,A,3,02,05,12,06,,,,,,,,,3.18,1.47,2.82*1E
$GNGSA,A,3,66,82,81,67,,,,,,,,,3.18,1.47,2.82*1E
$GPGSV,2,1,07,02,55,136,39,05,76,023,43,06,22,115,39,09,,,34*44
$GPGSV,2,2,07,12,50,322,38,19,,,38,29,,,29*43
$GLGSV,1,1,04,66,47,125,43,67,51,030,35,81,43,111,41,82,50,195,44*6B
$AADPT,1.42,0.00*47
$AADBT,4.6,f,1.42,M,0.7,F*23
$AADBS,4.6,f,1.42,M,0.7,F*24
$AAMTW,25.8,C*1C
$AAXDR,C,25.8,C,ENV_SEA_T*01
$AAMDA,,I,,B,,C,25.8,C,,,,C,,T,,M,,N,,M*0B
$AADPT,1.42,0.00*47
$GNGLL,3651.99032,S,17443.44199,E,024624.00,A,A*68
$GNZDA,024624.00,31,01,2018,00,00*76
$AADPT,1.42,0.00*47
$GNRMC,024625.00,A,3651.99054,S,17443.44200,E,0.701,102.97,310118,,,A*6C
$AADBT,4.6,f,1.42,M,0.7,F*23
$AADBS,4.6,f,1.42,M,0.7,F*24
$AAMTW,25.8,C*1C
$AAXDR,C,25.8,C,ENV_SEA_T*01
$AAMDA,,I,,B,,C,25.8,C,,,,C,,T,,M,,N,,M*0B
$AADPT,1.42,0.00*47
$GNVTG,102.97,T,,M,0.701,N,1.298,K,A*2A
$GNGGA,024625.00,3651.99054,S,17443.44200,E,1,08,1.33,20.4,M,28.1,M,,*6B
$GNGSA,A,3,02,05,12,06,,,,,,,,,3.12,1.33,2.82*17
$GNGSA,A,3,66,82,81,67,,,,,,,,,3.12,1.33,2.82*17
$GPGSV,2,1,07,02,55,136,39,05,76,023,41,06,22,115,39,09,,,39*4B
$GPGSV,2,2,07,12,50,322,41,19,,,34,29,,,29*41
$GLGSV,1,1,04,66,47,125,44,67,51,030,37,81,43,111,42,82,50,195,45*6C
$AADPT,1.42,0.00*47
$AADBT,4.6,f,1.42,M,0.7,F*23
$AADBS,4.6,f,1.42,M,0.7,F*24
$GNGLL,3651.99054,S,17443.44200,E,024625.00,A,A*6A
$AAMTW,25.8,C*1C
$GNZDA,024625.00,31,01,2018,00,00*77
$AAXDR,C,25.8,C,ENV_SEA_T*01
$AAMDA,,I,,B,,C,25.8,C,,,,C,,T,,M,,N,,M*0B
$AADPT,1.42,0.00*47
$GNTXT,01,01,01,More
$GNRMC,024626.00,A,3651.99080,S,17443.44205,E,0.865,132.80,310118,,,A*6B
$AADPT,1.42,0.00*47
$AADBT,4.6,f,1.42,M,0.7,F*23
$AADBS,4.6,f,1.42,M,0.7,F*24
$AAMTW,25.8,C*1C
$AAXDR,C,25.8,C,ENV_SEA_T*01
$AAMDA,,I,,B,,C,25.8,C,,,,C,,T,,M,,N,,M*0B
$AADPT,1.42,0.00*47
$GNVTG,132.80,T,,M,0.865,N,1.601,K,A*26
$GNGGA,024626.00,3651.99080,S,17443.44205,E,1,08,1.33,20.1,M,28.1,M,,*61
$GNGSA,A,3,02,05,12,06,,,,,,,,,3.11,1.33,2.81*17
$GNGSA,A,3,66,82,81,67,,,,,,,,,3.11,1.33,2.81*17
$GPGSV,2,1,07,02,55,136,42,05,76,023,39,06,22,115,37,09,,,41*49
$GPGSV,2,2,07,12,50,322,32,19,,,30,29,,,40*4E
$GLGSV,1,1,04,66,47,125,38,67,51,030,29,81,43,111,37,82,50,195,42*6D
$AADPT,1.40,0.00*45
$AADBT,4.5,f,1.40,M,0.7,F*22
$AADBS,4.5,f,1.40,M,0.7,F*25
$AAMTW,25.8,C*1C
$AAXDR,C,25.8,C,ENV_SEA_T*01
$AAMDA,,I,,B,,C,25.8,C,,,,C,,T,,M,,N,,M*0B
$AADPT,1.40,0.00*45
$GNGLL,3651.99080,S,17443.44205,E,024626.00,A,A*65
$GNZDA,024626.00,31,01,2018,00,00*74
$AADPT,1.40,0.00*45
$AADBT,4.5,f,1.40,M,0.7,F*22
$GNRMC,024627.00,A,3651.99112,S,17443.44210,E,0.941,154.07,310118,,,A*6C
$AADBS,4.5,f,1.40,M,0.7,F*25
$AAMTW,25.8,C*1C
$AAXDR,C,25.8,C,ENV_SEA_T*01
$AAMDA,,I,,B,,C,25.8,C,,,,C,,T,,M,,N,,M*0B
$AADPT,1.40,0.00*45
$GNVTG,154.07,T,,M,0.941,N,1.743,K,A*29
$GNGGA,024627.00,3651.99112,S,17443.44210,E,1,08,1.33,20.0,M,28.1,M,,*6F
$GNGSA,A,3,02,05,12,06,,,,,,,,,3.11,1.33,2.81*17
$GNGSA,A,3,66,82,81,67,,,,,,,,,3.11,1.33,2.81*17
$GPGSV,2,1,07,02,55,136,35,05,76,023,39,06,22,115,34,09,,,31*4D
$GPGSV,2,2,07,12,50,322,27,19,,,31,29,,,34*48
$GLGSV,1,1,04,66,47,125,36,67,51,030,28,81,43,111,38,82,50,195,41*6E
$AADPT,1.40,0.00*45
$AADBT,4.5,f,1.40,M,0.7,F*22
$AADBS,4.5,f,1.40,M,0.7,F*25
$AAMTW,25.8,C*1C
$GNGLL,3651.99112,S,17443.44210,E,024627.00,A,A*6A
$GNZDA,024627.00,31,01,2018,00,00*75
$AAXDR,C,25.8,C,ENV_SEA_T*01
$AAMDA,,I,,B,,C,25.8,C,,,,C,,T,,M,,N,,M*0B
$AADPT,1.40,0.00*45
$GNTXT,01,01,01,More
$GNRMC,024628.00,A,3651.99138,S,17443.44196,E,0.799,170.28,310118,,,A*66
$AADPT,1.40,0.00*45
$AADBT,4.5,f,1.40,M,0.7,F*22
$AADBS,4.5,f,1.40,M,0.7,F*25
$AAMTW,25.8,C*1C
$AAXDR,C,25.8,C,ENV_SEA_T*01
$AAMDA,,I,,B,,C,25.8,C,,,,C,,T,,M,,N,,M*0B
$AADPT,1.40,0.00*45
$GNVTG,170.28,T,,M,0.799,N,1.479,K,A*23
$GNGGA,024628.00,3651.99138,S,17443.44196,E,1,08,1.33,19.4,M,28.1,M,,*6B
$GNGSA,A,3,02,05,12,06,,,,,,,,,3.11,1.33,2.81*17
$GNGSA,A,3,66,82,81,67,,,,,,,,,3.11,1.33,2.81*17
$GPGSV,2,1,07,02,55,136,38,05,76,023,37,06,22,115,24,09,,,23*4C
$GPGSV,2,2,07,12,50,322,45,19,,,38,29,,,44*42
$GLGSV,1,1,04,66,47,125,34,67,51,030,38,81,43,111,32,82,50,195,39*68
$AADPT,1.42,0.00*47
$AADBT,4.6,f,1.42,M,0.7,F*23
$AADBS,4.6,f,1.42,M,0.7,F*24
$AAMTW,25.8,C*1C
$AAXDR,C,25.8,C,ENV_SEA_T*01
$AAMDA,,I,,B,,C,25.8,C,,,,C,,T,,M,,N,,M*0B
$AADPT,1.42,0.00*47
$GNGLL,3651.99138,S,17443.44196,E,024628.00,A,A*60
$GNZDA,024628.00,31,01,2018,00,00*7A
$AADPT,1.42,0.00*47
$AADBT,4.6,f,1.42,M,0.7,F*23
$AADBS,4.6,f,1.42,M,0.7,F*24
$AAMTW,25.8,C*1C
$GNRMC,024629.00,A,3651.99158,S,17443.44193,E,0.718,186.73,310118,,,A*6A
$AAXDR,C,25.8,C,ENV_SEA_T*01
$AAMDA,,I,,B,,C,25.8,C,,,,C,,T,,M,,N,,M*0B
$AADPT,1.42,0.00*47
$GNVTG,186.73,T,,M,0.718,N,1.329,K,A*2F
$GNGGA,024629.00,3651.99158,S,17443.44193,E,1,08,1.33,19.5,M,28.1,M,,*68
$GNGSA,A,3,02,05,12,06,,,,,,,,,3.11,1.33,2.81*17
$GNGSA,A,3,66,82,81,67,,,,,,,,,3.11,1.33,2.81*17
$GPGSV,2,1,07,02,55,136,38,05,76,023,39,06,22,115,24,09,,,30*40
$GPGSV,2,2,07,12,50,322,43,19,,,32,29,,,40*4A
$GLGSV,1,1,04,66,47,125,36,67,51,030,27,81,43,111,33,82,50,195,36*6A
$AADPT,1.42,0.00*47
$AADBT,4.6,f,1.42,M,0.7,F*23
$AADBS,4.6,f,1.42,M,0.7,F*24
$AAMTW,25.8,C*1C
$AAXDR,C,25.8,C,ENV_SEA_T*01
$AAMDA,,I,,B,,C,25.8,C,,,,C,,T,,M,,N,,M*0B
$GNGLL,3651.99158,S,17443.44193,E,024629.00,A,A*62
$GNZDA,024629.00,31,01,2018,00,00*7B
$AADPT,1.42,0.00*47
$GNTXT,01,01,01,More
$AADPT,1.42,0.00*47
$AADBT,4.6,f,1.42,M,0.7,F*23
$GNRMC,024630.00,A,3651.99191,S,17443.44173,E,0.679,200.59,310118,,,A*6A
$AADBS,4.6,f,1.42,M,0.7,F*24
$AAMTW,25.8,C*1C
$AAXDR,C,25.8,C,ENV_SEA_T*01
$AAMDA,,I,,B,,C,25.8,C,,,,C,,T,,M,,N,,M*0B
$AADPT,1.42,0.00*47
$GNVTG,200.59,T,,M,0.679,N,1.257,K,A*24
$GNGGA,024630.00,3651.99191,S,17443.44173,E,1,08,1.33,19.7,M,28.1,M,,*69
$GNGSA,A,3,02,05,12,06,,,,,,,,,3.11,1.33,2.81*17
$GNGSA,A,3,66,82,81,67,,,,,,,,,3.11,1.33,2.81*17
$GPGSV,2,1,07,02,55,136,42,05,76,023,40,06,22,115,37,09,,,39*48
$GPGSV,2,2,07,12,50,322,40,19,,,31,29,,,39*44
$GLGSV,1,1,04,66,47,125,29,67,51,030,41,81,43,111,35,82,50,195,40*63
$AADPT,1.37,0.00*45
$AADBT,4.4,f,1.37,M,0.7,F*23
$AADBS,4.4,f,1.37,M,0.7,F*24
$AAMTW,25.8,C*1C
$AAXDR,C,25.8,C,ENV_SEA_T*01
$AAMDA,,I,,B,,C,25.8,C,,,,C,,T,,M,,N,,M*0B
$AADPT,1.37,0.00*45
$GNGLL,3651.99191,S,17443.44173,E,024630.00,A,A*61
$GNZDA,024630.00,31,01,2018,00,00*73
$AADPT,1.37,0.00*45
$AADBT,4.4,f,1.37,M,0.7,F*23
$AADBS,4.4,f,1.37,M,0.7,F*24
$AAMTW,25.8,C*1C
$AAXDR,C,25.8,C,ENV_SEA_T*01
$AAMDA,,I,,B,,C,25.8,C,,,,C,,T,,M,,N,,M*0B
$GNRMC,024631.00,A,3651.99209,S,17443.44146,E,0.399,,310118,,,A*74
$AADPT,1.37,0.00*45
$GNVTG,,T,,M,0.399,N,0.738,K,A*32
$GNGGA,024631.00,3651.99209,S,17443.44146,E,1,09,1.26,19.3,M,28.1,M,,*6D
$GNGSA,A,3,02,05,19,12,06,,,,,,,,2.46,1.26,2.11*11
$GNGSA,A,3,66,82,81,67,,,,,,,,,2.46,1.26,2.11*19
$GPGSV,2,1,07,02,55,136,35,05,76,023,43,06,22,115,35,09,,,34*44
$GPGSV,2,2,07,12,50,322,41,19,13,063,31,29,,,39*72
$GLGSV,2,1,05,66,47,125,43,67,51,030,43,79,01,331,,81,43,111,28*6B
$GLGSV,2,2,05,82,50,195,29*59
$AADPT,1.40,0.00*45
$AADBT,4.5,f,1.40,M,0.7,F*22
$AADBS,4.5,f,1.40,M,0.7,F*25
$AAMTW,25.8,C*1C
$AAXDR,C,25.8,C,ENV_SEA_T*01
$AAMDA,,I,,B,,C,25.8,C,,,,C,,T,,M,,N,,M*0B
$AADPT,1.40,0.00*45
$GNGLL,3651.99209,S,17443.44146,E,024631.00,A,A*64
$GNZDA,024631.00,31,01,2018,00,00*72
$GNTXT,01,01,01,More
$AADPT,1.40,0.00*45
$AADBT,4.5,f,1.40,M,0.7,F*22
$AADBS,4.5,f,1.40,M,0.7,F*25
$GNRMC,024632.00,A,3651.99212,S,17443.44111,E,0.675,214.66,310118,,,A*61
$AAMTW,25.8,C*1C
$AAXDR,C,25.8,C,ENV_SEA_T*01
$AAMDA,,I,,B,,C,25.8,C,,,,C,,T,,M,,N,,M*0B
$AADPT,1.40,0.00*45
$GNVTG,214.66,T,,M,0.675,N,1.250,K,A*26
$GNGGA,024632.00,3651.99212,S,17443.44111,E,1,09,1.26,18.8,M,28.1,M,,*6C
$GNGSA,A,3,02,05,19,12,06,,,,,,,,2.46,1.26,2.11*11
$GNGSA,A,3,66,82,81,67,,,,,,,,,2.46,1.26,2.11*19
$GPGSV,2,1,08,02,55,136,35,05,76,023,44,06,22,115,30,09,,,31*4C
$GPGSV,2,2,08,12,50,322,40,19,13,063,37,20,,,38,29,,,35*7F
$GLGSV,2,1,05,66,47,125,30,67,51,030,40,79,01,331,,81,43,111,30*65
$AADPT,1.37,0.00*45
$AADBT,4.4,f,1.37,M,0.7,F*23
$AADBS,4.4,f,1.37,M,0.7,F*24
$AAMTW,25.8,C*1C
$AAXDR,C,25.8,C,ENV_SEA_T*01
$GLGSV,2,2,05,82,50,195,25*55
$AAMDA,,I,,B,,C,25.8,C,,,,C,,T,,M,,N,,M*0B
$GNGLL,3651.99212,S,17443.44111,E,024632.00,A,A*6F
$AADPT,1.37,0.00*45
$GNZDA,024632.00,31,01,2018,00,00*71
$AADPT,1.37,0.00*45
$AADBT,4.4,f,1.37,M,0.7,F*23
$AADBS,4.4,f,1.37,M,0.7,F*24
$AAMTW,25.8,C*1C
$GNRMC,024633.00,A,3651.99226,S,17443.44093,E,0.735,215.93,310118,,,A*62
$AAXDR,C,25.8,C,ENV_SEA_T*01
$AAMDA,,I,,B,,C,25.8,C,,,,C,,T,,M,,N,,M*0B
$AADPT,1.37,0.00*45
$GNVTG,215.93,T,,M,0.735,N,1.360,K,A*2A
$GNGGA,024633.00,3651.99226,S,17443.44093,E,1,09,1.26,18.7,M,28.1,M,,*6E
$GNGSA,A,3,02,05,19,12,06,,,,,,,,2.46,1.26,2.11*11
$GNGSA,A,3,66,82,81,67,,,,,,,,,2.46,1.26,2.11*19
$GPGSV,2,1,08,02,55,136,31,05,76,023,45,06,22,115,25,09,,,23*4E
$GPGSV,2,2,08,12,50,322,34,19,13,063,35,20,,,38,29,,,34*7F
$GLGSV,2,1,05,66,47,125,31,67,51,030,40,79,01,331,,81,43,111,39*6D
$AADPT,1.34,0.00*46
$AADBT,4.3,f,1.34,M,0.7,F*27
$AADBS,4.3,f,1.34,M,0.7,F*20
$AAMTW,25.8,C*1C
$AAXDR,C,25.8,C,ENV_SEA_T*01
$AAMDA,,I,,B,,C,25.8,C,,,,C,,T,,M,,N,,M*0B
$AADPT,1.34,0.00*46
$GLGSV,2,2,05,82,50,195,31*50
$GNGLL,3651.99226,S,17443.44093,E,024633.00,A,A*62
$GNZDA,024633.00,31,01,2018,00,00*70
$GNTXT,01,01,01,More
$AADPT,1.34,0.00*46
$AADBT,4.3,f,1.34,M,0.7,F*27
$AADBS,4.3,f,1.34,M,0.7,F*20
$AAMTW,25.8,C*1C
$AAXDR,C,25.8,C,ENV_SEA_T*01
$AAMDA,,I,,B,,C,25.8,C,,,,C,,T,,M,,N,,M*0B
$GNRMC,024634.00,A,3651.99241,S,17443.44075,E,0.645,209.13,310118,,,A*6F
$AADPT,1.34,0.00*46
$GNVTG,209.13,T,,M,0.645,N,1.195,K,A*21
$GNGGA,024634.00,3651.99241,S,17443.44075,E,1,09,1.26,18.3,M,28.1,M,,*64
$GNGSA,A,3,02,05,19,12,06,,,,,,,,2.46,1.26,2.11*11
$GNGSA,A,3,66,82,81,67,,,,,,,,,2.46,1.26,2.11*19
$GPGSV,2,1,08,02,55,136,30,05,76,023,45,06,22,115,29,09,,,26*46
$GPGSV,2,2,08,12,50,322,37,19,13,063,38,20,,,38,29,,,32*77
$GLGSV,2,1,05,66,47,125,35,67,51,030,40,79,01,331,,81,43,111,38*68
$AADPT,1.31,0.00*43
$AADBT,4.2,f,1.31,M,0.7,F*23
$AADBS,4.2,f,1.31,M,0.7,F*24
$AAMTW,25.8,C*1C
$AAXDR,C,25.8,C,ENV_SEA_T*01
$AAMDA,,I,,B,,C,25.8,C,,,,C,,T,,M,,N,,M*0B
$AADPT,1.31,0.00*43
$GLGSV,2,2,05,82,50,195,34*55
$GNGLL,3651.99241,S,17443.44075,E,024634.00,A,A*6C
$GNZDA,024634.00,31,01,2018,00,00*77
$AADPT,1.31,0.00*43
$AADBT,4.2,f,1.31,M,0.7,F*23
$AADBS,4.2,f,1.31,M,0.7,F*24
$AAMTW,25.8,C*1C
$AAXDR,C,25.8,C,ENV_SEA_T*01
$GNRMC,024635.00,A,3651.99251,S,17443.44063,E,0.617,207.22,310118,,,A*63
$AAMDA,,I,,B,,C,25.8,C,,,,C,,T,,M,,N,,M*0B
$AADPT,1.31,0.00*43
$GNVTG,207.22,T,,M,0.617,N,1.143,K,A*21
$GNGGA,024635.00,3651.99251,S,17443.44063,E,1,09,1.26,17.9,M,28.1,M,,*66
$GNGSA,A,3,02,05,19,12,06,,,,,,,,2.46,1.26,2.11*11
$GNGSA,A,3,66,82,81,67,,,,,,,,,2.46,1.26,2.11*19
$GPGSV,2,1,08,02,55,136,34,05,76,023,44,06,22,115,29,09,,,28*4D
$GPGSV,2,2,08,12,50,322,37,19,13,063,38,20,,,39,29,,,33*77
$GLGSV,2,1,05,66,47,125,36,67,51,030,40,79,01,331,,81,43,111,39*6A
$AADPT,1.34,0.00*46
$AADBT,4.3,f,1.34,M,0.7,F*27
$AADBS,4.3,f,1.34,M,0.7,F*20
$AAMTW,25.8,C*1C
$AAXDR,C,25.8,C,ENV_SEA_T*01
$AAMDA,,I,,B,,C,25.8,C,,,,C,,T,,M,,N,,M*0B
$AADPT,1.34,0.00*46
$GLGSV,2,2,05,82,50,195,29*59
$GNGLL,3651.99251,S,17443.44063,E,024635.00,A,A*6B
$GNZDA,024635.00,31,01,2018,00,00*76
$GNTXT,01,01,01,More
$AADPT,1.34,0.00*46
$AADBT,4.3,f,1.34,M,0.7,F*27
$AADBS,4.3,f,1.34,M,0.7,F*20
$AAMTW,25.8,C*1C
$AAXDR,C,25.8,C,ENV_SEA_T*01
$GNRMC,024636.00,A,3651.99268,S,17443.44053,E,0.769,199.41,310118,,,A*60
$AAMDA,,I,,B,,C,25.8,C,,,,C,,T,,M,,N,,M*0B
$AADPT,1.34,0.00*46
$GNVTG,199.41,T,,M,0.769,N,1.425,K,A*2D
$GNGGA,024636.00,3651.99268,S,17443.44053,E,1,09,1.26,17.7,M,28.1,M,,*62
$GNGSA,A,3,02,05,19,12,06,,,,,,,,2.46,1.26,2.11*11
$GNGSA,A,3,66,82,81,67,,,,,,,,,2.46,1.26,2.11*19
$GPGSV,2,1,08,02,55,136,34,05,76,023,44,06,22,115,28,09,,,26*42
$GPGSV,2,2,08,12,50,322,35,19,13,063,35,20,,,38,29,,,33*79
$GLGSV,2,1,05,66,47,125,36,67,51,030,40,79,01,331,,81,43,111,39*6A
$AADPT,1.28,0.00*4B
$AADBT,4.1,f,1.28,M,0.6,F*29
$AADBS,4.1,f,1.28,M,0.6,F*2E
$AAMTW,25.8,C*1C
$AAXDR,C,25.8,C,ENV_SEA_T*01
$AAMDA,,I,,B,,C,25.8,C,,,,C,,T,,M,,N,,M*0B
$AADPT,1.28,0.00*4B
$GLGSV,2,2,05,82,50,195,33*52
$GNGLL,3651.99268,S,17443.44053,E,024636.00,A,A*61
$GNZDA,024636.00,31,01,2018,00,00*75
$AADPT,1.28,0.00*4B
$AADBT,4.1,f,1.28,M,0.6,F*29
$AADBS,4.1,f,1.28,M,0.6,F*2E
$AAMTW,25.8,C*1C
$AAXDR,C,25.8,C,ENV_SEA_T*01
$AAMDA,,I,,B,,C,25.8,C,,,,C,,T,,M,,N,,M*0B
$GNRMC,024637.00,A,3651.99286,S,17443.44031,E,0.997,198.66,310118,,,A*6E
$AADPT,1.28,0.00*4B
$GNVTG,198.66,T,,M,0.997,N,1.847,K,A*2E
$GNGGA,024637.00,3651.99286,S,17443.44031,E,1,09,1.26,17.1,M,28.1,M,,*61
$GNGSA,A,3,02,05,19,12,06,,,,,,,,2.46,1.26,2.11*11
$GNGSA,A,3,66,82,81,67,,,,,,,,,2.46,1.26,2.11*19
$GPGSV,2,1,08,02,55,136,30,05,76,023,45,06,22,115,33,09,,,34*4E
$GPGSV,2,2,08,12,50,322,44,19,13,063,37,20,,,39,29,,,40*78
$GLGSV,2,1,05,66,47,125,40,67,51,030,40,79,01,331,,81,43,111,22*61
$AADPT,1.19,0.00*49
$AADBT,3.9,f,1.19,M,0.6,F*24
$AADBS,3.9,f,1.19,M,0.6,F*23
$AAMTW,25.8,C*1C
$AAXDR,C,25.8,C,ENV_SEA_T*01
$AAMDA,,I,,B,,C,25.8,C,,,,C,,T,,M,,N,,M*0B
$AADPT,1.19,0.00*49
$GLGSV,2,2,05,82,50,195,34*55
$GNGLL,3651.99286,S,17443.44031,E,024637.00,A,A*64
$GNZDA,024637.00,31,01,2018,00,00*74
$GNTXT,01,01,01,More
$AADPT,1.19,0.00*49
$AADBT,3.9,f,1.19,M,0.6,F*24
$AADBS,3.9,f,1.19,M,0.6,F*23
$AAMTW,25.8,C*1C
$AAXDR,C,25.8,C,ENV_SEA_T*01
$AAMDA,,I,,B,,C,25.8,C,,,,C,,T,,M,,N,,M*0B
$AADPT,1.19,0.00*49
$GNRMC,024638.00,A,3651.99308,S,17443.44001,E,1.109,195.45,310118,,,A*67
$GNVTG,195.45,T,,M,1.109,N,2.053,K,A*22
$GNGGA,024638.00,3651.99308,S,17443.44001,E,1,09,1.26,16.6,M,28.1,M,,*6C
$GNGSA,A,3,02,05,19,12,06,,,,,,,,2.46,1.26,2.11*11
$GNGSA,A,3,66,82,81,67,,,,,,,,,2.46,1.26,2.11*19
$GPGSV,2,1,08,02,55,136,42,05,76,023,41,06,22,115,38,09,,,37*47
$GPGSV,2,2,08,12,50,322,39,19,13,063,34,20,,,38,29,,,38*7F
$GLGSV,2,1,05,66,47,125,24,67,51,030,44,79,01,331,,81,43,111,36*62
$AADPT,1.14,0.00*44
$AADBT,3.7,f,1.14,M,0.6,F*27
$AADBS,3.7,f,1.14,M,0.6,F*20
$AAMTW,25.8,C*1C
$AAXDR,C,25.8,C,ENV_SEA_T*01
$AAMDA,,I,,B,,C,25.8,C,,,,C,,T,,M,,N,,M*0B
$AADPT,1.14,0.00*44
$GLGSV,2,2,05,82,50,195,39*58
$GNGLL,3651.99308,S,17443.44001,E,024638.00,A,A*6F
$GNZDA,024638.00,31,01,2018,00,00*7B
$AADPT,1.14,0.00*44
$AADBT,3.7,f,1.14,M,0.6,F*27
$AADBS,3.7,f,1.14,M,0.6,F*20
$AAMTW,25.8,C*1C
$AAXDR,C,25.8,C,ENV_SEA_T*01
$AAMDA,,I,,B,,C,25.8,C,,,,C,,T,,M,,N,,M*0B
$AADPT,1.14,0.00*44
$GNRMC,024639.00,A,3651.99328,S,17443.43987,E,1.045,194.35,310118,,,A*6B
$GNVTG,194.35,T,,M,1.045,N,1.936,K,A*24
$GNGGA,024639.00,3651.99328,S,17443.43987,E,1,09,1.26,16.3,M,28.1,M,,*6A
$GNGSA,A,3,02,05,19,12,06,,,,,,,,2.45,1.26,2.11*12
$GNGSA,A,3,66,82,81,67,,,,,,,,,2.45,1.26,2.11*1A
$GPGSV,2,1,08,02,55,136,38,05,76,023,38,06,22,115,22,09,,,30*48
$GPGSV,2,2,08,12,50,322,43,19,13,063,35,20,,,41,29,,,39*7C
$GLGSV,2,1,05,66,47,125,34,67,51,030,32,79,01,331,,81,43,111,36*62
$AADPT,1.08,0.00*49
$AADBT,3.5,f,1.08,M,0.5,F*2B
$AADBS,3.5,f,1.08,M,0.5,F*2C
$AAMTW,25.8,C*1C
$AAXDR,C,25.8,C,ENV_SEA_T*01
$AAMDA,,I,,B,,C,25.8,C,,,,C,,T,,M,,N,,M*0B
$AADPT,1.08,0.00*49
$GLGSV,2,2,05,82,50,195,37*56
$GNGLL,3651.99328,S,17443.43987,E,024639.00,A,A*6C
$GNZDA,024639.00,31,01,2018,00,00*7A
$GNTXT,01,01,01,More
$AADPT,1.08,0.00*49
$AADBT,3.5,f,1.08,M,0.5,F*2B
$AADBS,3.5,f,1.08,M,0.5,F*2C
$AAMTW,25.8,C*1C
$AAXDR,C,25.8,C,ENV_SEA_T*01
$AAMDA,,I,,B,,C,25.8,C,,,,C,,T,,M,,N,,M*0B
$AADPT,1.08,0.00*49
$GNRMC,024640.00,A,3651.99351,S,17443.43973,E,0.480,,310118,,,A*78
$GNVTG,,T,,M,0.480,N,0.890,K,A*30
$GNGGA,024640.00,3651.99351,S,17443.43973,E,1,09,1.26,16.1,M,28.1,M,,*63
$GNGSA,A,3,02,05,19,12,06,,,,,,,,2.45,1.26,2.11*12
$GNGSA,A,3,66,82,81,67,,,,,,,,,2.45,1.26,2.11*1A
$GPGSV,2,1,08,02,55,136,35,05,76,023,41,06,22,115,34,09,,,25*48
$GPGSV,2,2,08,12,50,322,36,19,13,063,35,20,,,22,29,,,35*77
$GLGSV,2,1,05,66,47,125,38,67,51,030,28,79,01,331,,81,43,111,36*65
$AADPT,1.05,0.00*44
$AADBT,3.4,f,1.05,M,0.5,F*27
$AADBS,3.4,f,1.05,M,0.5,F*20
$AAMTW,25.8,C*1C
$AAXDR,C,25.8,C,ENV_SEA_T*01
$AAMDA,,I,,B,,C,25.8,C,,,,C,,T,,M,,N,,M*0B
$AADPT,1.05,0.00*44
$GLGSV,2,2,05,82,50,195,42*54
$GNGLL,3651.99351,S,17443.43973,E,024640.00,A,A*67
$GNZDA,024640.00,31,01,2018,00,00*74
$AADPT,1.05,0.00*44
$AADBT,3.4,f,1.05,M,0.5,F*27
$AADBS,3.4,f,1.05,M,0.5,F*20
$AAMTW,25.8,C*1C
$AAXDR,C,25.8,C,ENV_SEA_T*01
$AAMDA,,I,,B,,C,25.8,C,,,,C,,T,,M,,N,,M*0B
$AADPT,1.05,0.00*44
$GNRMC,024641.00,A,3651.99376,S,17443.43933,E,1.266,236.91,310118,,,A*66
$GNVTG,236.91,T,,M,1.266,N,2.345,K,A*2F
$GNGGA,024641.00,3651.99376,S,17443.43933,E,1,09,1.26,15.7,M,28.1,M,,*66
$GNGSA,A,3,02,05,19,12,06,,,,,,,,2.45,1.26,2.11*12
$GNGSA,A,3,66,82,81,67,,,,,,,,,2.45,1.26,2.11*1A
$GPGSV,3,1,09,02,54,135,40,05,76,023,38,06,22,115,39,09,,,33*4C
$GPGSV,3,2,09,12,50,322,43,19,13,063,31,20,,,28,25,,,19*79
$GPGSV,3,3,09,29,,,40*7F
$AADPT,0.96,0.00*4F
$AADBT,3.1,f,0.96,M,0.5,F*29
$AADBS,3.1,f,0.96,M,0.5,F*2E
$AAMTW,25.8,C*1C
$AAXDR,C,25.8,C,ENV_SEA_T*01
$AAMDA,,I,,B,,C,25.8,C,,,,C,,T,,M,,N,,M*0B
$AADPT,0.96,0.00*4F
$GLGSV,2,1,05,66,47,125,43,67,51,030,40,79,01,331,,81,43,111,39*68
$GLGSV,2,2,05,82,50,195,41*57
$GNGLL,3651.99376,S,17443.43933,E,024641.00,A,A*67
$GNZDA,024641.00,31,01,2018,00,00*75
$GNTXT,01,01,01,More
$AADPT,0.96,0.00*4F
$AADBT,3.1,f,0.96,M,0.5,F*29
$AADBS,3.1,f,0.96,M,0.5,F*2E
$AAMTW,25.8,C*1C
$AAXDR,C,25.8,C,ENV_SEA_T*01
$AAMDA,,I,,B,,C,25.8,C,,,,C,,T,,M,,N,,M*0B
$AADPT,0.96,0.00*4F
$GNRMC,024642.00,A,3651.99386,S,17443.43887,E,1.138,243.15,310118,,,A*62
$GNVTG,243.15,T,,M,1.138,N,2.108,K,A*22
$GNGGA,024642.00,3651.99386,S,17443.43887,E,1,09,1.26,15.6,M,28.1,M,,*65
$GNGSA,A,3,02,05,19,12,06,,,,,,,,2.45,1.26,2.11*12
$GNGSA,A,3,66,82,81,67,,,,,,,,,2.45,1.26,2.11*1A
$GPGSV,2,1,08,02,54,135,41,05,76,024,40,06,22,115,36,09,,,33*4A
$GPGSV,2,2,08,12,50,322,42,19,13,063,30,20,,,35,29,,,41*74
$GLGSV,2,1,05,66,47,125,42,67,51,030,36,79,01,331,,81,43,111,39*68
$AADPT,0.90,0.00*49
$AADBT,2.9,f,0.90,M,0.4,F*27
$AADBS,2.9,f,0.90,M,0.4,F*20
$AAMTW,25.8,C*1C
$AAXDR,C,25.8,C,ENV_SEA_T*01
$AAMDA,,I,,B,,C,25.8,C,,,,C,,T,,M,,N,,M*0B
$AADPT,0.90,0.00*49
$GLGSV,2,2,05,82,50,195,43*55
$GNGLL,3651.99386,S,17443.43887,E,024642.00,A,A*65
$GNZDA,024642.00,31,01,2018,00,00*76
$AADPT,0.90,0.00*49
$AADBT,2.9,f,0.90,M,0.4,F*27
$AADBS,2.9,f,0.90,M,0.4,F*20
$AAMTW,25.8,C*1C
$AAXDR,C,25.8,C,ENV_SEA_T*01
$AAMDA,,I,,B,,C,25.8,C,,,,C,,T,,M,,N,,M*0B
$AADPT,0.90,0.00*49
$GNRMC,024643.00,A,3651.99394,S,17443.43852,E,1.111,244.68,310118,,,A*6E
$GNVTG,244.68,T,,M,1.111,N,2.058,K,A*20
$GNGGA,024643.00,3651.99394,S,17443.43852,E,1,09,1.26,15.7,M,28.1,M,,*6E
$GNGSA,A,3,02,05,19,12,06,,,,,,,,2.45,1.26,2.11*12
$GNGSA,A,3,66,82,81,67,,,,,,,,,2.45,1.26,2.11*1A
$GPGSV,2,1,08,02,54,135,40,05,76,024,39,06,22,115,36,12,50,322,38*72
$GPGSV,2,2,08,19,13,063,28,20,,,36,25,,,37,29,,,42*4D
$GLGSV,2,1,05,66,47,125,34,67,51,030,29,79,01,331,,81,43,111,27*68
$AADPT,0.75,0.00*42
$AADBT,2.4,f,0.75,M,0.4,F*21
$AADBS,2.4,f,0.75,M,0.4,F*26
$AAMTW,25.8,C*1C
$AAXDR,C,25.8,C,ENV_SEA_T*01
$AAMDA,,I,,B,,C,25.8,C,,,,C,,T,,M,,N,,M*0B
$AADPT,0.75,0.00*42
$GLGSV,2,2,05,82,50,195,42*54
$GNGLL,3651.99394,S,17443.43852,E,024643.00,A,A*6F
$GNZDA,024643.00,31,01,2018,00,00*77
$GNTXT,01,01,01,More
$AADPT,0.75,0.00*42
$AADBT,2.4,f,0.75,M,0.4,F*21
$AADBS,2.4,f,0.75,M,0.4,F*26
$AAMTW,25.8,C*1C
$AAXDR,C,25.8,C,ENV_SEA_T*01
$AAMDA,,I,,B,,C,25.8,C,,,,C,,T,,M,,N,,M*0B
$AADPT,0.75,0.00*42
$GNRMC,024644.00,A,3651.99400,S,17443.43821,E,1.027,248.54,310118,,,A*60
$GNVTG,248.54,T,,M,1.027,N,1.903,K,A*23
$GNGGA,024644.00,3651.99400,S,17443.43821,E,1,09,1.26,15.9,M,28.1,M,,*69
$GNGSA,A,3,02,05,19,12,06,,,,,,,,2.45,1.26,2.11*12
$GNGSA,A,3,66,82,81,67,,,,,,,,,2.45,1.26,2.11*1A
$GPGSV,2,1,08,02,54,135,39,05,76,024,39,06,22,115,31,12,50,322,41*75
$GPGSV,2,2,08,19,13,063,30,20,,,32,25,,,38,29,,,44*49
$GLGSV,2,1,05,66,47,125,35,67,51,030,30,79,01,331,,81,43,111,28*6E
$AADPT,0.75,0.00*42
$AADBT,2.4,f,0.75,M,0.4,F*21
$AADBS,2.4,f,0.75,M,0.4,F*26
$AAMTW,25.8,C*1C
$AAXDR,C,25.8,C,ENV_SEA_T*01
$AAMDA,,I,,B,,C,25.8,C,,,,C,,T,,M,,N,,M*0B
$AADPT,0.75,0.00*42
$GLGSV,2,2,05,82,50,195,39*58
$GNGLL,3651.99400,S,17443.43821,E,024644.00,A,A*66
$GNZDA,024644.00,31,01,2018,00,00*70
$AADPT,0.75,0.00*42
$AADBT,2.4,f,0.75,M,0.4,F*21
$AADBS,2.4,f,0.75,M,0.4,F*26
$AAMTW,25.8,C*1C
$AAXDR,C,25.8,C,ENV_SEA_T*01
$AAMDA,,I,,B,,C,25.8,C,,,,C,,T,,M,,N,,M*0B
$AADPT,0.75,0.00*42
$GNRMC,024645.00,A,3651.99404,S,17443.43804,E,0.723,249.53,310118,,,A*66
$GNVTG,249.53,T,,M,0.723,N,1.339,K,A*24
$GNGGA,024645.00,3651.99404,S,17443.43804,E,1,09,1.26,16.4,M,28.1,M,,*65
$GNGSA,A,3,02,05,19,12,06,,,,,,,,2.45,1.26,2.11*12
$GNGSA,A,3,66,82,81,67,,,,,,,,,2.45,1.26,2.11*1A
$GPGSV,2,1,08,02,54,135,32,05,76,024,41,06,22,115,29,12,50,322,38*76
$AADPT,0.75,0.00*42
$GPGSV,2,2,08,19,13,063,29,20,,,32,25,,,38,29,,,44*41
$AADBT,2.4,f,0.75,M,0.4,F*21
$GLGSV,2,1,06,66,47,125,38,67,51,030,30,79,01,331,,80,21,276,*6D
$AADBS,2.4,f,0.75,M,0.4,F*26
$AAMTW,25.8,C*1C
$AAXDR,C,25.8,C,ENV_SEA_T*01
$AAMDA,,I,,B,,C,25.8,C,,,,C,,T,,M,,N,,M*0B
$AADPT,0.75,0.00*42
$GLGSV,2,2,06,81,43,111,35,82,50,195,41*6D
$GNGLL,3651.99404,S,17443.43804,E,024645.00,A,A*64
$GNZDA,024645.00,31,01,2018,00,00*71
$GNTXT,01,01,01,More
$AADPT,0.75,0.00*42
$AADBT,2.4,f,0.75,M,0.4,F*21
$AADBS,2.4,f,0.75,M,0.4,F*26
$AAMTW,25.8,C*1C
$AAXDR,C,25.8,C,ENV_SEA_T*01
$AAMDA,,I,,B,,C,25.8,C,,,,C,,T,,M,,N,,M*0B
$AADPT,0.75,0.00*42
$GNRMC,024646.00,A,3651.99404,S,17443.43786,E,0.478,,310118,,,A*7A
$GNVTG,,T,,M,0.478,N,0.886,K,A*30
$GNGGA,024646.00,3651.99404,S,17443.43786,E,1,09,1.26,16.4,M,28.1,M,,*63
$GNGSA,A,3,02,05,19,12,06,,,,,,,,2.45,1.26,2.10*13
$GNGSA,A,3,66,82,81,67,,,,,,,,,2.45,1.26,2.10*1B
$GPGSV,2,1,08,02,54,135,38,05,76,024,42,06,22,115,24,12,50,322,38*72
$AADPT,0.81,0.00*49
$GPGSV,2,2,08,19,13,063,29,20,,,26,25,,,35,29,,,44*49
$AADBT,2.6,f,0.81,M,0.4,F*28
$GLGSV,2,1,06,66,47,125,33,67,51,030,29,79,01,331,,80,21,276,*6E
$AADBS,2.6,f,0.81,M,0.4,F*2F
$AAMTW,25.8,C*1C
$AAXDR,C,25.8,C,ENV_SEA_T*01
$AAMDA,,I,,B,,C,25.8,C,,,,C,,T,,M,,N,,M*0B
$AADPT,0.81,0.00*49
$GLGSV,2,2,06,81,43,111,35,82,50,195,40*6C
$GNGLL,3651.99404,S,17443.43786,E,024646.00,A,A*62
$GNZDA,024646.00,31,01,2018,00,00*72
$AADPT,0.81,0.00*49
$AADBT,2.6,f,0.81,M,0.4,F*28
$AADBS,2.6,f,0.81,M,0.4,F*2F
$AAMTW,25.8,C*1C
$AAXDR,C,25.8,C,ENV_SEA_T*01
$AAMDA,,I,,B,,C,25.8,C,,,,C,,T,,M,,N,,M*0B
$AADPT,0.81,0.00*49
$GNRMC,024647.00,A,3651.99408,S,17443.43770,E,0.462,,310118,,,A*75
$GNVTG,,T,,M,0.462,N,0.856,K,A*36
$GNGGA,024647.00,3651.99408,S,17443.43770,E,1,09,1.26,16.5,M,28.1,M,,*66
$GNGSA,A,3,02,05,19,12,06,,,,,,,,2.45,1.26,2.10*13
$GNGSA,A,3,66,82,81,67,,,,,,,,,2.45,1.26,2.10*1B
$GPGSV,2,1,08,02,54,135,38,05,76,024,38,06,22,115,27,12,50,322,36*72
$AADPT,0.81,0.00*49
$AADBT,2.6,f,0.81,M,0.4,F*28
$GPGSV,2,2,08,19,13,063,30,20,,,29,25,,,32,29,,,43*4E
$AADBS,2.6,f,0.81,M,0.4,F*2F
$GLGSV,2,1,06,66,47,125,34,67,51,030,34,79,01,331,,80,21,276,*65
$AAMTW,25.8,C*1C
$AAXDR,C,25.8,C,ENV_SEA_T*01
$AAMDA,,I,,B,,C,25.8,C,,,,C,,T,,M,,N,,M*0B
$AADPT,0.81,0.00*49
$GLGSV,2,2,06,81,43,111,33,82,50,195,42*68
$GNGLL,3651.99408,S,17443.43770,E,024647.00,A,A*66
$GNZDA,024647.00,31,01,2018,00,00*73
$GNTXT,01,01,01,More
$AADPT,0.81,0.00*49
$AADBT,2.6,f,0.81,M,0.4,F*28
$AADBS,2.6,f,0.81,M,0.4,F*2F
$AAMTW,25.8,C*1C
$AAXDR,C,25.8,C,ENV_SEA_T*01
$AAMDA,,I,,B,,C,25.8,C,,,,C,,T,,M,,N,,M*0B
$AADPT,0.81,0.00*49
$GNRMC,024648.00,A,3651.99416,S,17443.43753,E,0.529,,310118,,,A*7A
$GNVTG,,T,,M,0.529,N,0.980,K,A*32
$GNGGA,024648.00,3651.99416,S,17443.43753,E,1,09,1.26,16.6,M,28.1,M,,*64
$GNGSA,A,3,02,05,19,12,06,,,,,,,,2.45,1.26,2.10*13
$GNGSA,A,3,66,82,81,67,,,,,,,,,2.45,1.26,2.10*1B
$GPGSV,2,1,08,02,54,135,35,05,76,024,38,06,22,115,25,12,50,322,22*78
$AADPT,0.78,0.00*4F
$AADBT,2.5,f,0.78,M,0.4,F*2D
$GPGSV,2,2,08,19,13,063,33,20,,,20,25,,,26,29,,,39*4C
$AADBS,2.5,f,0.78,M,0.4,F*2A
$GLGSV,2,1,06,66,47,125,38,67,51,030,28,79,01,331,,80,21,276,*64
$AAMTW,25.8,C*1C
$AAXDR,C,25.8,C,ENV_SEA_T*01
$AAMDA,,I,,B,,C,25.8,C,,,,C,,T,,M,,N,,M*0B
$AADPT,0.78,0.00*4F
$GLGSV,2,2,06,81,43,111,36,82,50,195,42*6D
$GNGLL,3651.99416,S,17443.43753,E,024648.00,A,A*67
$GNZDA,024648.00,31,01,2018,00,00*7C
$AADPT,0.78,0.00*4F
$AADBT,2.5,f,0.78,M,0.4,F*2D
$AADBS,2.5,f,0.78,M,0.4,F*2A
$AAMTW,25.8,C*1C
$AAXDR,C,25.8,C,ENV_SEA_T*01
$AAMDA,,I,,B,,C,25.8,C,,,,C,,T,,M,,N,,M*0B
$AADPT,0.78,0.00*4F
$GNRMC,024649.00,A,3651.99427,S,17443.43746,E,0.601,243.51,310118,,,A*6B
$GNVTG,243.51,T,,M,0.601,N,1.112,K,A*26
$GNGGA,024649.00,3651.99427,S,17443.43746,E,1,10,0.98,17.1,M,28.1,M,,*69
$GNGSA,A,3,02,05,19,12,06,29,,,,,,,1.89,0.98,1.61*1A
$GNGSA,A,3,66,82,81,67,,,,,,,,,1.89,0.98,1.61*19
$GPGSV,2,1,08,02,54,135,37,05,76,024,40,06,22,115,26,12,50,322,38*7D
$AADPT,0.75,0.00*42
$AADBT,2.4,f,0.75,M,0.4,F*21
$AADBS,2.4,f,0.75,M,0.4,F*26
$AAMTW,25.8,C*1C
$GPGSV,2,2,08,19,13,063,34,20,,,30,25,,,30,29,32,227,39*7B
$GLGSV,2,1,06,66,47,125,40,67,51,030,38,79,01,331,,80,21,276,*6A
$AAXDR,C,25.8,C,ENV_SEA_T*01
$AAMDA,,I,,B,,C,25.8,C,,,,C,,T,,M,,N,,M*0B
$AADPT,0.75,0.00*42
$GLGSV,2,2,06,81,43,111,35,82,50,195,39*62
$GNGLL,3651.99427,S,17443.43746,E,024649.00,A,A*60
$GNZDA,024649.00,31,01,2018,00,00*7D
$GNTXT,01,01,01,More
$AADPT,0.75,0.00*42
$AADBT,2.4,f,0.75,M,0.4,F*21
$AADBS,2.4,f,0.75,M,0.4,F*26
$AAMTW,25.8,C*1C
$AAXDR,C,25.8,C,ENV_SEA_T*01
$AAMDA,,I,,B,,C,25.8,C,,,,C,,T,,M,,N,,M*0B
$AADPT,0.75,0.00*42
$GNRMC,024650.00,A,3651.99451,S,17443.43726,E,0.574,241.01,310118,,,A*62
$GNVTG,241.01,T,,M,0.574,N,1.064,K,A*20
$GNGGA,024650.00,3651.99451,S,17443.43726,E,1,10,0.98,17.6,M,28.1,M,,*61
$GNGSA,A,3,02,05,19,12,06,29,,,,,,,1.89,0.98,1.61*1A
$GNGSA,A,3,66,82,81,67,,,,,,,,,1.89,0.98,1.61*19
$GPGSV,2,1,08,02,54,135,37,05,76,024,33,06,22,115,23,12,50,322,43*70
$AADPT,0.52,0.00*47
$AADBT,1.7,f,0.52,M,0.2,F*22
$AADBS,1.7,f,0.52,M,0.2,F*25
$GPGSV,2,2,08,19,13,063,37,20,,,28,25,,,24,29,32,227,39*74
$AAMTW,25.8,C*1C
$GLGSV,2,1,06,66,47,125,29,67,51,030,43,79,01,331,,80,21,276,*69
$AAXDR,C,25.8,C,ENV_SEA_T*01
$AAMDA,,I,,B,,C,25.8,C,,,,C,,T,,M,,N,,M*0B
$AADPT,0.52,0.00*47
$GLGSV,2,2,06,81,43,111,27,82,50,195,41*6E
$GNGLL,3651.99451,S,17443.43726,E,024650.00,A,A*6F
$GNZDA,024650.00,31,01,2018,00,00*75
$AADPT,0.52,0.00*47
$AADBT,1.7,f,0.52,M,0.2,F*22
$AADBS,1.7,f,0.52,M,0.2,F*25
$AAMTW,25.8,C*1C
$AAXDR,C,25.8,C,ENV_SEA_T*01
$AAMDA,,I,,B,,C,25.8,C,,,,C,,T,,M,,N,,M*0B
$AADPT,0.52,0.00*47
$GNRMC,024651.00,A,3651.99446,S,17443.43723,E,0.181,,310118,,,A*76
$GNVTG,,T,,M,0.181,N,0.336,K,A*33
$GNGGA,024651.00,3651.99446,S,17443.43723,E,1,10,0.98,17.7,M,28.1,M,,*62
$GNGSA,A,3,02,05,19,12,06,29,,,,,,,1.89,0.98,1.61*1A
$GNGSA,A,3,66,82,81,67,,,,,,,,,1.89,0.98,1.61*19
$GPGSV,2,1,08,02,54,135,38,05,76,024,38,06,22,115,22,12,50,322,44*72
$AADPT,0.52,0.00*47
$AADBT,1.7,f,0.52,M,0.2,F*22
$AADBS,1.7,f,0.52,M,0.2,F*25
$AAMTW,25.8,C*1C
$GPGSV,2,2,08,19,13,063,38,20,,,28,25,,,27,29,32,227,39*78
$AAXDR,C,25.8,C,ENV_SEA_T*01
$GLGSV,2,1,06,66,47,125,33,67,51,030,38,79,01,331,,80,21,276,*6E
$AAMDA,,I,,B,,C,25.8,C,,,,C,,T,,M,,N,,M*0B
$AADPT,0.52,0.00*47
$GLGSV,2,2,06,81,43,111,28,82,50,195,43*63
$GNGLL,3651.99446,S,17443.43723,E,024651.00,A,A*6D
$GNZDA,024651.00,31,01,2018,00,00*74
$GNTXT,01,01,01,More
$AADPT,0.52,0.00*47
$AADBT,1.7,f,0.52,M,0.2,F*22
$AADBS,1.7,f,0.52,M,0.2,F*25
$AAMTW,25.8,C*1C
$AAXDR,C,25.8,C,ENV_SEA_T*01
$AAMDA,,I,,B,,C,25.8,C,,,,C,,T,,M,,N,,M*0B
$AADPT,0.52,0.00*47
$GNRMC,024652.00,A,3651.99451,S,17443.43726,E,0.091,,310118,,,A*76
$GNVTG,,T,,M,0.091,N,0.168,K,A*3A
$GNGGA,024652.00,3651.99451,S,17443.43726,E,1,10,0.98,18.1,M,28.1,M,,*6B
$GNGSA,A,3,02,05,19,12,06,29,,,,,,,1.89,0.98,1.61*1A
$GNGSA,A,3,66,82,81,67,,,,,,,,,1.89,0.98,1.61*19
$GPGSV,2,1,08,02,54,135,38,05,76,024,39,06,22,115,21,12,50,322,44*70
$AADPT,0.52,0.00*47
$AADBT,1.7,f,0.52,M,0.2,F*22
$AADBS,1.7,f,0.52,M,0.2,F*25
$AAMTW,25.8,C*1C
$GPGSV,2,2,08,19,13,063,38,20,,,28,25,,,26,29,32,227,41*76
$GLGSV,2,1,06,66,47,125,34,67,51,030,44,79,01,331,,80,21,276,*62
$AAXDR,C,25.8,C,ENV_SEA_T*01
$AAMDA,,I,,B,,C,25.8,C,,,,C,,T,,M,,N,,M*0B
$AADPT,0.52,0.00*47
$GLGSV,2,2,06,81,43,111,29,82,50,195,41*60
$GNGLL,3651.99451,S,17443.43726,E,024652.00,A,A*6D
$GNZDA,024652.00,31,01,2018,00,00*77
$AADPT,0.52,0.00*47
$AADBT,1.7,f,0.52,M,0.2,F*22
$AADBS,1.7,f,0.52,M,0.2,F*25
$AAMTW,25.8,C*1C
$AAXDR,C,25.8,C,ENV_SEA_T*01
$AAMDA,,I,,B,,C,25.8,C,,,,C,,T,,M,,N,,M*0B
$AADPT,0.52,0.00*47
$GNRMC,024653.00,A,3651.99451,S,17443.43728,E,0.109,,310118,,,A*79
$GNVTG,,T,,M,0.109,N,0.202,K,A*35
$GNGGA,024653.00,3651.99451,S,17443.43728,E,1,10,1.02,18.3,M,28.1,M,,*64
$GNGSA,A,3,02,05,19,12,06,29,,,,,,,1.95,1.02,1.66*12
$GNGSA,A,3,66,82,81,67,,,,,,,,,1.95,1.02,1.66*11
$GPGSV,2,1,08,02,54,135,37,05,76,024,37,06,22,115,21,12,50,322,42*77
$AADPT,0.52,0.00*47
$AADBT,1.7,f,0.52,M,0.2,F*22
$AADBS,1.7,f,0.52,M,0.2,F*25
$AAMTW,25.4,C*10
$GPGSV,2,2,08,19,13,063,35,20,,,30,25,,,25,29,32,227,41*71
$AAXDR,C,25.4,C,ENV_SEA_T*0D
$GLGSV,2,1,06,66,47,125,37,67,51,030,43,79,01,331,,80,21,276,*66
$AAMDA,,I,,B,,C,25.4,C,,,,C,,T,,M,,N,,M*07
$AADPT,0.52,0.00*47
$GLGSV,2,2,06,81,43,111,34,82,50,195,40*6D
$GNGLL,3651.99451,S,17443.43728,E,024653.00,A,A*62
$GNZDA,024653.00,31,01,2018,00,00*76
$GNTXT,01,01,01,More
$AADPT,0.52,0.00*47
$AADBT,1.7,f,0.52,M,0.2,F*22
$AADBS,1.7,f,0.52,M,0.2,F*25
$AAMTW,25.4,C*10
$AAXDR,C,25.4,C,ENV_SEA_T*0D
$AAMDA,,I,,B,,C,25.4,C,,,,C,,T,,M,,N,,M*07
$AADPT,0.52,0.00*47
$GNRMC,024654.00,A,3651.99449,S,17443.43726,E,0.152,,310118,,,A*77
$GNVTG,,T,,M,0.152,N,0.281,K,A*30
$GNGGA,024654.00,3651.99449,S,17443.43726,E,1,10,0.98,18.3,M,28.1,M,,*66
$GNGSA,A,3,02,05,19,12,06,29,,,,,,,1.89,0.98,1.61*1A
$GNGSA,A,3,66,82,81,67,,,,,,,,,1.89,0.98,1.61*19
$GPGSV,2,1,08,02,54,135,38,05,76,024,35,06,22,115,24,12,50,322,41*7C
$AAMTW,25.4,C*10
$AAXDR,C,25.4,C,ENV_SEA_T*0D
$AAMDA,,I,,B,,C,25.4,C,,,,C,,T,,M,,N,,M*07
$GPGSV,2,2,08,19,13,063,35,20,,,30,25,,,24,29,32,227,37*71
$GLGSV,2,1,06,66,47,125,39,67,51,030,39,79,01,331,,80,21,276,*65
$GLGSV,2,2,06,81,43,111,35,82,50,195,42*6E
$GNGLL,3651.99449,S,17443.43726,E,024654.00,A,A*62
$GNZDA,024654.00,31,01,2018,00,00*71
$AAMTW,25.4,C*10
$AAXDR,C,25.4,C,ENV_SEA_T*0D
$AAMDA,,I,,B,,C,25.4,C,,,,C,,T,,M,,N,,M*07
$GNRMC,024655.00,A,3651.99451,S,17443.43729,E,0.153,,310118,,,A*71
$GNVTG,,T,,M,0.153,N,0.284,K,A*34
$GNGGA,024655.00,3651.99451,S,17443.43729,E,1,10,0.98,18.2,M,28.1,M,,*60
$GNGSA,A,3,02,05,19,12,06,29,,,,,,,1.89,0.98,1.61*1A
$GNGSA,A,3,66,82,81,67,,,,,,,,,1.89,0.98,1.61*19
$GPGSV,2,1,08,02,54,135,35,05,76,024,38,06,22,115,26,12,50,322,41*7E
$AAMTW,25.4,C*10
$AAXDR,C,25.4,C,ENV_SEA_T*0D
$AAMDA,,I,,B,,C,25.4,C,,,,C,,T,,M,,N,,M*07
$GPGSV,2,2,08,19,13,063,35,20,,,29,25,,,22,29,32,227,36*7E
$GLGSV,2,1,06,66,47,125,39,67,51,030,39,79,01,331,,80,21,276,*65
$GLGSV,2,2,06,81,43,111,38,82,50,195,42*63
$GNGLL,3651.99451,S,17443.43729,E,024655.00,A,A*65
$GNZDA,024655.00,31,01,2018,00,00*70
$GNTXT,01,01,01,More
$AAMTW,25.4,C*10
$AAXDR,C,25.4,C,ENV_SEA_T*0D
$AAMDA,,I,,B,,C,25.4,C,,,,C,,T,,M,,N,,M*07
$GNRMC,024656.00,A,3651.99449,S,17443.43722,E,0.186,,310118,,,A*78
$GNVTG,,T,,M,0.186,N,0.345,K,A*30
$GNGGA,024656.00,3651.99449,S,17443.43722,E,1,10,0.98,18.2,M,28.1,M,,*61
$GNGSA,A,3,02,05,19,12,06,29,,,,,,,1.89,0.98,1.61*1A
$GNGSA,A,3,66,82,81,67,,,,,,,,,1.89,0.98,1.61*19
$GPGSV,2,1,08,02,54,135,35,05,76,024,39,06,22,115,27,12,50,322,40*7F
$AAMTW,25.4,C*10
$AAXDR,C,25.4,C,ENV_SEA_T*0D
$AAMDA,,I,,B,,C,25.4,C,,,,C,,T,,M,,N,,M*07
$GPGSV,2,2,08,19,13,063,35,20,,,28,25,,,21,29,32,227,34*7E
$GLGSV,2,1,06,66,47,125,40,67,51,030,39,79,01,331,,80,21,276,*6B
$GLGSV,2,2,06,81,43,111,36,82,50,195,42*6D
$GNGLL,3651.99449,S,17443.43722,E,024656.00,A,A*64
$GNZDA,024656.00,31,01,2018,00,00*73
$AAMTW,25.4,C*10
$AAXDR,C,25.4,C,ENV_SEA_T*0D
$AAMDA,,I,,B,,C,25.4,C,,,,C,,T,,M,,N,,M*07
$GNRMC,024657.00,A,3651.99446,S,17443.43721,E,0.131,,310118,,,A*79
$GNVTG,,T,,M,0.131,N,0.243,K,A*3B
$GNGGA,024657.00,3651.99446,S,17443.43721,E,1,10,0.98,18.1,M,28.1,M,,*6F
$GNGSA,A,3,02,05,19,12,06,29,,,,,,,1.89,0.98,1.61*1A
$GNGSA,A,3,66,82,81,67,,,,,,,,,1.89,0.98,1.61*19
$GPGSV,2,1,08,02,54,135,37,05,76,024,39,06,22,115,27,12,50,322,38*72
$AAMTW,25.4,C*10
$AAXDR,C,25.4,C,ENV_SEA_T*0D
$AAMDA,,I,,B,,C,25.4,C,,,,C,,T,,M,,N,,M*07
$GPGSV,2,2,08,19,13,063,34,20,,,26,25,,,19,29,32,227,32*7C
$GLGSV,2,1,07,66,47,125,39,67,51,030,36,79,01,331,,80,21,276,*6B
$GLGSV,2,2,07,81,43,111,36,82,50,195,43,83,12,237,*53
$GNGLL,3651.99446,S,17443.43721,E,024657.00,A,A*69
$GNZDA,024657.00,31,01,2018,00,00*72
$GNTXT,01,01,01,More
$AAMTW,25.4,C*10
$AAXDR,C,25.4,C,ENV_SEA_T*0D
$AAMDA,,I,,B,,C,25.4,C,,,,C,,T,,M,,N,,M*07
$GNRMC,024658.00,A,3651.99446,S,17443.43724,E,0.135,,310118,,,A*77
$GNVTG,,T,,M,0.135,N,0.250,K,A*3D
$GNGGA,024658.00,3651.99446,S,17443.43724,E,1,10,0.98,18.1,M,28.1,M,,*65
$GNGSA,A,3,02,05,19,12,06,29,,,,,,,1.89,0.98,1.61*1A
$GNGSA,A,3,66,82,81,67,,,,,,,,,1.89,0.98,1.61*19
$GPGSV,2,1,08,02,54,135,37,05,76,024,39,06,22,115,28,12,50,322,34*71
$AAMTW,25.4,C*10
$AAXDR,C,25.4,C,ENV_SEA_T*0D
$AAMDA,,I,,B,,C,25.4,C,,,,C,,T,,M,,N,,M*07
$GPGSV,2,2,08,19,13,063,29,20,,,24,25,,,16,29,32,227,35*7A
$GLGSV,2,1,07,66,47,125,40,67,51,030,39,79,01,331,,80,21,276,*6A
$GLGSV,2,2,07,81,43,111,39,82,50,195,42,83,12,237,*5D
$GNGLL,3651.99446,S,17443.43724,E,024658.00,A,A*63
$GNZDA,024658.00,31,01,2018,00,00*7D
$AAMTW,25.4,C*10
$AAXDR,C,25.4,C,ENV_SEA_T*0D
$AAMDA,,I,,B,,C,25.4,C,,,,C,,T,,M,,N,,M*07
$GNRMC,024659.00,A,3651.99445,S,17443.43724,E,0.168,,310118,,,A*7D
$GNVTG,,T,,M,0.168,N,0.312,K,A*32
$GNGGA,024659.00,3651.99445,S,17443.43724,E,1,10,0.98,18.4,M,28.1,M,,*62
$GNGSA,A,3,02,05,19,12,06,29,,,,,,,1.89,0.98,1.61*1A
$GNGSA,A,3,66,82,81,67,,,,,,,,,1.89,0.98,1.61*19
$GPGSV,2,1,08,02,54,135,36,05,76,024,40,06,22,115,31,12,50,322,34*76
$AAMTW,25.4,C*10
$AAXDR,C,25.4,C,ENV_SEA_T*0D
$AAMDA,,I,,B,,C,25.4,C,,,,C,,T,,M,,N,,M*07
$GPGSV,2,2,08,19,13,063,31,20,,,23,25,,,20,29,32,227,37*73
$GLGSV,2,1,07,66,47,125,40,67,51,030,38,79,01,331,,80,21,276,*6B
$GLGSV,2,2,07,81,43,111,36,82,50,195,41,83,12,237,*51
$GNGLL,3651.99445,S,17443.43724,E,024659.00,A,A*61
$GNZDA,024659.00,31,01,2018,00,00*7C
$GNTXT,01,01,01,More
$AAMTW,25.4,C*10
$AAXDR,C,25.4,C,ENV_SEA_T*0D
$AAMDA,,I,,B,,C,25.4,C,,,,C,,T,,M,,N,,M*07
$GNRMC,024700.00,A,3651.99443,S,17443.43721,E,0.204,,310118,,,A*7A
$GNVTG,,T,,M,0.204,N,0.377,K,A*38
$GNGGA,024700.00,3651.99443,S,17443.43721,E,1,10,0.98,18.5,M,28.1,M,,*6D
$GNGSA,A,3,02,05,19,12,06,29,,,,,,,1.89,0.98,1.61*1A
$GNGSA,A,3,66,82,81,67,,,,,,,,,1.89,0.98,1.61*19
$GPGSV,2,1,08,02,54,135,37,05,76,024,41,06,22,115,30,12,50,322,33*70
$AAMTW,25.4,C*10
$AAXDR,C,25.4,C,ENV_SEA_T*0D
$AAMDA,,I,,B,,C,25.4,C,,,,C,,T,,M,,N,,M*07
$GPGSV,2,2,08,19,13,063,32,20,,,23,25,,,22,29,32,227,35*70
$GLGSV,2,1,07,66,47,125,38,67,51,030,26,79,01,331,,80,21,276,23*6A
$GLGSV,2,2,07,81,43,111,35,82,50,195,41,83,12,237,*52
$GNGLL,3651.99443,S,17443.43721,E,024700.00,A,A*6F
$GNZDA,024700.00,31,01,2018,00,00*71
$AAMTW,25.4,C*10
$AAXDR,C,25.4,C,ENV_SEA_T*0D
$AAMDA,,I,,B,,C,25.4,C,,,,C,,T,,M,,N,,M*07
$GNRMC,024701.00,A,3651.99441,S,17443.43718,E,0.214,,310118,,,A*72
$GNVTG,,T,,M,0.214,N,0.397,K,A*37
$GNGGA,024701.00,3651.99441,S,17443.43718,E,1,10,0.98,18.9,M,28.1,M,,*68
$GNGSA,A,3,02,05,19,12,06,29,,,,,,,1.89,0.98,1.61*1A
$GNGSA,A,3,66,82,81,67,,,,,,,,,1.89,0.98,1.61*19
$GPGSV,2,1,08,02,54,135,37,05,76,024,40,06,22,115,28,12,50,322,38*73
$AAMTW,25.4,C*10
$AAXDR,C,25.4,C,ENV_SEA_T*0D
$AAMDA,,I,,B,,C,25.4,C,,,,C,,T,,M,,N,,M*07
$GPGSV,2,2,08,19,13,063,34,20,,,31,25,,,23,29,32,227,39*78
$GLGSV,2,1,07,66,47,125,39,67,51,030,26,79,01,331,,80,21,276,23*6B
$GLGSV,2,2,07,81,43,111,31,82,50,195,42,83,12,237,*55
$GNGLL,3651.99441,S,17443.43718,E,024701.00,A,A*66
$GNZDA,024701.00,31,01,2018,00,00*70
$GNTXT,01,01,01,More
$AAMTW,25.4,C*10
$AAXDR,C,25.4,C,ENV_SEA_T*0D
$AAMDA,,I,,B,,C,25.4,C,,,,C,,T,,M,,N,,M*07
$GNRMC,024702.00,A,3651.99443,S,17443.43718,E,0.059,,310118,,,A*78
$GNVTG,,T,,M,0.059,N,0.109,K,A*39
$GNGGA,024702.00,3651.99443,S,17443.43718,E,1,10,0.98,19.1,M,28.1,M,,*60
$GNGSA,A,3,02,05,19,12,06,29,,,,,,,1.89,0.98,1.61*1A
$GNGSA,A,3,66,82,81,67,,,,,,,,,1.89,0.98,1.61*19
$GPGSV,2,1,08,02,54,135,37,05,76,024,38,06,22,115,28,12,50,322,41*72
$AAMTW,25.4,C*10
$AAXDR,C,25.4,C,ENV_SEA_T*0D
$AAMDA,,I,,B,,C,25.4,C,,,,C,,T,,M,,N,,M*07
$GPGSV,2,2,08,19,13,063,31,20,,,30,25,,,25,29,32,227,38*7B
$GLGSV,2,1,07,66,47,125,35,67,51,030,26,79,01,331,,80,21,276,20*64
$GLGSV,2,2,07,81,43,111,31,82,50,195,41,83,12,237,*56
$GNGLL,3651.99443,S,17443.43718,E,024702.00,A,A*67
$GNZDA,024702.00,31,01,2018,00,00*73
$AAMTW,25.4,C*10
$AAXDR,C,25.4,C,ENV_SEA_T*0D
$AAMDA,,I,,B,,C,25.4,C,,,,C,,T,,M,,N,,M*07
$GNRMC,024703.00,A,3651.99443,S,17443.43717,E,0.043,,310118,,,A*7D
$GNVTG,,T,,M,0.043,N,0.080,K,A*32
$GNGGA,024703.00,3651.99443,S,17443.43717,E,1,10,0.98,19.2,M,28.1,M,,*6D
$GNGSA,A,3,02,05,19,12,06,29,,,,,,,1.89,0.98,1.61*1A
$GNGSA,A,3,66,82,81,67,,,,,,,,,1.89,0.98,1.61*19
$GPGSV,2,1,08,02,54,135,40,05,76,024,38,06,22,115,30,12,50,322,38*75
$AAMTW,25.4,C*10
$AAXDR,C,25.4,C,ENV_SEA_T*0D
$AAMDA,,I,,B,,C,25.4,C,,,,C,,T,,M,,N,,M*07
$GPGSV,2,2,08,19,13,063,30,20,,,30,25,,,23,29,32,227,28*7D
$GLGSV,2,1,07,66,47,125,35,67,51,030,31,79,01,331,,80,21,276,18*69
$GLGSV,2,2,07,81,43,111,29,82,50,195,39,83,12,237,*50
$GNGLL,3651.99443,S,17443.43717,E,024703.00,A,A*69
$GNZDA,024703.00,31,01,2018,00,00*72
$AAMTW,25.4,C*10
$GNTXT,01,01,01,More
$AAXDR,C,25.4,C,ENV_SEA_T*0D
$AAMDA,,I,,B,,C,25.4,C,,,,C,,T,,M,,N,,M*07
$GNRMC,024704.00,A,3651.99441,S,17443.43714,E,0.125,,310118,,,A*7A
$GNVTG,,T,,M,0.125,N,0.232,K,A*38
$GNGGA,024704.00,3651.99441,S,17443.43714,E,1,10,0.98,19.4,M,28.1,M,,*6D
$GNGSA,A,3,02,05,19,12,06,29,,,,,,,1.89,0.98,1.61*1A
$GNGSA,A,3,66,82,81,67,,,,,,,,,1.89,0.98,1.61*19
$GPGSV,2,1,08,02,54,135,39,05,76,024,39,06,22,115,30,12,50,322,36*74
$AAMTW,25.4,C*10
$AAXDR,C,25.4,C,ENV_SEA_T*0D
$AAMDA,,I,,B,,C,25.4,C,,,,C,,T,,M,,N,,M*07
$GPGSV,2,2,08,19,13,063,30,20,,,29,25,,,31,29,32,227,29*77
$GLGSV,2,1,07,66,47,125,37,67,51,030,25,79,01,331,,80,21,276,17*61
$GLGSV,2,2,07,81,43,111,29,82,50,195,40,83,12,237,*5E
$GNGLL,3651.99441,S,17443.43714,E,024704.00,A,A*6F
$GNZDA,024704.00,31,01,2018,00,00*75
$AAMTW,25.4,C*10
$AAXDR,C,25.4,C,ENV_SEA_T*0D
$AAMDA,,I,,B,,C,25.4,C,,,,C,,T,,M,,N,,M*07
$GNRMC,024705.00,A,3651.99438,S,17443.43711,E,0.070,,310118,,,A*71
$GNVTG,,T,,M,0.070,N,0.130,K,A*38
$GNGGA,024705.00,3651.99438,S,17443.43711,E,1,10,0.98,19.6,M,28.1,M,,*65
$GNGSA,A,3,02,05,19,12,06,29,,,,,,,1.89,0.98,1.61*1A
$GNGSA,A,3,66,82,81,67,,,,,,,,,1.89,0.98,1.61*19
$GPGSV,2,1,08,02,54,135,40,05,76,024,40,06,22,115,31,12,50,322,33*70
$AAMTW,25.4,C*10
$AAXDR,C,25.4,C,ENV_SEA_T*0D
$AAMDA,,I,,B,,C,25.4,C,,,,C,,T,,M,,N,,M*07
$GPGSV,2,2,08,19,13,063,28,20,,,29,25,,,32,29,32,227,34*71
$GLGSV,2,1,07,66,47,125,36,67,51,030,32,79,01,331,,80,21,276,17*66
$GLGSV,2,2,07,81,43,111,28,82,50,195,32,83,12,237,*5A
$GNGLL,3651.99438,S,17443.43711,E,024705.00,A,A*65
$AAMTW,25.4,C*10
$GNZDA,024705.00,31,01,2018,00,00*74
$AAXDR,C,25.4,C,ENV_SEA_T*0D
$GNTXT,01,01,01,More
$AAMDA,,I,,B,,C,25.4,C,,,,C,,T,,M,,N,,M*07
$GNRMC,024706.00,A,3651.99434,S,17443.43711,E,0.083,,310118,,,A*72
$GNVTG,,T,,M,0.083,N,0.155,K,A*37
$GNGGA,024706.00,3651.99434,S,17443.43711,E,1,10,0.98,19.7,M,28.1,M,,*6B
$GNGSA,A,3,02,05,19,12,06,29,,,,,,,1.89,0.98,1.61*1A
$GNGSA,A,3,66,82,81,67,,,,,,,,,1.89,0.98,1.61*19
$AAMTW,25.4,C*10
$GPGSV,2,1,08,02,54,135,38,05,76,024,41,06,22,115,30,12,50,322,36*7A
$AAXDR,C,25.4,C,ENV_SEA_T*0D
$AAMDA,,I,,B,,C,25.4,C,,,,C,,T,,M,,N,,M*07
$GPGSV,2,2,08,19,13,063,27,20,,,28,25,,,31,29,32,227,32*7A
$GLGSV,2,1,07,66,47,125,39,67,51,030,33,79,01,331,,80,21,276,17*68
$GLGSV,2,2,07,81,43,111,28,82,50,195,33,83,12,237,*5B
$GNGLL,3651.99434,S,17443.43711,E,024706.00,A,A*6A
$GNZDA,024706.00,31,01,2018,00,00*77
$AAMTW,25.4,C*10
$AAXDR,C,25.4,C,ENV_SEA_T*0D
$AAMDA,,I,,B,,C,25.4,C,,,,C,,T,,M,,N,,M*07
$GNRMC,024707.00,A,3651.99430,S,17443.43719,E,0.361,,310118,,,A*70
$GNVTG,,T,,M,0.361,N,0.669,K,A*30
$GNGGA,024707.00,3651.99430,S,17443.43719,E,1,10,0.98,19.7,M,28.1,M,,*66
$GNGSA,A,3,02,05,19,12,06,29,,,,,,,1.89,0.98,1.61*1A
$GNGSA,A,3,66,82,81,67,,,,,,,,,1.89,0.98,1.61*19
$AAMTW,25.4,C*10
$AAXDR,C,25.4,C,ENV_SEA_T*0D
$GPGSV,2,1,08,02,54,135,41,05,76,024,40,06,22,115,29,12,50,322,40*7C
$AAMDA,,I,,B,,C,25.4,C,,,,C,,T,,M,,N,,M*07
$GPGSV,2,2,08,19,13,063,28,20,,,32,25,,,30,29,32,227,32*7F
$GLGSV,2,1,07,66,47,125,35,67,51,030,28,79,01,331,,80,21,276,17*6E
$GLGSV,2,2,07,81,43,111,28,82,50,195,33,83,12,237,*5B
$GNGLL,3651.99430,S,17443.43719,E,024707.00,A,A*67
$AAMTW,25.4,C*10
$AAXDR,C,25.4,C,ENV_SEA_T*0D
$AAMDA,,I,,B,,C,25.4,C,,,,C,,T,,M,,N,,M*07
$GNZDA,024707.00,31,01,2018,00,00*76
$GNTXT,01,01,01,More
$GNRMC,024708.00,A,3651.99425,S,17443.43723,E,0.462,,310118,,,A*76
$GNVTG,,T,,M,0.462,N,0.855,K,A*35
$GNGGA,024708.00,3651.99425,S,17443.43723,E,1,10,0.98,19.7,M,28.1,M,,*64
$GNGSA,A,3,02,05,19,12,06,29,,,,,,,1.89,0.98,1.61*1A
$GNGSA,A,3,66,82,81,67,,,,,,,,,1.89,0.98,1.61*19
$AAMTW,25.4,C*10
$GPGSV,2,1,08,02,54,135,38,05,76,024,40,06,22,115,35,12,50,322,42*7D
$AAXDR,C,25.4,C,ENV_SEA_T*0D
$AAMDA,,I,,B,,C,25.4,C,,,,C,,T,,M,,N,,M*07
$GPGSV,2,2,08,19,13,063,35,20,,,20,25,,,22,29,32,227,29*79
$GLGSV,2,1,07,66,47,125,42,67,51,030,39,79,01,331,,80,21,276,28*62
$GLGSV,2,2,07,81,43,111,41,82,50,195,40,83,12,237,*50
$GNGLL,3651.99425,S,17443.43723,E,024708.00,A,A*65
$GNZDA,024708.00,31,01,2018,00,00*79
$AAMTW,25.4,C*10
$AAXDR,C,25.4,C,ENV_SEA_T*0D
