$AAXDR,C,24.7,C,ENV_SEA_T*0F
$AAMDA,,I,,B,,C,24.7,C,,,,C,,T,,M,,N,,M*05
$GNGLL,3651.88764,S,17443.42098,E,040652.00,A,A*69
$GNZDA,040652.00,31,01,2018,00,00*75
$GNRMC,040653.00,A,3651.88774,S,17443.42089,E,0.521,173.00,310118,,,A*67
$GNVTG,173.00,T,,M,0.521,N,0.965,K,A*2A
$GNGGA,040653.00,3651.88774,S,17443.42089,E,1,11,0.95,17.8,M,28.1,M,,*65
$AADPT,1.05,0.00*44
$AADBT,3.4,f,1.05,M,0.5,F*27
$AADBS,3.4,f,1.05,M,0.5,F*20
$AAMTW,24.7,C*12
$GNGSA,A,3,02,05,26,29,13,20,,,,,,,1.56,0.95,1.23*1A
$GNGSA,A,3,66,82,67,68,83,,,,,,,,1.56,0.95,1.23*1C
$AAXDR,C,24.7,C,ENV_SEA_T*0F
$AAMDA,,I,,B,,C,24.7,C,,,,C,,T,,M,,N,,M*05
$AADPT,1.05,0.00*44
$GPGSV,2,1,08,02,29,099,37,04,,,28,05,59,136,42,13,32,050,33*4C
$GPGSV,2,2,08,20,59,299,36,25,,,26,26,06,217,34,29,66,226,37*43
$GLGSV,3,1,09,66,14,150,42,67,66,130,29,68,50,346,30,69,03,335,*61
$GLGSV,3,2,09,73,06,261,,74,05,213,30,81,20,065,31,82,63,111,35*6D
$GLGSV,3,3,09,83,42,207,37*50
$AADPT,1.05,0.00*44
$AADBT,3.4,f,1.05,M,0.5,F*27
$AADBS,3.4,f,1.05,M,0.5,F*20
$AAMTW,24.7,C*12
$AAXDR,C,24.7,C,ENV_SEA_T*0F
$AAMDA,,I,,B,,C,24.7,C,,,,C,,T,,M,,N,,M*05
$AADPT,1.05,0.00*44
$GNGLL,3651.88774,S,17443.42089,E,040653.00,A,A*69
$GNZDA,040653.00,31,01,2018,00,00*74
$GNRMC,040654.00,A,3651.88774,S,17443.42089,E,0.281,,310118,,,A*76
$GNVTG,,T,,M,0.281,N,0.521,K,A*30
$GNGGA,040654.00,3651.88774,S,17443.42089,E,1,11,0.95,17.6,M,28.1,M,,*6C
$AADPT,1.10,0.00*40
$AADBT,3.6,f,1.10,M,0.6,F*22
$AADBS,3.6,f,1.10,M,0.6,F*25
$AAMTW,24.7,C*12
$AAXDR,C,24.7,C,ENV_SEA_T*0F
$GNGSA,A,3,02,05,26,29,13,20,,,,,,,1.56,0.95,1.23*1A
$GNGSA,A,3,66,82,67,68,83,,,,,,,,1.56,0.95,1.23*1C
$AAMDA,,I,,B,,C,24.7,C,,,,C,,T,,M,,N,,M*05
$AADPT,1.10,0.00*40
$GPGSV,2,1,08,02,29,099,40,04,,,27,05,59,136,43,13,32,050,39*48
$GPGSV,2,2,08,20,59,299,31,25,,,25,26,06,217,30,29,66,226,37*43
$GLGSV,3,1,09,66,14,150,41,67,66,130,35,68,50,346,28,69,03,335,*66
$GLGSV,3,2,09,73,06,261,,74,05,213,31,81,20,065,34,82,63,111,35*69
$GLGSV,3,3,09,83,42,207,35*52
$AADPT,1.10,0.00*40
$AADBT,3.6,f,1.10,M,0.6,F*22
$AADBS,3.6,f,1.10,M,0.6,F*25
$AAMTW,24.7,C*12
$AAXDR,C,24.7,C,ENV_SEA_T*0F
$AAMDA,,I,,B,,C,24.7,C,,,,C,,T,,M,,N,,M*05
$AADPT,1.10,0.00*40
$GNGLL,3651.88774,S,17443.42089,E,040654.00,A,A*6E
$GNZDA,040654.00,31,01,2018,00,00*73
$GNRMC,040655.00,A,3651.88779,S,17443.42091,E,0.287,,310118,,,A*75
$GNVTG,,T,,M,0.287,N,0.531,K,A*37
$GNGGA,040655.00,3651.88779,S,17443.42091,E,1,11,0.95,17.4,M,28.1,M,,*6B
$AADPT,1.10,0.00*40
$AADBT,3.6,f,1.10,M,0.6,F*22
$AADBS,3.6,f,1.10,M,0.6,F*25
$AAMTW,24.7,C*12
$GNGSA,A,3,02,05,26,29,13,20,,,,,,,1.56,0.95,1.23*1A
$GNGSA,A,3,66,82,67,68,83,,,,,,,,1.56,0.95,1.23*1C
$AAXDR,C,24.7,C,ENV_SEA_T*0F
$AAMDA,,I,,B,,C,24.7,C,,,,C,,T,,M,,N,,M*05
$AADPT,1.10,0.00*40
$GPGSV,2,1,08,02,29,099,42,04,,,25,05,59,136,43,13,32,050,41*47
$GPGSV,2,2,08,20,59,299,29,25,,,22,26,06,217,29,29,66,226,39*4B
$GLGSV,3,1,09,66,14,150,40,67,66,130,38,68,50,346,26,69,03,335,*64
$GLGSV,3,2,09,73,06,261,,74,05,213,31,81,20,065,34,82,63,111,31*6D
$GLGSV,3,3,09,83,42,207,35*52
$AADPT,1.10,0.00*40
$AADBT,3.6,f,1.10,M,0.6,F*22
$AADBS,3.6,f,1.10,M,0.6,F*25
$AAMTW,24.7,C*12
$AAXDR,C,24.7,C,ENV_SEA_T*0F
$AAMDA,,I,,B,,C,24.7,C,,,,C,,T,,M,,N,,M*05
$AADPT,1.10,0.00*40
$GNGLL,3651.88779,S,17443.42091,E,040655.00,A,A*6B
$GNZDA,040655.00,31,01,2018,00,00*72
$GNRMC,040656.00,A,3651.88782,S,17443.42092,E,0.454,,310118,,,A*79
$GNVTG,,T,,M,0.454,N,0.841,K,A*35
$GNGGA,040656.00,3651.88782,S,17443.42092,E,1,11,0.95,17.3,M,28.1,M,,*68
$AADPT,1.10,0.00*40
$AADBT,3.6,f,1.10,M,0.6,F*22
$AADBS,3.6,f,1.10,M,0.6,F*25
$AAMTW,24.7,C*12
$AAXDR,C,24.7,C,ENV_SEA_T*0F
$GNGSA,A,3,02,05,26,29,13,20,,,,,,,1.56,0.95,1.23*1A
$GNGSA,A,3,66,82,67,68,83,,,,,,,,1.56,0.95,1.23*1C
$AAMDA,,I,,B,,C,24.7,C,,,,C,,T,,M,,N,,M*05
$AADPT,1.10,0.00*40
$GPGSV,2,1,08,02,29,099,41,04,,,26,05,59,136,43,13,32,050,39*48
$GPGSV,2,2,08,20,59,299,30,25,,,26,26,06,217,22,29,66,226,38*4D
$GLGSV,3,1,09,66,14,150,38,67,66,130,35,68,50,346,25,69,03,335,*65
$GLGSV,3,2,09,73,06,261,,74,05,213,27,81,20,065,34,82,63,111,32*69
$GLGSV,3,3,09,83,42,207,35*52
$AADPT,1.10,0.00*40
$AADBT,3.6,f,1.10,M,0.6,F*22
$AADBS,3.6,f,1.10,M,0.6,F*25
$AAMTW,24.7,C*12
$AAXDR,C,24.7,C,ENV_SEA_T*0F
$AAMDA,,I,,B,,C,24.7,C,,,,C,,T,,M,,N,,M*05
$AADPT,1.10,0.00*40
$GNGLL,3651.88782,S,17443.42092,E,040656.00,A,A*6F
$GNZDA,040656.00,31,01,2018,00,00*71
$GNRMC,040657.00,A,3651.88780,S,17443.42095,E,0.328,,310118,,,A*71
$GNVTG,,T,,M,0.328,N,0.608,K,A*3A
$GNGGA,040657.00,3651.88780,S,17443.42095,E,1,11,0.95,17.0,M,28.1,M,,*6F
$AADPT,1.10,0.00*40
$AADBT,3.6,f,1.10,M,0.6,F*22
$AADBS,3.6,f,1.10,M,0.6,F*25
$AAMTW,24.7,C*12
$AAXDR,C,24.7,C,ENV_SEA_T*0F
$AAMDA,,I,,B,,C,24.7,C,,,,C,,T,,M,,N,,M*05
$GNGSA,A,3,02,05,26,29,13,20,,,,,,,1.56,0.95,1.23*1A
$GNGSA,A,3,66,82,67,68,83,,,,,,,,1.56,0.95,1.23*1C
$AADPT,1.10,0.00*40
$GPGSV,2,1,08,02,29,099,42,04,,,24,05,59,136,43,13,32,050,40*47
$GPGSV,2,2,08,20,59,299,32,25,,,26,26,06,217,21,29,66,226,40*43
$GLGSV,3,1,09,66,14,150,35,67,66,130,38,68,50,346,24,69,03,335,*64
$GLGSV,3,2,09,73,06,261,,74,05,213,29,81,20,065,34,82,63,111,36*63
$GLGSV,3,3,09,83,42,207,36*51
$AADPT,1.10,0.00*40
$AADBT,3.6,f,1.10,M,0.6,F*22
$AADBS,3.6,f,1.10,M,0.6,F*25
$AAMTW,24.7,C*12
$AAXDR,C,24.7,C,ENV_SEA_T*0F
$AAMDA,,I,,B,,C,24.7,C,,,,C,,T,,M,,N,,M*05
$AADPT,1.10,0.00*40
$GNGLL,3651.88780,S,17443.42095,E,040657.00,A,A*6B
$GNZDA,040657.00,31,01,2018,00,00*70
$GNRMC,040658.00,A,3651.88779,S,17443.42102,E,0.349,,310118,,,A*70
$GNVTG,,T,,M,0.349,N,0.646,K,A*37
$GNGGA,040658.00,3651.88779,S,17443.42102,E,1,11,0.95,16.8,M,28.1,M,,*60
$AADPT,1.10,0.00*40
$AADBT,3.6,f,1.10,M,0.6,F*22
$AADBS,3.6,f,1.10,M,0.6,F*25
$AAMTW,24.7,C*12
$AAXDR,C,24.7,C,ENV_SEA_T*0F
$AAMDA,,I,,B,,C,24.7,C,,,,C,,T,,M,,N,,M*05
$AADPT,1.10,0.00*40
$GNGSA,A,3,02,05,26,29,13,20,,,,,,,1.56,0.95,1.23*1A
$GNGSA,A,3,66,82,67,68,83,,,,,,,,1.56,0.95,1.23*1C
$GPGSV,2,1,08,02,29,099,40,04,,,26,05,59,136,42,13,32,050,41*47
$GPGSV,2,2,08,20,59,299,32,25,,,31,26,06,217,25,29,66,226,40*41
$GLGSV,3,1,09,66,14,150,39,67,66,130,36,68,50,346,26,69,03,335,*64
$GLGSV,3,2,09,73,06,261,,74,05,213,30,81,20,065,33,82,63,111,33*69
$GLGSV,3,3,09,83,42,207,35*52
$AADPT,1.10,0.00*40
$AADBT,3.6,f,1.10,M,0.6,F*22
$AADBS,3.6,f,1.10,M,0.6,F*25
$AAMTW,24.7,C*12
$AAXDR,C,24.7,C,ENV_SEA_T*0F
$AAMDA,,I,,B,,C,24.7,C,,,,C,,T,,M,,N,,M*05
$AADPT,1.10,0.00*40
$GNGLL,3651.88779,S,17443.42102,E,040658.00,A,A*6D
$GNZDA,040658.00,31,01,2018,00,00*7F
$GNRMC,040659.00,A,3651.88785,S,17443.42107,E,0.410,,310118,,,A*7C
$GNVTG,,T,,M,0.410,N,0.760,K,A*39
$GNGGA,040659.00,3651.88785,S,17443.42107,E,1,11,0.95,16.6,M,28.1,M,,*69
$AADPT,1.14,0.00*44
$AADBT,3.7,f,1.14,M,0.6,F*27
$AADBS,3.7,f,1.14,M,0.6,F*20
$AAMTW,24.7,C*12
$AAXDR,C,24.7,C,ENV_SEA_T*0F
$AAMDA,,I,,B,,C,24.7,C,,,,C,,T,,M,,N,,M*05
$AADPT,1.14,0.00*44
$GNGSA,A,3,02,05,26,29,13,20,,,,,,,1.56,0.95,1.23*1A
$GNGSA,A,3,66,82,67,68,83,,,,,,,,1.56,0.95,1.23*1C
$GPGSV,2,1,08,02,29,099,38,04,,,26,05,59,136,42,13,32,050,39*47
$GPGSV,2,2,08,20,59,299,33,25,,,25,26,06,217,27,29,66,226,39*49
$GLGSV,3,1,09,66,14,150,41,67,66,130,34,68,50,346,29,69,03,335,*66
$GLGSV,3,2,09,73,06,261,,74,05,213,29,81,20,065,34,82,63,111,36*63
$GLGSV,3,3,09,83,42,207,36*51
$AADPT,1.14,0.00*44
$AADBT,3.7,f,1.14,M,0.6,F*27
$AADBS,3.7,f,1.14,M,0.6,F*20
$AAMTW,24.7,C*12
$AAXDR,C,24.7,C,ENV_SEA_T*0F
$AAMDA,,I,,B,,C,24.7,C,,,,C,,T,,M,,N,,M*05
$AADPT,1.14,0.00*44
$GNGLL,3651.88785,S,17443.42107,E,040659.00,A,A*6A
$GNZDA,040659.00,31,01,2018,00,00*7E
$GNRMC,040700.00,A,3651.88794,S,17443.42106,E,0.319,,310118,,,A*7E
$GNVTG,,T,,M,0.319,N,0.590,K,A*3A
$GNGGA,040700.00,3651.88794,S,17443.42106,E,1,11,0.95,16.5,M,28.1,M,,*66
$AADPT,1.14,0.00*44
$AADBT,3.7,f,1.14,M,0.6,F*27
$AADBS,3.7,f,1.14,M,0.6,F*20
$AAMTW,24.7,C*12
$AAXDR,C,24.7,C,ENV_SEA_T*0F
$AAMDA,,I,,B,,C,24.7,C,,,,C,,T,,M,,N,,M*05
$AADPT,1.14,0.00*44
$GNGSA,A,3,02,05,26,29,13,20,,,,,,,1.56,0.95,1.23*1A
$GNGSA,A,3,66,82,67,68,83,,,,,,,,1.56,0.95,1.23*1C
$GPGSV,2,1,08,02,29,099,37,04,,,25,05,59,136,41,13,32,050,39*48
$GPGSV,2,2,08,20,59,299,31,25,,,27,26,06,217,33,29,66,226,35*40
$GLGSV,3,1,09,66,14,150,43,67,66,130,31,68,50,346,30,69,03,335,*69
$GLGSV,3,2,09,73,06,261,,74,05,213,29,81,20,065,34,82,63,111,28*6C
$GLGSV,3,3,09,83,42,207,37*50
$AADPT,1.14,0.00*44
$AADBT,3.7,f,1.14,M,0.6,F*27
$AADBS,3.7,f,1.14,M,0.6,F*20
$AAMTW,24.7,C*12
$AAXDR,C,24.7,C,ENV_SEA_T*0F
$AAMDA,,I,,B,,C,24.7,C,,,,C,,T,,M,,N,,M*05
$AADPT,1.14,0.00*44
$GNGLL,3651.88794,S,17443.42106,E,040700.00,A,A*66
$GNZDA,040700.00,31,01,2018,00,00*73
$GNRMC,040701.00,A,3651.88804,S,17443.42104,E,0.286,,310118,,,A*7C
$GNVTG,,T,,M,0.286,N,0.529,K,A*3F
$GNGGA,040701.00,3651.88804,S,17443.42104,E,1,11,0.95,16.2,M,28.1,M,,*64
$AADPT,1.16,0.00*46
$AADBT,3.8,f,1.16,M,0.6,F*2A
$AADBS,3.8,f,1.16,M,0.6,F*2D
$AAMTW,24.7,C*12
$AAXDR,C,24.7,C,ENV_SEA_T*0F
$AAMDA,,I,,B,,C,24.7,C,,,,C,,T,,M,,N,,M*05
$AADPT,1.16,0.00*46
$GNGSA,A,3,02,05,26,29,13,20,,,,,,,1.56,0.95,1.23*1A
$GNGSA,A,3,66,82,67,68,83,,,,,,,,1.56,0.95,1.23*1C
$GPGSV,2,1,08,02,29,099,39,04,,,23,05,59,136,41,13,32,050,34*4D
$GPGSV,2,2,08,20,59,299,31,25,,,28,26,06,217,35,29,66,226,39*45
$GLGSV,3,1,09,66,14,150,42,67,66,130,31,68,51,346,30,69,03,335,*69
$GLGSV,3,2,09,73,06,261,,74,05,213,30,81,20,065,30,82,63,111,33*6A
$GLGSV,3,3,09,83,42,207,38*5F
$AADPT,1.16,0.00*46
$AADBT,3.8,f,1.16,M,0.6,F*2A
$AADBS,3.8,f,1.16,M,0.6,F*2D
$AAMTW,24.7,C*12
$AAXDR,C,24.7,C,ENV_SEA_T*0F
$AAMDA,,I,,B,,C,24.7,C,,,,C,,T,,M,,N,,M*05
$AADPT,1.16,0.00*46
$GNGLL,3651.88804,S,17443.42104,E,040701.00,A,A*63
$GNZDA,040701.00,31,01,2018,00,00*72
$GNRMC,040702.00,A,3651.88818,S,17443.42105,E,0.295,,310118,,,A*71
$GNVTG,,T,,M,0.295,N,0.546,K,A*34
$GNGGA,040702.00,3651.88818,S,17443.42105,E,1,11,0.95,16.1,M,28.1,M,,*68
$AADPT,1.16,0.00*46
$AADBT,3.8,f,1.16,M,0.6,F*2A
$AADBS,3.8,f,1.16,M,0.6,F*2D
$AAMTW,24.7,C*12
$AAXDR,C,24.7,C,ENV_SEA_T*0F
$AAMDA,,I,,B,,C,24.7,C,,,,C,,T,,M,,N,,M*05
$AADPT,1.16,0.00*46
$GNGSA,A,3,02,05,26,29,13,20,,,,,,,1.56,0.95,1.23*1A
$GNGSA,A,3,66,82,67,68,83,,,,,,,,1.56,0.95,1.23*1C
$GPGSV,2,1,08,02,29,099,42,04,,,27,05,59,136,42,13,32,050,38*4A
$GPGSV,2,2,08,20,59,299,31,25,,,27,26,06,217,35,29,66,226,37*44
$GLGSV,3,1,09,66,14,150,42,67,66,130,34,68,51,346,30,69,03,335,*6C
$GLGSV,3,2,09,73,06,261,,74,05,213,20,81,20,065,30,82,63,111,33*6B
$GLGSV,3,3,09,83,42,207,38*5F
$AADPT,1.16,0.00*46
$AADBT,3.8,f,1.16,M,0.6,F*2A
$AADBS,3.8,f,1.16,M,0.6,F*2D
$AAMTW,24.7,C*12
$AAXDR,C,24.7,C,ENV_SEA_T*0F
$AAMDA,,I,,B,,C,24.7,C,,,,C,,T,,M,,N,,M*05
$AADPT,1.16,0.00*46
$GNGLL,3651.88818,S,17443.42105,E,040702.00,A,A*6C
$GNZDA,040702.00,31,01,2018,00,00*71
$GNRMC,040703.00,A,3651.88826,S,17443.42114,E,0.451,,310118,,,A*73
$GNVTG,,T,,M,0.451,N,0.836,K,A*30
$GNGGA,040703.00,3651.88826,S,17443.42114,E,1,11,0.95,16.0,M,28.1,M,,*65
$AADPT,1.19,0.00*49
$AADBT,3.9,f,1.19,M,0.6,F*24
$AADBS,3.9,f,1.19,M,0.6,F*23
$AAMTW,24.7,C*12
$AAXDR,C,24.7,C,ENV_SEA_T*0F
$AAMDA,,I,,B,,C,24.7,C,,,,C,,T,,M,,N,,M*05
$AADPT,1.19,0.00*49
$GNGSA,A,3,02,05,26,29,13,20,,,,,,,1.56,0.95,1.23*1A
$GNGSA,A,3,66,82,67,68,83,,,,,,,,1.56,0.95,1.23*1C
$GPGSV,2,1,08,02,29,099,41,04,,,29,05,59,136,43,13,32,050,32*4C
$GPGSV,2,2,08,20,59,299,30,25,,,28,26,06,217,34,29,66,226,36*4A
$GLGSV,3,1,09,66,14,150,43,67,66,130,32,68,51,346,31,69,03,335,*6A
$GLGSV,3,2,09,73,06,261,,74,05,213,29,81,20,065,30,82,63,111,30*61
$GLGSV,3,3,09,83,42,207,38*5F
$AADPT,1.19,0.00*49
$AADBT,3.9,f,1.19,M,0.6,F*24
$AADBS,3.9,f,1.19,M,0.6,F*23
$AAMTW,24.7,C*12
$AAXDR,C,24.7,C,ENV_SEA_T*0F
$AAMDA,,I,,B,,C,24.7,C,,,,C,,T,,M,,N,,M*05
$AADPT,1.19,0.00*49
$GNGLL,3651.88826,S,17443.42114,E,040703.00,A,A*60
$GNZDA,040703.00,31,01,2018,00,00*70
$GNRMC,040704.00,A,3651.88835,S,17443.42131,E,0.649,132.44,310118,,,A*64
$GNVTG,132.44,T,,M,0.649,N,1.203,K,A*28
$GNGGA,040704.00,3651.88835,S,17443.42131,E,1,11,0.95,15.9,M,28.1,M,,*6D
$AADPT,1.19,0.00*49
$AADBT,3.9,f,1.19,M,0.6,F*24
$AADBS,3.9,f,1.19,M,0.6,F*23
$AAMTW,24.7,C*12
$AAXDR,C,24.7,C,ENV_SEA_T*0F
$AAMDA,,I,,B,,C,24.7,C,,,,C,,T,,M,,N,,M*05
$AADPT,1.19,0.00*49
$GNGSA,A,3,02,05,26,29,13,20,,,,,,,1.56,0.95,1.23*1A
$GNGSA,A,3,66,82,67,68,83,,,,,,,,1.56,0.95,1.23*1C
$GPGSV,2,1,08,02,29,099,39,04,,,21,05,59,136,42,13,32,050,36*4E
$GPGSV,2,2,08,20,59,299,25,25,,,17,26,06,217,28,29,66,226,39*40
$GLGSV,3,1,09,66,14,150,40,67,66,130,35,68,51,346,31,69,03,335,*6E
$GLGSV,3,2,09,73,06,261,,74,05,213,29,81,20,065,33,82,63,111,28*6B
$GLGSV,3,3,09,83,42,207,38*5F
$AADPT,1.19,0.00*49
$AADBT,3.9,f,1.19,M,0.6,F*24
$AADBS,3.9,f,1.19,M,0.6,F*23
$AAMTW,24.7,C*12
$AAXDR,C,24.7,C,ENV_SEA_T*0F
$AAMDA,,I,,B,,C,24.7,C,,,,C,,T,,M,,N,,M*05
$AADPT,1.19,0.00*49
$GNGLL,3651.88835,S,17443.42131,E,040704.00,A,A*62
$GNZDA,040704.00,31,01,2018,00,00*77
$GNRMC,040705.00,A,3651.88842,S,17443.42154,E,0.812,,310118,,,A*78
$GNVTG,,T,,M,0.812,N,1.505,K,A*37
$AADPT,1.16,0.00*46
$GNGGA,040705.00,3651.88842,S,17443.42154,E,1,12,0.89,16.0,M,28.1,M,,*6B
$AADBT,3.8,f,1.16,M,0.6,F*2A
$AADBS,3.8,f,1.16,M,0.6,F*2D
$AAMTW,24.7,C*12
$AAXDR,C,24.7,C,ENV_SEA_T*0F
$AAMDA,,I,,B,,C,24.7,C,,,,C,,T,,M,,N,,M*05
$AADPT,1.16,0.00*46
$GNGSA,A,3,02,05,26,29,13,20,,,,,,,1.43,0.89,1.13*10
$GNGSA,A,3,66,82,67,68,83,81,,,,,,,1.43,0.89,1.13*1F
$GPGSV,2,1,08,02,29,099,43,04,,,22,05,59,136,43,13,32,050,21*47
$GPGSV,2,2,08,20,59,299,23,25,,,33,26,06,217,28,29,66,226,44*4A
$GLGSV,3,1,09,66,14,150,25,67,66,130,40,68,51,346,25,69,03,335,*6A
$GLGSV,3,2,09,73,06,261,,74,05,213,22,81,20,065,32,82,63,111,36*6E
$GLGSV,3,3,09,83,42,207,40*50
$AADPT,1.16,0.00*46
$AADBT,3.8,f,1.16,M,0.6,F*2A
$AADBS,3.8,f,1.16,M,0.6,F*2D
$AAMTW,24.7,C*12
$AAXDR,C,24.7,C,ENV_SEA_T*0F
$AAMDA,,I,,B,,C,24.7,C,,,,C,,T,,M,,N,,M*05
$AADPT,1.16,0.00*46
$GNGLL,3651.88842,S,17443.42154,E,040705.00,A,A*60
$GNZDA,040705.00,31,01,2018,00,00*76
$GNRMC,040706.00,A,3651.88841,S,17443.42180,E,0.611,,310118,,,A*7C
$GNVTG,,T,,M,0.611,N,1.131,K,A*39
$AADPT,1.16,0.00*46
$GNGGA,040706.00,3651.88841,S,17443.42180,E,1,12,0.89,16.1,M,28.1,M,,*63
$AADBT,3.8,f,1.16,M,0.6,F*2A
$AADBS,3.8,f,1.16,M,0.6,F*2D
$AAMTW,24.7,C*12
$AAXDR,C,24.7,C,ENV_SEA_T*0F
$AAMDA,,I,,B,,C,24.7,C,,,,C,,T,,M,,N,,M*05
$AADPT,1.16,0.00*46
$GNGSA,A,3,02,05,26,29,13,20,,,,,,,1.43,0.89,1.13*10
$GNGSA,A,3,66,82,67,68,83,81,,,,,,,1.43,0.89,1.13*1F
$GPGSV,2,1,08,02,29,099,36,04,,,34,05,59,136,32,13,32,050,37*43
$GPGSV,2,2,08,20,59,299,25,25,,,33,26,06,217,31,29,66,226,41*41
$GLGSV,3,1,09,66,14,150,32,67,66,130,38,68,51,346,31,69,03,335,*66
$GLGSV,3,2,09,73,05,261,,74,05,213,26,81,20,065,32,82,63,111,37*68
$GLGSV,3,3,09,83,42,207,30*57
$AADPT,1.16,0.00*46
$AADBT,3.8,f,1.16,M,0.6,F*2A
$AADBS,3.8,f,1.16,M,0.6,F*2D
$AAMTW,24.7,C*12
$AAXDR,C,24.7,C,ENV_SEA_T*0F
$AAMDA,,I,,B,,C,24.7,C,,,,C,,T,,M,,N,,M*05
$AADPT,1.16,0.00*46
$GNGLL,3651.88841,S,17443.42180,E,040706.00,A,A*69
$GNZDA,040706.00,31,01,2018,00,00*75
$GNRMC,040707.00,A,3651.88834,S,17443.42181,E,0.272,,310118,,,A*7F
$AADPT,1.14,0.00*44
$GNVTG,,T,,M,0.272,N,0.505,K,A*3A
$GNGGA,040707.00,3651.88834,S,17443.42181,E,1,12,0.89,16.0,M,28.1,M,,*60
$AADBT,3.7,f,1.14,M,0.6,F*27
$AADBS,3.7,f,1.14,M,0.6,F*20
$AAMTW,24.7,C*12
$AAXDR,C,24.7,C,ENV_SEA_T*0F
$AAMDA,,I,,B,,C,24.7,C,,,,C,,T,,M,,N,,M*05
$AADPT,1.14,0.00*44
$GNGSA,A,3,02,05,26,29,13,20,,,,,,,1.43,0.89,1.13*10
$GNGSA,A,3,66,82,67,68,83,81,,,,,,,1.43,0.89,1.13*1F
$GPGSV,2,1,08,02,29,099,33,04,,,38,05,59,136,42,13,32,050,32*48
$GPGSV,2,2,08,20,59,299,25,25,,,37,26,06,217,39,29,66,226,40*4C
$GLGSV,3,1,09,66,14,150,27,67,66,130,38,68,51,346,31,69,03,335,*62
$GLGSV,3,2,09,73,05,261,,74,05,213,35,81,20,065,31,82,63,111,41*68
$GLGSV,3,3,09,83,42,207,36*51
$AADPT,1.14,0.00*44
$AADBT,3.7,f,1.14,M,0.6,F*27
$AADBS,3.7,f,1.14,M,0.6,F*20
$AAMTW,24.7,C*12
$AAXDR,C,24.7,C,ENV_SEA_T*0F
$AAMDA,,I,,B,,C,24.7,C,,,,C,,T,,M,,N,,M*05
$AADPT,1.14,0.00*44
$GNGLL,3651.88834,S,17443.42181,E,040707.00,A,A*6B
$GNZDA,040707.00,31,01,2018,00,00*74
$GNRMC,040708.00,A,3651.88831,S,17443.42184,E,0.140,,310118,,,A*72
$GNVTG,,T,,M,0.140,N,0.259,K,A*36
$GNGGA,040708.00,3651.88831,S,17443.42184,E,1,11,0.95,16.1,M,28.1,M,,*60
$AADPT,1.16,0.00*46
$AADBT,3.8,f,1.16,M,0.6,F*2A
$AADBS,3.8,f,1.16,M,0.6,F*2D
$AAMTW,24.7,C*12
$AAXDR,C,24.7,C,ENV_SEA_T*0F
$AAMDA,,I,,B,,C,24.7,C,,,,C,,T,,M,,N,,M*05
$AADPT,1.16,0.00*46
$GNGSA,A,3,02,05,26,29,20,,,,,,,,1.50,0.95,1.16*18
$GNGSA,A,3,66,82,67,68,83,81,,,,,,,1.50,0.95,1.16*15
$GPGSV,2,1,08,02,29,099,32,04,,,30,05,59,136,35,13,32,050,*40
$GPGSV,2,2,08,20,59,299,27,25,,,40,26,06,217,29,29,66,226,43*4C
$GLGSV,3,1,09,66,14,150,41,67,66,130,38,68,51,346,34,69,03,335,*67
$GLGSV,3,2,09,73,05,261,,74,05,213,30,81,20,065,31,82,63,111,35*6E
$GLGSV,3,3,09,83,42,207,24*52
$AADPT,1.16,0.00*46
$AADBT,3.8,f,1.16,M,0.6,F*2A
$AADBS,3.8,f,1.16,M,0.6,F*2D
$AAMTW,24.7,C*12
$AAXDR,C,24.7,C,ENV_SEA_T*0F
$AAMDA,,I,,B,,C,24.7,C,,,,C,,T,,M,,N,,M*05
$AADPT,1.16,0.00*46
$GNGLL,3651.88831,S,17443.42184,E,040708.00,A,A*64
$GNZDA,040708.00,31,01,2018,00,00*7B
$GNRMC,040709.00,A,3651.88842,S,17443.42186,E,0.042,,310118,,,A*76
$AADPT,1.19,0.00*49
$AADBT,3.9,f,1.19,M,0.6,F*24
$GNVTG,,T,,M,0.042,N,0.078,K,A*34
$GNGGA,040709.00,3651.88842,S,17443.42186,E,1,11,0.95,16.3,M,28.1,M,,*65
$AADBS,3.9,f,1.19,M,0.6,F*23
$AAMTW,24.7,C*12
$AAXDR,C,24.7,C,ENV_SEA_T*0F
$AAMDA,,I,,B,,C,24.7,C,,,,C,,T,,M,,N,,M*05
$AADPT,1.19,0.00*49
$GNGSA,A,3,02,05,26,29,20,,,,,,,,1.50,0.95,1.16*18
$GNGSA,A,3,66,82,67,68,83,81,,,,,,,1.50,0.95,1.16*15
$GPGSV,2,1,08,02,29,099,40,04,,,38,05,59,136,41,13,32,050,28*44
$GPGSV,2,2,08,20,59,299,28,25,,,32,26,06,217,27,29,66,226,44*4F
$GLGSV,3,1,09,66,14,150,36,67,66,130,36,68,51,346,34,69,03,335,*69
$GLGSV,3,2,09,73,05,261,,74,05,213,25,81,20,065,24,82,63,111,41*6D
$GLGSV,3,3,09,83,42,207,36*51
$AADPT,1.19,0.00*49
$AADBT,3.9,f,1.19,M,0.6,F*24
$AADBS,3.9,f,1.19,M,0.6,F*23
$AAMTW,24.7,C*12
$AAXDR,C,24.7,C,ENV_SEA_T*0F
$AAMDA,,I,,B,,C,24.7,C,,,,C,,T,,M,,N,,M*05
$AADPT,1.19,0.00*49
$GNGLL,3651.88842,S,17443.42186,E,040709.00,A,A*63
$GNZDA,040709.00,31,01,2018,00,00*7A
$GNRMC,040710.00,A,3651.88851,S,17443.42188,E,0.233,,310118,,,A*76
$AADPT,1.14,0.00*44
$AADBT,3.7,f,1.14,M,0.6,F*27
$GNVTG,,T,,M,0.233,N,0.431,K,A*39
$GNGGA,040710.00,3651.88851,S,17443.42188,E,1,11,0.95,16.4,M,28.1,M,,*66
$AADBS,3.7,f,1.14,M,0.6,F*20
$AAMTW,24.7,C*12
$AAXDR,C,24.7,C,ENV_SEA_T*0F
$AAMDA,,I,,B,,C,24.7,C,,,,C,,T,,M,,N,,M*05
$AADPT,1.14,0.00*44
$GNGSA,A,3,02,05,26,29,20,,,,,,,,1.50,0.95,1.16*18
$GNGSA,A,3,66,82,67,68,83,81,,,,,,,1.50,0.95,1.16*15
$GPGSV,2,1,08,02,29,099,39,04,,,36,05,59,136,39,13,32,050,*41
$GPGSV,2,2,08,20,59,299,28,25,,,26,26,06,217,36,29,66,226,41*4F
$GLGSV,3,1,09,66,14,150,37,67,66,130,27,68,51,346,30,69,03,335,*6C
$GLGSV,3,2,09,73,05,261,,74,05,213,35,81,20,065,34,82,63,111,34*6F
$GLGSV,3,3,09,83,42,207,34*53
$AADPT,1.14,0.00*44
$AADBT,3.7,f,1.14,M,0.6,F*27
$AADBS,3.7,f,1.14,M,0.6,F*20
$AAMTW,24.7,C*12
$AAXDR,C,24.7,C,ENV_SEA_T*0F
$AAMDA,,I,,B,,C,24.7,C,,,,C,,T,,M,,N,,M*05
$AADPT,1.14,0.00*44
$GNGLL,3651.88851,S,17443.42188,E,040710.00,A,A*67
$GNZDA,040710.00,31,01,2018,00,00*72
$GNRMC,040711.00,A,3651.88852,S,17443.42185,E,0.282,,310118,,,A*73
$AADPT,1.08,0.00*49
$AADBT,3.5,f,1.08,M,0.5,F*2B
$AADBS,3.5,f,1.08,M,0.5,F*2C
$AAMTW,24.7,C*12
$AAXDR,C,24.7,C,ENV_SEA_T*0F
$GNVTG,,T,,M,0.282,N,0.522,K,A*30
$AAMDA,,I,,B,,C,24.7,C,,,,C,,T,,M,,N,,M*05
$GNGGA,040711.00,3651.88852,S,17443.42185,E,1,12,0.89,16.1,M,28.1,M,,*62
$AADPT,1.08,0.00*49
$GNGSA,A,3,02,05,26,29,13,20,,,,,,,1.43,0.89,1.13*10
$GNGSA,A,3,66,82,67,68,83,81,,,,,,,1.43,0.89,1.13*1F
$GPGSV,2,1,08,02,29,099,37,04,,,27,05,59,136,42,13,32,050,34*44
$GPGSV,2,2,08,20,59,299,27,25,,,26,26,06,217,33,29,66,226,39*4A
$GLGSV,3,1,09,66,14,150,42,67,66,130,28,68,51,346,30,69,03,335,*61
$GLGSV,3,2,09,73,05,261,,74,05,213,26,81,20,065,30,82,63,111,31*6C
$GLGSV,3,3,09,83,42,207,37*50
$AADPT,1.08,0.00*49
$AADBT,3.5,f,1.08,M,0.5,F*2B
$AADBS,3.5,f,1.08,M,0.5,F*2C
$AAMTW,24.7,C*12
$AAXDR,C,24.7,C,ENV_SEA_T*0F
$AAMDA,,I,,B,,C,24.7,C,,,,C,,T,,M,,N,,M*05
$AADPT,1.08,0.00*49
$GNGLL,3651.88852,S,17443.42185,E,040711.00,A,A*68
$GNZDA,040711.00,31,01,2018,00,00*73
$GNRMC,040712.00,A,3651.88850,S,17443.42183,E,0.610,78.15,310118,,,A*5E
$AADPT,1.10,0.00*40
$AADBT,3.6,f,1.10,M,0.6,F*22
$AADBS,3.6,f,1.10,M,0.6,F*25
$GNVTG,78.15,T,,M,0.610,N,1.130,K,A*1C
$AAMTW,24.7,C*12
$GNGGA,040712.00,3651.88850,S,17443.42183,E,1,12,0.89,16.2,M,28.1,M,,*66
$AAXDR,C,24.7,C,ENV_SEA_T*0F
$AAMDA,,I,,B,,C,24.7,C,,,,C,,T,,M,,N,,M*05
$AADPT,1.10,0.00*40
$GNGSA,A,3,02,05,26,29,13,20,,,,,,,1.43,0.89,1.13*10
$GNGSA,A,3,66,82,67,68,83,81,,,,,,,1.43,0.89,1.13*1F
$GPGSV,2,1,08,02,29,099,41,04,,,29,05,59,136,42,13,32,050,33*4C
$GPGSV,2,2,08,20,59,299,27,25,,,26,26,06,217,22,29,66,226,43*47
$GLGSV,3,1,09,66,14,150,35,67,66,130,38,68,51,346,21,69,03,335,*60
$GLGSV,3,2,09,73,05,261,,74,05,213,31,81,20,065,37,82,63,111,38*64
$GLGSV,3,3,09,83,42,207,40*50
$AADPT,1.10,0.00*40
$AADBT,3.6,f,1.10,M,0.6,F*22
$AADBS,3.6,f,1.10,M,0.6,F*25
$AAMTW,24.7,C*12
$AAXDR,C,24.7,C,ENV_SEA_T*0F
$AAMDA,,I,,B,,C,24.7,C,,,,C,,T,,M,,N,,M*05
$AADPT,1.10,0.00*40
$GNGLL,3651.88850,S,17443.42183,E,040712.00,A,A*6F
$GNZDA,040712.00,31,01,2018,00,00*70
$GNRMC,040713.00,A,3651.88885,S,17443.42154,E,2.206,179.48,310118,,,A*64
$AADPT,1.08,0.00*49
$AADBT,3.5,f,1.08,M,0.5,F*2B
$AADBS,3.5,f,1.08,M,0.5,F*2C
$AAMTW,24.7,C*12
$GNVTG,179.48,T,,M,2.206,N,4.085,K,A*2F
$GNGGA,040713.00,3651.88885,S,17443.42154,E,1,12,0.89,15.9,M,28.1,M,,*6D
$AAXDR,C,24.7,C,ENV_SEA_T*0F
$AAMDA,,I,,B,,C,24.7,C,,,,C,,T,,M,,N,,M*05
$AADPT,1.08,0.00*49
$GNGSA,A,3,02,05,26,29,13,20,,,,,,,1.43,0.89,1.13*10
$GNGSA,A,3,66,82,67,68,83,81,,,,,,,1.43,0.89,1.13*1F
$GPGSV,2,1,08,02,29,099,28,04,,,39,05,59,136,41,13,32,050,30*42
$GPGSV,2,2,08,20,59,299,27,25,,,26,26,06,217,37,29,66,226,40*40
$GLGSV,3,1,09,66,14,150,28,67,66,130,38,68,51,346,22,69,03,335,*6F
$GLGSV,3,2,09,73,05,261,,74,05,213,26,81,20,065,25,82,63,111,36*6F
$GLGSV,3,3,09,83,42,207,38*5F
$AADPT,1.08,0.00*49
$AADBT,3.5,f,1.08,M,0.5,F*2B
$AADBS,3.5,f,1.08,M,0.5,F*2C
$AAMTW,24.7,C*12
$AAXDR,C,24.7,C,ENV_SEA_T*0F
$AAMDA,,I,,B,,C,24.7,C,,,,C,,T,,M,,N,,M*05
$AADPT,1.08,0.00*49
$GNGLL,3651.88885,S,17443.42154,E,040713.00,A,A*6C
$GNZDA,040713.00,31,01,2018,00,00*71
$GNRMC,040714.00,A,3651.88895,S,17443.42143,E,0.418,,310118,,,A*72
$AADPT,1.10,0.00*40
$AADBT,3.6,f,1.10,M,0.6,F*22
$AADBS,3.6,f,1.10,M,0.6,F*25
$AAMTW,24.7,C*12
$GNVTG,,T,,M,0.418,N,0.775,K,A*35
$GNGGA,040714.00,3651.88895,S,17443.42143,E,1,11,0.95,16.0,M,28.1,M,,*69
$AAXDR,C,24.7,C,ENV_SEA_T*0F
$AAMDA,,I,,B,,C,24.7,C,,,,C,,T,,M,,N,,M*05
$AADPT,1.10,0.00*40
$GNGSA,A,3,02,05,26,29,20,,,,,,,,1.50,0.95,1.16*18
$GNGSA,A,3,66,82,67,68,83,81,,,,,,,1.50,0.95,1.16*15
$GPGSV,2,1,08,02,29,099,32,04,,,27,05,59,136,37,13,32,050,27*41
$GPGSV,2,2,08,20,59,299,26,25,,,26,26,06,217,30,29,66,226,43*45
$GLGSV,3,1,09,66,14,150,42,67,66,130,38,68,51,346,24,69,03,335,*65
$GLGSV,3,2,09,73,05,261,,74,05,213,25,81,20,065,31,82,63,111,37*68
$GLGSV,3,3,09,83,42,207,24*52
$AADPT,1.10,0.00*40
$AADBT,3.6,f,1.10,M,0.6,F*22
$AADBS,3.6,f,1.10,M,0.6,F*25
$AAMTW,24.7,C*12
$AAXDR,C,24.7,C,ENV_SEA_T*0F
$AAMDA,,I,,B,,C,24.7,C,,,,C,,T,,M,,N,,M*05
$AADPT,1.10,0.00*40
$GNGLL,3651.88895,S,17443.42143,E,040714.00,A,A*6C
$GNZDA,040714.00,31,01,2018,00,00*76
$GNRMC,040715.00,A,3651.88900,S,17443.42147,E,0.171,,310118,,,A*70
$AADPT,1.10,0.00*40
$AADBT,3.6,f,1.10,M,0.6,F*22
$AADBS,3.6,f,1.10,M,0.6,F*25
$AAMTW,24.7,C*12
$GNVTG,,T,,M,0.171,N,0.317,K,A*3F
$GNGGA,040715.00,3651.88900,S,17443.42147,E,1,11,1.01,15.7,M,28.1,M,,*69
$AAXDR,C,24.7,C,ENV_SEA_T*0F
$AAMDA,,I,,B,,C,24.7,C,,,,C,,T,,M,,N,,M*05
$AADPT,1.10,0.00*40
$GNGSA,A,3,02,05,26,29,20,,,,,,,,1.57,1.01,1.21*17
$GNGSA,A,3,66,82,67,68,83,81,,,,,,,1.57,1.01,1.21*1A
$GPGSV,3,1,09,02,29,099,40,04,,,42,05,59,136,42,13,32,050,25*47
$GPGSV,3,2,09,20,59,299,26,21,,,28,25,,,28,26,06,217,29*70
$GPGSV,3,3,09,29,66,226,44*4D
$GLGSV,3,1,09,66,14,150,38,67,66,130,35,68,51,346,23,69,03,335,*62
$GLGSV,3,2,09,73,05,261,,74,05,213,25,81,20,065,24,82,62,110,37*6C
$AADPT,1.10,0.00*40
$AADBT,3.6,f,1.10,M,0.6,F*22
$AADBS,3.6,f,1.10,M,0.6,F*25
$AAMTW,24.7,C*12
$AAXDR,C,24.7,C,ENV_SEA_T*0F
$AAMDA,,I,,B,,C,24.7,C,,,,C,,T,,M,,N,,M*05
$AADPT,1.10,0.00*40
$GLGSV,3,3,09,83,42,207,40*50
$GNGLL,3651.88900,S,17443.42147,E,040715.00,A,A*64
$GNZDA,040715.00,31,01,2018,00,00*77
$GNRMC,040716.00,A,3651.88908,S,17443.42161,E,0.468,,310118,,,A*72
$AADPT,1.16,0.00*46
$AADBT,3.8,f,1.16,M,0.6,F*2A
$AADBS,3.8,f,1.16,M,0.6,F*2D
$AAMTW,24.7,C*12
$GNVTG,,T,,M,0.468,N,0.867,K,A*3E
$AAXDR,C,24.7,C,ENV_SEA_T*0F
$GNGGA,040716.00,3651.88908,S,17443.42161,E,1,12,0.89,15.8,M,28.1,M,,*6B
$AAMDA,,I,,B,,C,24.7,C,,,,C,,T,,M,,N,,M*05
$AADPT,1.16,0.00*46
$GNGSA,A,3,02,05,26,29,13,20,,,,,,,1.43,0.89,1.13*10
$GNGSA,A,3,66,82,67,68,83,81,,,,,,,1.43,0.89,1.13*1F
$GPGSV,3,1,09,02,29,099,39,04,,,38,05,59,136,43,13,32,050,31*40
$GPGSV,3,2,09,20,59,299,23,21,,,28,25,,,27,26,06,217,36*74
$GPGSV,3,3,09,29,66,226,41*48
$GLGSV,3,1,09,66,14,150,39,67,66,130,29,68,51,346,24,69,03,335,*69
$GLGSV,3,2,09,73,05,261,,74,05,213,30,81,20,065,30,82,62,110,30*6A
$AADPT,1.16,0.00*46
$AADBT,3.8,f,1.16,M,0.6,F*2A
$AADBS,3.8,f,1.16,M,0.6,F*2D
$AAMTW,24.7,C*12
$AAXDR,C,24.7,C,ENV_SEA_T*0F
$AAMDA,,I,,B,,C,24.7,C,,,,C,,T,,M,,N,,M*05
$AADPT,1.16,0.00*46
$GLGSV,3,3,09,83,42,207,33*54
$GNGLL,3651.88908,S,17443.42161,E,040716.00,A,A*6B
$GNZDA,040716.00,31,01,2018,00,00*74
$GNRMC,040717.00,A,3651.88903,S,17443.42169,E,0.396,,310118,,,A*76
$AADPT,1.10,0.00*40
$AADBT,3.6,f,1.10,M,0.6,F*22
$AADBS,3.6,f,1.10,M,0.6,F*25
$AAMTW,24.7,C*12
$GNVTG,,T,,M,0.396,N,0.734,K,A*31
$AAXDR,C,24.7,C,ENV_SEA_T*0F
$GNGGA,040717.00,3651.88903,S,17443.42169,E,1,12,0.89,15.8,M,28.1,M,,*69
$AAMDA,,I,,B,,C,24.7,C,,,,C,,T,,M,,N,,M*05
$AADPT,1.10,0.00*40
$GNGSA,A,3,02,05,26,29,13,20,,,,,,,1.43,0.89,1.13*10
$GNGSA,A,3,66,82,67,68,83,81,,,,,,,1.43,0.89,1.13*1F
$GPGSV,3,1,09,02,29,099,42,04,,,26,05,59,136,43,13,32,050,38*4A
$GPGSV,3,2,09,20,59,299,22,21,,,19,25,,,26,26,06,217,28*79
$GPGSV,3,3,09,29,66,226,41*48
$GLGSV,3,1,09,66,14,150,38,67,66,130,34,68,51,346,23,69,03,335,*63
$GLGSV,3,2,09,73,05,261,,74,05,213,30,81,20,065,30,82,62,110,31*6B
$AADPT,1.10,0.00*40
$AADBT,3.6,f,1.10,M,0.6,F*22
$AADBS,3.6,f,1.10,M,0.6,F*25
$AAMTW,24.7,C*12
$AAXDR,C,24.7,C,ENV_SEA_T*0F
$AAMDA,,I,,B,,C,24.7,C,,,,C,,T,,M,,N,,M*05
$AADPT,1.10,0.00*40
$GLGSV,3,3,09,83,42,207,34*53
$GNGLL,3651.88903,S,17443.42169,E,040717.00,A,A*69
$GNZDA,040717.00,31,01,2018,00,00*75
$GNRMC,040718.00,A,3651.88893,S,17443.42175,E,0.394,,310118,,,A*7E
$AADPT,1.08,0.00*49
$AADBT,3.5,f,1.08,M,0.5,F*2B
$AADBS,3.5,f,1.08,M,0.5,F*2C
$AAMTW,24.7,C*12
$AAXDR,C,24.7,C,ENV_SEA_T*0F
$AAMDA,,I,,B,,C,24.7,C,,,,C,,T,,M,,N,,M*05
$AADPT,1.08,0.00*49
$GNVTG,,T,,M,0.394,N,0.731,K,A*36
$GNGGA,040718.00,3651.88893,S,17443.42175,E,1,12,0.89,16.0,M,28.1,M,,*68
$GNGSA,A,3,02,05,26,29,13,20,,,,,,,1.43,0.89,1.13*10
$GNGSA,A,3,66,82,67,68,83,81,,,,,,,1.43,0.89,1.13*1F
$GPGSV,3,1,09,02,29,099,38,04,,,31,05,59,136,32,13,32,050,35*4A
$GPGSV,3,2,09,20,59,299,19,21,,,29,25,,,25,26,06,217,32*7A
$GPGSV,3,3,09,29,66,226,41*48
$GLGSV,3,1,09,66,14,150,38,67,66,130,38,68,51,346,22,69,03,335,*6E
$GLGSV,3,2,09,73,05,261,,74,05,213,23,81,20,065,35,82,62,110,37*6A
$AADPT,1.08,0.00*49
$AADBT,3.5,f,1.08,M,0.5,F*2B
$AADBS,3.5,f,1.08,M,0.5,F*2C
$AAMTW,24.7,C*12
$AAXDR,C,24.7,C,ENV_SEA_T*0F
$AAMDA,,I,,B,,C,24.7,C,,,,C,,T,,M,,N,,M*05
$AADPT,1.08,0.00*49
$GLGSV,3,3,09,83,42,207,36*51
$GNGLL,3651.88893,S,17443.42175,E,040718.00,A,A*63
$GNZDA,040718.00,31,01,2018,00,00*7A
$GNRMC,040719.00,A,3651.88901,S,17443.42200,E,0.100,,310118,,,A*7B
$AADPT,1.05,0.00*44
$AADBT,3.4,f,1.05,M,0.5,F*27
$AADBS,3.4,f,1.05,M,0.5,F*20
$AAMTW,24.7,C*12
$AAXDR,C,24.7,C,ENV_SEA_T*0F
$AAMDA,,I,,B,,C,24.7,C,,,,C,,T,,M,,N,,M*05
$AADPT,1.05,0.00*44
$GNVTG,,T,,M,0.100,N,0.185,K,A*30
$GNGGA,040719.00,3651.88901,S,17443.42200,E,1,12,0.89,16.5,M,28.1,M,,*67
$GNGSA,A,3,02,05,26,29,13,20,,,,,,,1.43,0.89,1.13*10
$GNGSA,A,3,66,82,67,68,83,81,,,,,,,1.43,0.89,1.13*1F
$GPGSV,3,1,09,02,29,099,35,04,,,39,05,59,136,42,13,32,050,35*48
$GPGSV,3,2,09,20,59,299,20,21,,,31,25,,,32,26,06,217,38*75
$GPGSV,3,3,09,29,66,226,38*46
$GLGSV,3,1,09,66,14,150,28,67,66,130,38,68,51,346,30,69,03,335,*6C
$GLGSV,3,2,09,73,05,261,,74,05,213,31,81,20,065,31,82,62,110,41*6C
$AADPT,1.05,0.00*44
$AADBT,3.4,f,1.05,M,0.5,F*27
$AADBS,3.4,f,1.05,M,0.5,F*20
$AAMTW,24.7,C*12
$AAXDR,C,24.7,C,ENV_SEA_T*0F
$AAMDA,,I,,B,,C,24.7,C,,,,C,,T,,M,,N,,M*05
$AADPT,1.05,0.00*44
$GLGSV,3,3,09,83,42,207,39*5E
$GNGLL,3651.88901,S,17443.42200,E,040719.00,A,A*69
$GNZDA,040719.00,31,01,2018,00,00*7B
$GNRMC,040720.00,A,3651.88894,S,17443.42198,E,0.521,,310118,,,A*79
$AADPT,1.05,0.00*44
$AADBT,3.4,f,1.05,M,0.5,F*27
$AADBS,3.4,f,1.05,M,0.5,F*20
$AAMTW,24.7,C*12
$AAXDR,C,24.7,C,ENV_SEA_T*0F
$AAMDA,,I,,B,,C,24.7,C,,,,C,,T,,M,,N,,M*05
$AADPT,1.05,0.00*44
$GNVTG,,T,,M,0.521,N,0.964,K,A*30
$GNGGA,040720.00,3651.88894,S,17443.42198,E,1,12,0.89,16.3,M,28.1,M,,*64
$GNGSA,A,3,02,05,26,29,13,20,,,,,,,1.43,0.89,1.13*10
$GNGSA,A,3,66,82,67,68,83,81,,,,,,,1.43,0.89,1.13*1F
$GPGSV,3,1,09,02,29,098,32,04,,,36,05,59,136,41,13,32,050,35*42
$GPGSV,3,2,09,20,59,299,21,21,,,30,25,,,25,26,06,217,38*73
$GPGSV,3,3,09,29,66,226,40*49
$GLGSV,3,1,09,66,14,150,27,67,66,130,37,68,51,346,31,69,03,335,*6D
$GLGSV,3,2,09,73,05,261,,74,05,213,34,81,20,065,24,82,62,110,41*6D
$AADPT,1.05,0.00*44
$AADBT,3.4,f,1.05,M,0.5,F*27
$AADBS,3.4,f,1.05,M,0.5,F*20
$AAMTW,24.7,C*12
$AAXDR,C,24.7,C,ENV_SEA_T*0F
$AAMDA,,I,,B,,C,24.7,C,,,,C,,T,,M,,N,,M*05
$AADPT,1.05,0.00*44
$GLGSV,3,3,09,83,42,207,39*5E
$GNGLL,3651.88894,S,17443.42198,E,040720.00,A,A*6C
$GNZDA,040720.00,31,01,2018,00,00*71
$GNRMC,040721.00,A,3651.88875,S,17443.42208,E,0.844,144.26,310118,,,A*68
$AADPT,1.05,0.00*44
$AADBT,3.4,f,1.05,M,0.5,F*27
$AADBS,3.4,f,1.05,M,0.5,F*20
$AAMTW,24.7,C*12
$AAXDR,C,24.7,C,ENV_SEA_T*0F
$GNVTG,144.26,T,,M,0.844,N,1.564,K,A*28
$AAMDA,,I,,B,,C,24.7,C,,,,C,,T,,M,,N,,M*05
$GNGGA,040721.00,3651.88875,S,17443.42208,E,1,12,0.95,16.3,M,28.1,M,,*6D
$AADPT,1.05,0.00*44
$GNGSA,A,3,02,05,26,29,13,20,,,,,,,1.51,0.95,1.17*1A
$GNGSA,A,3,66,82,67,68,83,81,,,,,,,1.51,0.95,1.17*15
$GPGSV,3,1,09,02,29,098,38,04,,,34,05,59,136,38,13,32,050,35*44
$GPGSV,3,2,09,20,59,299,23,21,,,30,25,,,23,26,06,217,33*7C
$GPGSV,3,3,09,29,66,226,39*47
$GLGSV,3,1,09,66,14,150,32,67,66,130,36,68,51,346,30,69,03,335,*69
$GLGSV,3,2,09,73,05,261,,74,05,213,25,81,20,065,31,82,62,110,37*68
$AADPT,1.05,0.00*44
$AADBT,3.4,f,1.05,M,0.5,F*27
$AADBS,3.4,f,1.05,M,0.5,F*20
$AAMTW,24.7,C*12
$AAXDR,C,24.7,C,ENV_SEA_T*0F
$AAMDA,,I,,B,,C,24.7,C,,,,C,,T,,M,,N,,M*05
$AADPT,1.05,0.00*44
$GLGSV,3,3,09,83,42,207,29*5F
$GNGLL,3651.88875,S,17443.42208,E,040721.00,A,A*68
$GNZDA,040721.00,31,01,2018,00,00*70
$GNRMC,040722.00,A,3651.88868,S,17443.42209,E,0.371,,310118,,,A*70
$AADPT,1.05,0.00*44
$AADBT,3.4,f,1.05,M,0.5,F*27
$AADBS,3.4,f,1.05,M,0.5,F*20
$AAMTW,24.7,C*12
$AAXDR,C,24.7,C,ENV_SEA_T*0F
$AAMDA,,I,,B,,C,24.7,C,,,,C,,T,,M,,N,,M*05
$AADPT,1.05,0.00*44
$GNVTG,,T,,M,0.371,N,0.688,K,A*3E
$GNGGA,040722.00,3651.88868,S,17443.42209,E,1,12,0.89,16.4,M,28.1,M,,*69
$GNGSA,A,3,02,05,26,29,13,20,,,,,,,1.43,0.89,1.13*10
$GNGSA,A,3,66,82,67,68,83,81,,,,,,,1.43,0.89,1.13*1F
$GPGSV,3,1,09,02,29,098,43,04,,,29,05,59,136,43,13,32,050,37*4A
$GPGSV,3,2,09,20,59,299,24,21,,,23,25,,,29,26,06,217,27*76
$GPGSV,3,3,09,29,66,226,41*48
$GLGSV,3,1,09,66,14,150,40,67,66,130,37,68,51,346,23,69,03,335,*6F
$GLGSV,3,2,09,73,05,261,,74,05,213,31,81,20,065,29,82,62,110,37*64
$AADPT,1.05,0.00*44
$AADBT,3.4,f,1.05,M,0.5,F*27
$AADBS,3.4,f,1.05,M,0.5,F*20
$AAMTW,24.7,C*12
$AAXDR,C,24.7,C,ENV_SEA_T*0F
$AAMDA,,I,,B,,C,24.7,C,,,,C,,T,,M,,N,,M*05
$AADPT,1.05,0.00*44
$GLGSV,3,3,09,83,42,207,35*52
$GNGLL,3651.88868,S,17443.42209,E,040722.00,A,A*66
$GNZDA,040722.00,31,01,2018,00,00*73
$GNRMC,040723.00,A,3651.88887,S,17443.42225,E,0.624,132.50,310118,,,A*60
$AADPT,1.08,0.00*49
$AADBT,3.5,f,1.08,M,0.5,F*2B
$AADBS,3.5,f,1.08,M,0.5,F*2C
$AAMTW,24.7,C*12
$AAXDR,C,24.7,C,ENV_SEA_T*0F
$AAMDA,,I,,B,,C,24.7,C,,,,C,,T,,M,,N,,M*05
$AADPT,1.08,0.00*49
$GNVTG,132.50,T,,M,0.624,N,1.156,K,A*25
$GNGGA,040723.00,3651.88887,S,17443.42225,E,1,12,0.89,16.3,M,28.1,M,,*60
$GNGSA,A,3,02,05,26,29,13,20,,,,,,,1.43,0.89,1.13*10
$GNGSA,A,3,66,82,67,68,83,81,,,,,,,1.43,0.89,1.13*1F
$GPGSV,3,1,09,02,29,098,43,04,,,32,05,59,136,43,13,32,050,33*44
$GPGSV,3,2,09,20,59,299,30,21,,,22,25,,,21,26,06,217,35*79
$GPGSV,3,3,09,29,66,226,41*48
$GLGSV,3,1,09,66,14,150,43,67,66,130,30,68,51,346,33,69,03,335,*6A
$GLGSV,3,2,09,73,05,261,,74,05,213,26,81,20,065,29,82,62,110,25*61
$AADPT,1.08,0.00*49
$AADBT,3.5,f,1.08,M,0.5,F*2B
$AADBS,3.5,f,1.08,M,0.5,F*2C
$AAMTW,24.7,C*12
$AAXDR,C,24.7,C,ENV_SEA_T*0F
$AAMDA,,I,,B,,C,24.7,C,,,,C,,T,,M,,N,,M*05
$AADPT,1.08,0.00*49
$GLGSV,3,3,09,83,42,207,38*5F
$GNGLL,3651.88887,S,17443.42225,E,040723.00,A,A*68
$GNZDA,040723.00,31,01,2018,00,00*72
$GNRMC,040724.00,A,3651.88906,S,17443.42241,E,0.776,140.15,310118,,,A*6F
$AADPT,1.10,0.00*40
$AADBT,3.6,f,1.10,M,0.6,F*22
$AADBS,3.6,f,1.10,M,0.6,F*25
$AAMTW,24.7,C*12
$AAXDR,C,24.7,C,ENV_SEA_T*0F
$AAMDA,,I,,B,,C,24.7,C,,,,C,,T,,M,,N,,M*05
$AADPT,1.10,0.00*40
$GNVTG,140.15,T,,M,0.776,N,1.436,K,A*24
$GNGGA,040724.00,3651.88906,S,17443.42241,E,1,12,0.89,16.4,M,28.1,M,,*6A
$GNGSA,A,3,02,05,26,29,13,20,,,,,,,1.43,0.89,1.13*10
$GNGSA,A,3,66,82,67,68,83,81,,,,,,,1.43,0.89,1.13*1F
$GPGSV,3,1,09,02,29,098,38,04,,,37,05,59,136,41,13,32,050,34*48
$GPGSV,3,2,09,20,59,299,29,21,,,29,25,,,21,26,06,217,34*7B
$GPGSV,3,3,09,29,66,226,40*49
$AADPT,1.10,0.00*40
$AADBT,3.6,f,1.10,M,0.6,F*22
$GLGSV,3,1,09,66,14,150,32,67,66,130,22,68,51,346,31,69,03,335,*6D
$GLGSV,3,2,09,73,05,261,,74,05,213,35,81,20,065,34,82,62,110,35*6E
$AADBS,3.6,f,1.10,M,0.6,F*25
$AAMTW,24.7,C*12
$AAXDR,C,24.7,C,ENV_SEA_T*0F
$AAMDA,,I,,B,,C,24.7,C,,,,C,,T,,M,,N,,M*05
$AADPT,1.10,0.00*40
$GLGSV,3,3,09,83,42,207,34*53
$GNGLL,3651.88906,S,17443.42241,E,040724.00,A,A*65
$GNZDA,040724.00,31,01,2018,00,00*75
$GNRMC,040725.00,A,3651.88932,S,17443.42254,E,1.249,152.64,310118,,,A*60
$AADPT,1.10,0.00*40
$AADBT,3.6,f,1.10,M,0.6,F*22
$AADBS,3.6,f,1.10,M,0.6,F*25
$AAMTW,24.7,C*12
$AAXDR,C,24.7,C,ENV_SEA_T*0F
$AAMDA,,I,,B,,C,24.7,C,,,,C,,T,,M,,N,,M*05
$AADPT,1.10,0.00*40
$GNVTG,152.64,T,,M,1.249,N,2.313,K,A*2A
$GNGGA,040725.00,3651.88932,S,17443.42254,E,1,12,0.89,16.2,M,28.1,M,,*6E
$GNGSA,A,3,02,05,26,29,13,20,,,,,,,1.43,0.89,1.13*10
$GNGSA,A,3,66,82,67,68,83,81,,,,,,,1.43,0.89,1.13*1F
$GPGSV,3,1,09,02,29,098,36,04,,,40,05,59,136,42,13,32,050,34*45
$GPGSV,3,2,09,20,59,299,32,21,,,28,25,,,21,26,06,217,34*70
$GPGSV,3,3,09,29,66,226,41*48
$AADPT,1.10,0.00*40
$GLGSV,3,1,09,66,14,150,35,67,66,130,22,68,51,346,30,69,03,335,*6B
$GLGSV,3,2,09,73,05,261,,74,05,213,35,81,20,065,23,82,62,110,32*6F
$AADBT,3.6,f,1.10,M,0.6,F*22
$AADBS,3.6,f,1.10,M,0.6,F*25
$AAMTW,24.7,C*12
$AAXDR,C,24.7,C,ENV_SEA_T*0F
$AAMDA,,I,,B,,C,24.7,C,,,,C,,T,,M,,N,,M*05
$AADPT,1.10,0.00*40
$GLGSV,3,3,09,83,42,207,34*53
$GNGLL,3651.88932,S,17443.42254,E,040725.00,A,A*67
$GNZDA,040725.00,31,01,2018,00,00*74
$GNRMC,040726.00,A,3651.88970,S,17443.42262,E,1.450,160.33,310118,,,A*6D
$AADPT,1.19,0.00*49
$AADBT,3.9,f,1.19,M,0.6,F*24
$AADBS,3.9,f,1.19,M,0.6,F*23
$AAMTW,24.7,C*12
$AAXDR,C,24.7,C,ENV_SEA_T*0F
$AAMDA,,I,,B,,C,24.7,C,,,,C,,T,,M,,N,,M*05
$AADPT,1.19,0.00*49
$GNVTG,160.33,T,,M,1.450,N,2.686,K,A*2E
$GNGGA,040726.00,3651.88970,S,17443.42262,E,1,12,0.89,16.3,M,28.1,M,,*6F
$GNGSA,A,3,02,05,26,29,13,20,,,,,,,1.43,0.89,1.13*10
$GNGSA,A,3,66,82,67,68,83,81,,,,,,,1.43,0.89,1.13*1F
$GPGSV,3,1,09,02,29,098,40,04,,,37,05,59,136,37,13,32,050,31*43
$GPGSV,3,2,09,20,59,299,26,21,,,34,25,,,21,26,06,217,35*79
$GPGSV,3,3,09,29,66,226,42*4B
$AADPT,1.19,0.00*49
$AADBT,3.9,f,1.19,M,0.6,F*24
$GLGSV,3,1,09,66,14,150,35,67,66,130,30,68,51,346,36,69,03,335,*6E
$AADBS,3.9,f,1.19,M,0.6,F*23
$GLGSV,3,2,09,73,05,261,,74,05,213,35,81,20,065,31,82,62,110,33*6D
$AAMTW,24.7,C*12
$AAXDR,C,24.7,C,ENV_SEA_T*0F
$AAMDA,,I,,B,,C,24.7,C,,,,C,,T,,M,,N,,M*05
$AADPT,1.19,0.00*49
$GLGSV,3,3,09,83,42,207,33*54
$GNGLL,3651.88970,S,17443.42262,E,040726.00,A,A*67
$GNZDA,040726.00,31,01,2018,00,00*77
$GNRMC,040727.00,A,3651.89009,S,17443.42265,E,1.484,166.05,310118,,,A*67
$AADPT,1.28,0.00*4B
$AADBT,4.1,f,1.28,M,0.6,F*29
$AADBS,4.1,f,1.28,M,0.6,F*2E
$AAMTW,24.7,C*12
$AAXDR,C,24.7,C,ENV_SEA_T*0F
$AAMDA,,I,,B,,C,24.7,C,,,,C,,T,,M,,N,,M*05
$AADPT,1.28,0.00*4B
$GNVTG,166.05,T,,M,1.484,N,2.749,K,A*26
$GNGGA,040727.00,3651.89009,S,17443.42265,E,1,12,0.89,16.2,M,28.1,M,,*6E
$GNGSA,A,3,02,05,26,29,13,20,,,,,,,1.43,0.89,1.13*10
$GNGSA,A,3,66,82,67,68,83,81,,,,,,,1.43,0.89,1.13*1F
$GPGSV,3,1,09,02,29,098,38,04,,,37,05,59,136,39,13,33,050,31*43
$GPGSV,3,2,09,20,59,299,32,21,,,32,25,,,21,26,06,217,36*79
$GPGSV,3,3,09,29,66,226,42*4B
$AADPT,1.28,0.00*4B
$AADBT,4.1,f,1.28,M,0.6,F*29
$GLGSV,3,1,09,66,14,150,35,67,66,130,25,68,51,346,36,69,03,335,*6A
$GLGSV,3,2,09,73,05,261,,74,05,213,35,81,20,065,30,82,62,110,33*6C
$AADBS,4.1,f,1.28,M,0.6,F*2E
$AAMTW,24.7,C*12
$AAXDR,C,24.7,C,ENV_SEA_T*0F
$AAMDA,,I,,B,,C,24.7,C,,,,C,,T,,M,,N,,M*05
$AADPT,1.28,0.00*4B
$GLGSV,3,3,09,83,42,207,34*53
$GNGLL,3651.89009,S,17443.42265,E,040727.00,A,A*67
$GNZDA,040727.00,31,01,2018,00,00*76
$GNRMC,040728.00,A,3651.89042,S,17443.42270,E,1.350,165.74,310118,,,A*68
$AADPT,1.37,0.00*45
$AADBT,4.4,f,1.37,M,0.7,F*23
$AADBS,4.4,f,1.37,M,0.7,F*24
$AAMTW,24.7,C*12
$AAXDR,C,24.7,C,ENV_SEA_T*0F
$AAMDA,,I,,B,,C,24.7,C,,,,C,,T,,M,,N,,M*05
$AADPT,1.37,0.00*45
$GNVTG,165.74,T,,M,1.350,N,2.500,K,A*22
$GNGGA,040728.00,3651.89042,S,17443.42270,E,1,12,0.89,16.2,M,28.1,M,,*6A
$GNGSA,A,3,02,05,26,29,13,20,,,,,,,1.43,0.89,1.13*10
$GNGSA,A,3,66,82,67,68,83,81,,,,,,,1.43,0.89,1.13*1F
$GPGSV,3,1,09,02,29,098,38,04,,,37,05,59,136,40,13,33,050,30*4C
$GPGSV,3,2,09,20,60,298,31,21,,,32,25,,,20,26,06,217,36*70
$GPGSV,3,3,09,29,66,226,42*4B
$AADPT,1.37,0.00*45
$AADBT,4.4,f,1.37,M,0.7,F*23
$GLGSV,3,1,09,66,14,150,35,67,66,130,26,68,51,346,34,69,03,335,*6B
$GLGSV,3,2,09,73,05,261,,74,05,213,35,81,20,065,22,82,62,110,33*6F
$AADBS,4.4,f,1.37,M,0.7,F*24
$AAMTW,24.7,C*12
$AAXDR,C,24.7,C,ENV_SEA_T*0F
$AAMDA,,I,,B,,C,24.7,C,,,,C,,T,,M,,N,,M*05
$AADPT,1.37,0.00*45
$GLGSV,3,3,09,83,42,207,34*53
$GNGLL,3651.89042,S,17443.42270,E,040728.00,A,A*63
$GNZDA,040728.00,31,01,2018,00,00*79
$GNRMC,040729.00,A,3651.89058,S,17443.42251,E,0.809,178.70,310118,,,A*6F
$AADPT,1.37,0.00*45
$AADBT,4.4,f,1.37,M,0.7,F*23
$AADBS,4.4,f,1.37,M,0.7,F*24
$AAMTW,24.7,C*12
$AAXDR,C,24.7,C,ENV_SEA_T*0F
$AAMDA,,I,,B,,C,24.7,C,,,,C,,T,,M,,N,,M*05
$AADPT,1.37,0.00*45
$GNVTG,178.70,T,,M,0.809,N,1.498,K,A*2F
$GNGGA,040729.00,3651.89058,S,17443.42251,E,1,12,0.89,16.0,M,28.1,M,,*61
$GNGSA,A,3,02,05,26,29,13,20,,,,,,,1.43,0.89,1.13*10
$GNGSA,A,3,66,82,67,68,83,81,,,,,,,1.43,0.89,1.13*1F
$GPGSV,3,1,09,02,29,098,38,04,,,42,05,59,136,43,13,33,050,26*4A
$GPGSV,3,2,09,20,60,298,39,21,,,38,25,,,20,26,06,218,27*7D
$GPGSV,3,3,09,29,66,226,45*4C
$AADPT,1.37,0.00*45
$AADBT,4.4,f,1.37,M,0.7,F*23
$GLGSV,3,1,09,66,14,150,36,67,66,130,34,68,51,346,37,69,03,335,*68
$GLGSV,3,2,09,73,05,261,,74,05,213,32,81,20,065,24,82,62,110,36*6B
$AADBS,4.4,f,1.37,M,0.7,F*24
$AAMTW,24.7,C*12
$AAXDR,C,24.7,C,ENV_SEA_T*0F
$AAMDA,,I,,B,,C,24.7,C,,,,C,,T,,M,,N,,M*05
$AADPT,1.37,0.00*45
$GLGSV,3,3,09,83,42,207,38*5F
$GNGLL,3651.89058,S,17443.42251,E,040729.00,A,A*6A
$GNZDA,040729.00,31,01,2018,00,00*78
$AADPT,1.37,0.00*45
$AADBT,4.4,f,1.37,M,0.7,F*23
$GNRMC,040730.00,A,3651.89049,S,17443.42239,E,0.343,,310118,,,A*7B
$AADBS,4.4,f,1.37,M,0.7,F*24
$AAMTW,24.7,C*12
$AAXDR,C,24.7,C,ENV_SEA_T*0F
$AAMDA,,I,,B,,C,24.7,C,,,,C,,T,,M,,N,,M*05
$AADPT,1.37,0.00*45
$GNVTG,,T,,M,0.343,N,0.635,K,A*39
$GNGGA,040730.00,3651.89049,S,17443.42239,E,1,12,0.89,16.1,M,28.1,M,,*66
$GNGSA,A,3,02,05,26,29,13,20,,,,,,,1.43,0.89,1.13*10
$GNGSA,A,3,66,82,67,68,83,81,,,,,,,1.43,0.89,1.13*1F
$GPGSV,3,1,09,02,29,098,35,04,,,32,05,59,136,39,13,33,050,25*4E
$GPGSV,3,2,09,20,60,298,39,21,,,33,25,,,36,26,06,218,27*71
$GPGSV,3,3,09,29,67,226,42*4A
$AADPT,1.34,0.00*46
$AADBT,4.3,f,1.34,M,0.7,F*27
$AADBS,4.3,f,1.34,M,0.7,F*20
$AAMTW,24.7,C*12
$AAXDR,C,24.7,C,ENV_SEA_T*0F
$AAMDA,,I,,B,,C,24.7,C,,,,C,,T,,M,,N,,M*05
$AADPT,1.34,0.00*46
$GLGSV,3,1,09,66,14,150,43,67,66,130,39,68,51,346,34,69,03,335,*64
$GLGSV,3,2,09,73,05,261,,74,05,213,26,81,20,065,23,82,62,110,37*68
$GLGSV,3,3,09,83,42,207,29*5F
$GNGLL,3651.89049,S,17443.42239,E,040730.00,A,A*6C
$GNZDA,040730.00,31,01,2018,00,00*70
$AADPT,1.34,0.00*46
$GNRMC,040731.00,A,3651.89061,S,17443.42243,E,0.326,,310118,,,A*7E
$AADBT,4.3,f,1.34,M,0.7,F*27
$AADBS,4.3,f,1.34,M,0.7,F*20
$AAMTW,24.7,C*12
$AAXDR,C,24.7,C,ENV_SEA_T*0F
$AAMDA,,I,,B,,C,24.7,C,,,,C,,T,,M,,N,,M*05
$AADPT,1.34,0.00*46
$GNVTG,,T,,M,0.326,N,0.605,K,A*39
$GNGGA,040731.00,3651.89061,S,17443.42243,E,1,12,0.89,16.0,M,28.1,M,,*61
$GNGSA,A,3,02,05,26,29,13,20,,,,,,,1.43,0.89,1.13*10
$GNGSA,A,3,66,82,67,68,83,81,,,,,,,1.43,0.89,1.13*1F
$GPGSV,3,1,09,02,29,098,35,04,,,32,05,59,136,40,13,33,050,25*40
$GPGSV,3,2,09,20,60,298,40,21,,,28,25,,,31,26,06,218,35*71
$GPGSV,3,3,09,29,67,226,42*4A
$AADPT,1.40,0.00*45
$AADBT,4.5,f,1.40,M,0.7,F*22
$AADBS,4.5,f,1.40,M,0.7,F*25
$GLGSV,3,1,09,66,14,150,29,67,66,130,37,68,51,346,30,69,03,335,*62
$GLGSV,3,2,09,73,05,261,,74,05,213,34,81,20,065,25,82,62,110,41*6C
$AAMTW,24.7,C*12
$AAXDR,C,24.7,C,ENV_SEA_T*0F
$AAMDA,,I,,B,,C,24.7,C,,,,C,,T,,M,,N,,M*05
$AADPT,1.40,0.00*45
$GLGSV,3,3,09,83,42,207,34*53
$GNGLL,3651.89061,S,17443.42243,E,040731.00,A,A*6A
$GNZDA,040731.00,31,01,2018,00,00*71
$AADPT,1.40,0.00*45
$AADBT,4.5,f,1.40,M,0.7,F*22
$GNRMC,040732.00,A,3651.89046,S,17443.42241,E,0.709,118.90,310118,,,A*6C
$AADBS,4.5,f,1.40,M,0.7,F*25
$AAMTW,24.7,C*12
$AAXDR,C,24.7,C,ENV_SEA_T*0F
$AAMDA,,I,,B,,C,24.7,C,,,,C,,T,,M,,N,,M*05
$AADPT,1.40,0.00*45
$GNVTG,118.90,T,,M,0.709,N,1.314,K,A*2B
$GNGGA,040732.00,3651.89046,S,17443.42241,E,1,12,0.89,15.8,M,28.1,M,,*6E
$GNGSA,A,3,02,05,26,29,13,20,,,,,,,1.43,0.89,1.13*10
$GNGSA,A,3,66,82,67,68,83,81,,,,,,,1.43,0.89,1.13*1F
$GPGSV,3,1,09,02,29,098,25,04,,,31,05,59,136,41,13,33,050,24*42
$GPGSV,3,2,09,20,60,298,37,21,,,28,25,,,28,26,06,218,39*75
$GPGSV,3,3,09,29,67,226,41*49
$AADPT,1.31,0.00*43
$AADBT,4.2,f,1.31,M,0.7,F*23
$AADBS,4.2,f,1.31,M,0.7,F*24
$AAMTW,24.7,C*12
$GLGSV,3,1,09,66,14,150,29,67,66,130,35,68,51,346,30,69,03,335,*60
$AAXDR,C,24.7,C,ENV_SEA_T*0F
$GLGSV,3,2,09,73,05,261,,74,05,213,34,81,20,065,26,82,62,110,40*6E
$AAMDA,,I,,B,,C,24.7,C,,,,C,,T,,M,,N,,M*05
$AADPT,1.31,0.00*43
$GLGSV,3,3,09,83,42,207,37*50
$GNGLL,3651.89046,S,17443.42241,E,040732.00,A,A*6E
$GNZDA,040732.00,31,01,2018,00,00*72
$AADPT,1.31,0.00*43
$AADBT,4.2,f,1.31,M,0.7,F*23
$GNRMC,040733.00,A,3651.89024,S,17443.42244,E,0.867,60.40,310118,,,A*58
$AADBS,4.2,f,1.31,M,0.7,F*24
$AAMTW,24.7,C*12
$AAXDR,C,24.7,C,ENV_SEA_T*0F
$AAMDA,,I,,B,,C,24.7,C,,,,C,,T,,M,,N,,M*05
$AADPT,1.31,0.00*43
$GNVTG,60.40,T,,M,0.867,N,1.605,K,A*1A
$GNGGA,040733.00,3651.89024,S,17443.42244,E,1,12,0.89,16.0,M,28.1,M,,*65
$GNGSA,A,3,02,05,26,29,13,20,,,,,,,1.43,0.89,1.13*10
$GNGSA,A,3,66,82,67,68,83,81,,,,,,,1.43,0.89,1.13*1F
$GPGSV,3,1,09,02,29,098,39,04,,,32,05,59,136,37,13,33,050,34*4C
$GPGSV,3,2,09,20,60,298,35,21,,,33,25,,,27,26,06,218,32*79
$GPGSV,3,3,09,29,67,226,43*4B
$AADPT,1.22,0.00*41
$AADBT,4.0,f,1.22,M,0.6,F*22
$AADBS,4.0,f,1.22,M,0.6,F*25
$AAMTW,24.7,C*12
$GLGSV,3,1,09,66,14,150,38,67,66,130,38,68,51,346,29,69,03,335,*65
$AAXDR,C,24.7,C,ENV_SEA_T*0F
$GLGSV,3,2,09,73,05,261,,74,05,213,27,81,20,065,31,82,62,110,37*6A
$AAMDA,,I,,B,,C,24.7,C,,,,C,,T,,M,,N,,M*05
$AADPT,1.22,0.00*41
$GLGSV,3,3,09,83,42,207,31*56
$GNGLL,3651.89024,S,17443.42244,E,040733.00,A,A*6E
$GNZDA,040733.00,31,01,2018,00,00*73
$AADPT,1.22,0.00*41
$GNRMC,040734.00,A,3651.89011,S,17443.42263,E,0.493,61.73,310118,,,A*5A
$AADBT,4.0,f,1.22,M,0.6,F*22
$AADBS,4.0,f,1.22,M,0.6,F*25
$AAMTW,24.7,C*12
$AAXDR,C,24.7,C,ENV_SEA_T*0F
$AAMDA,,I,,B,,C,24.7,C,,,,C,,T,,M,,N,,M*05
$AADPT,1.22,0.00*41
$GNVTG,61.73,T,,M,0.493,N,0.913,K,A*15
$GNGGA,040734.00,3651.89011,S,17443.42263,E,1,12,0.89,15.8,M,28.1,M,,*6A
$GNGSA,A,3,02,05,26,29,13,20,,,,,,,1.43,0.89,1.13*10
$GNGSA,A,3,66,82,67,68,83,81,,,,,,,1.43,0.89,1.13*1F
$GPGSV,3,1,09,02,29,098,38,04,,,24,05,59,136,42,13,33,050,33*4F
$GPGSV,3,2,09,20,60,298,35,21,,,22,25,,,26,26,06,218,33*79
$GPGSV,3,3,09,29,67,226,37*48
$AADPT,1.10,0.00*40
$AADBT,3.6,f,1.10,M,0.6,F*22
$AADBS,3.6,f,1.10,M,0.6,F*25
$GLGSV,3,1,09,66,14,150,43,67,66,130,35,68,51,346,35,69,03,335,*69
$AAMTW,24.7,C*12
$GLGSV,3,2,09,73,05,261,,74,05,213,28,81,20,065,31,82,62,110,34*66
$AAXDR,C,24.7,C,ENV_SEA_T*0F
$AAMDA,,I,,B,,C,24.7,C,,,,C,,T,,M,,N,,M*05
$AADPT,1.10,0.00*40
$GLGSV,3,3,09,83,42,207,38*5F
$GNGLL,3651.89011,S,17443.42263,E,040734.00,A,A*6A
$GNZDA,040734.00,31,01,2018,00,00*74
$AADPT,1.10,0.00*40
$AADBT,3.6,f,1.10,M,0.6,F*22
$AADBS,3.6,f,1.10,M,0.6,F*25
$GNRMC,040735.00,A,3651.88984,S,17443.42265,E,0.765,9.72,310118,,,A*6C
$AAMTW,24.7,C*12
$AAXDR,C,24.7,C,ENV_SEA_T*0F
$AAMDA,,I,,B,,C,24.7,C,,,,C,,T,,M,,N,,M*05
$AADPT,1.10,0.00*40
$GNVTG,9.72,T,,M,0.765,N,1.416,K,A*29
$GNGGA,040735.00,3651.88984,S,17443.42265,E,1,12,0.89,15.5,M,28.1,M,,*64
$GNGSA,A,3,02,05,26,29,13,20,,,,,,,1.43,0.89,1.13*10
$GNGSA,A,3,66,82,67,68,83,81,,,,,,,1.43,0.89,1.13*1F
$GPGSV,3,1,09,02,29,098,38,04,,,40,05,59,136,42,13,33,050,22*4D
$GPGSV,3,2,09,20,60,298,33,21,,,36,25,,,24,26,06,218,36*7D
$GPGSV,3,3,09,29,67,226,42*4A
$AADPT,1.28,0.00*4B
$AADBT,4.1,f,1.28,M,0.6,F*29
$AADBS,4.1,f,1.28,M,0.6,F*2E
$AAMTW,24.7,C*12
$AAXDR,C,24.7,C,ENV_SEA_T*0F
$GLGSV,3,1,09,66,14,150,38,67,66,130,27,68,51,346,38,69,03,335,*6B
$AAMDA,,I,,B,,C,24.7,C,,,,C,,T,,M,,N,,M*05
$GLGSV,3,2,09,73,05,261,,74,05,213,36,81,20,065,31,82,62,110,34*69
$AADPT,1.28,0.00*4B
$GLGSV,3,3,09,83,42,207,39*5E
$GNGLL,3651.88984,S,17443.42265,E,040735.00,A,A*69
$GNZDA,040735.00,31,01,2018,00,00*75
$AADPT,1.28,0.00*4B
$AADBT,4.1,f,1.28,M,0.6,F*29
$AADBS,4.1,f,1.28,M,0.6,F*2E
$AAMTW,24.7,C*12
$GNRMC,040736.00,A,3651.88968,S,17443.42300,E,0.882,25.05,310118,,,A*57
$AAXDR,C,24.7,C,ENV_SEA_T*0F
$AAMDA,,I,,B,,C,24.7,C,,,,C,,T,,M,,N,,M*05
$AADPT,1.28,0.00*4B
$GNVTG,25.05,T,,M,0.882,N,1.633,K,A*14
$GNGGA,040736.00,3651.88968,S,17443.42300,E,1,11,0.95,16.0,M,28.1,M,,*6F
$GNGSA,A,3,02,05,26,29,20,,,,,,,,1.50,0.95,1.16*18
$GNGSA,A,3,66,82,67,68,83,81,,,,,,,1.50,0.95,1.16*15
$GPGSV,3,1,09,02,29,098,32,04,,,33,05,59,136,41,13,33,050,26*44
$GPGSV,3,2,09,20,60,298,33,21,,,33,25,,,30,26,06,218,39*72
$GPGSV,3,3,09,29,67,226,43*4B
$AADPT,1.10,0.00*40
$AADBT,3.6,f,1.10,M,0.6,F*22
$AADBS,3.6,f,1.10,M,0.6,F*25
$AAMTW,24.7,C*12
$AAXDR,C,24.7,C,ENV_SEA_T*0F
$AAMDA,,I,,B,,C,24.7,C,,,,C,,T,,M,,N,,M*05
$GLGSV,3,1,09,66,14,150,29,67,66,130,36,68,51,346,33,69,03,335,*60
$AADPT,1.10,0.00*40
$GLGSV,3,2,09,73,05,261,,74,05,213,33,81,20,065,24,82,62,110,40*6B
$GLGSV,3,3,09,83,42,207,38*5F
$GNGLL,3651.88968,S,17443.42300,E,040736.00,A,A*6A
$GNZDA,040736.00,31,01,2018,00,00*76
$AADPT,1.10,0.00*40
$AADBT,3.6,f,1.10,M,0.6,F*22
$AADBS,3.6,f,1.10,M,0.6,F*25
$AAMTW,24.7,C*12
$GNRMC,040737.00,A,3651.88951,S,17443.42328,E,0.952,48.19,310118,,,A*5C
$AAXDR,C,24.7,C,ENV_SEA_T*0F
$AAMDA,,I,,B,,C,24.7,C,,,,C,,T,,M,,N,,M*05
$AADPT,1.10,0.00*40
$GNVTG,48.19,T,,M,0.952,N,1.764,K,A*1D
$GNGGA,040737.00,3651.88951,S,17443.42328,E,1,12,0.89,15.7,M,28.1,M,,*64
$GNGSA,A,3,02,05,26,29,13,20,,,,,,,1.43,0.89,1.13*10
$GNGSA,A,3,66,82,67,68,83,81,,,,,,,1.43,0.89,1.13*1F
$GPGSV,3,1,09,02,29,098,42,04,,,24,05,59,136,44,13,33,050,32*45
$GPGSV,3,2,09,20,60,298,35,21,,,31,25,,,21,26,06,218,28*76
$GPGSV,3,3,09,29,67,226,43*4B
$AADPT,1.14,0.00*44
$AADBT,3.7,f,1.14,M,0.6,F*27
$AADBS,3.7,f,1.14,M,0.6,F*20
$AAMTW,24.7,C*12
$AAXDR,C,24.7,C,ENV_SEA_T*0F
$AAMDA,,I,,B,,C,24.7,C,,,,C,,T,,M,,N,,M*05
$GLGSV,3,1,09,66,14,150,31,67,66,130,39,68,51,346,28,69,03,335,*6C
$GLGSV,3,2,09,73,05,261,,74,05,213,28,81,20,065,31,82,62,110,37*65
$AADPT,1.14,0.00*44
$GLGSV,3,3,09,83,42,207,35*52
$GNGLL,3651.88951,S,17443.42328,E,040737.00,A,A*6B
$GNZDA,040737.00,31,01,2018,00,00*77
$AADPT,1.14,0.00*44
$AADBT,3.7,f,1.14,M,0.6,F*27
$AADBS,3.7,f,1.14,M,0.6,F*20
$AAMTW,24.7,C*12
$AAXDR,C,24.7,C,ENV_SEA_T*0F
$GNRMC,040738.00,A,3651.88931,S,17443.42332,E,0.553,12.10,310118,,,A*55
$AAMDA,,I,,B,,C,24.7,C,,,,C,,T,,M,,N,,M*05
$AADPT,1.14,0.00*44
$GNVTG,12.10,T,,M,0.553,N,1.024,K,A*15
$GNGGA,040738.00,3651.88931,S,17443.42332,E,1,12,0.89,15.7,M,28.1,M,,*66
$GNGSA,A,3,02,05,26,29,13,20,,,,,,,1.44,0.89,1.13*17
$GNGSA,A,3,66,82,67,68,83,81,,,,,,,1.44,0.89,1.13*18
$GPGSV,3,1,09,02,29,098,40,04,,,36,05,59,136,40,13,33,050,32*40
$GPGSV,3,2,09,20,60,298,30,21,,,31,25,,,21,26,06,218,38*72
$GPGSV,3,3,09,29,67,226,41*49
$AADPT,1.16,0.00*46
$AADBT,3.8,f,1.16,M,0.6,F*2A
$AADBS,3.8,f,1.16,M,0.6,F*2D
$AAMTW,24.7,C*12
$AAXDR,C,24.7,C,ENV_SEA_T*0F
$AAMDA,,I,,B,,C,24.7,C,,,,C,,T,,M,,N,,M*05
$AADPT,1.16,0.00*46
$GLGSV,3,1,09,66,14,150,38,67,66,130,26,68,51,346,37,69,03,335,*65
$GLGSV,3,2,09,73,05,261,,74,05,213,36,81,20,065,24,82,62,110,34*6D
$GLGSV,3,3,09,83,42,207,36*51
$GNGLL,3651.88931,S,17443.42332,E,040738.00,A,A*69
$GNZDA,040738.00,31,01,2018,00,00*78
$AADPT,1.16,0.00*46
$AADBT,3.8,f,1.16,M,0.6,F*2A
$AADBS,3.8,f,1.16,M,0.6,F*2D
$AAMTW,24.7,C*12
$GNRMC,040739.00,A,3651.88909,S,17443.42333,E,1.010,6.68,310118,,,A*67
$AAXDR,C,24.7,C,ENV_SEA_T*0F
$AAMDA,,I,,B,,C,24.7,C,,,,C,,T,,M,,N,,M*05
$AADPT,1.16,0.00*46
$GNVTG,6.68,T,,M,1.010,N,1.870,K,A*25
$GNGGA,040739.00,3651.88909,S,17443.42333,E,1,12,0.89,15.6,M,28.1,M,,*6C
$GNGSA,A,3,02,05,26,29,13,20,,,,,,,1.44,0.89,1.13*17
$GNGSA,A,3,66,82,67,68,83,81,,,,,,,1.44,0.89,1.13*18
$GPGSV,3,1,09,02,29,098,38,04,,,28,05,59,136,42,13,33,050,27*46
$GPGSV,3,2,09,20,60,298,37,21,,,38,25,,,30,26,06,218,21*74
$GPGSV,3,3,09,29,67,226,44*4C
$AADPT,0.99,0.00*40
$AADBT,3.2,f,0.99,M,0.5,F*25
$AADBS,3.2,f,0.99,M,0.5,F*22
$AAMTW,24.7,C*12
$AAXDR,C,24.7,C,ENV_SEA_T*0F
$AAMDA,,I,,B,,C,24.7,C,,,,C,,T,,M,,N,,M*05
$AADPT,0.99,0.00*40
$GLGSV,3,1,09,66,14,150,36,67,66,130,35,68,51,346,35,69,03,335,*6B
$GLGSV,3,2,09,73,05,261,,74,05,213,29,81,20,065,23,82,62,110,40*67
$GLGSV,3,3,09,83,42,207,36*51
$GNGLL,3651.88909,S,17443.42333,E,040739.00,A,A*62
$GNZDA,040739.00,31,01,2018,00,00*79
$AADPT,0.99,0.00*40
$AADBT,3.2,f,0.99,M,0.5,F*25
$AADBS,3.2,f,0.99,M,0.5,F*22
$AAMTW,24.7,C*12
$AAXDR,C,24.7,C,ENV_SEA_T*0F
$AAMDA,,I,,B,,C,24.7,C,,,,C,,T,,M,,N,,M*05
$GNRMC,040740.00,A,3651.88880,S,17443.42333,E,0.765,1.41,310118,,,A*61
$AADPT,0.99,0.00*40
$GNVTG,1.41,T,,M,0.765,N,1.416,K,A*21
$GNGGA,040740.00,3651.88880,S,17443.42333,E,1,12,0.89,15.8,M,28.1,M,,*6C
$GNGSA,A,3,02,05,26,29,13,20,,,,,,,1.44,0.89,1.13*17
$GNGSA,A,3,66,82,67,68,83,81,,,,,,,1.44,0.89,1.13*18
$GPGSV,3,1,09,02,29,098,36,04,,,33,05,59,136,37,13,33,050,29*4E
$GPGSV,3,2,09,20,60,298,33,21,,,29,25,,,21,26,06,218,30*70
$GPGSV,3,3,09,29,67,226,40*48
$AADPT,1.02,0.00*43
$AADBT,3.3,f,1.02,M,0.5,F*27
$AADBS,3.3,f,1.02,M,0.5,F*20
$AAMTW,24.7,C*12
$AAXDR,C,24.7,C,ENV_SEA_T*0F
$AAMDA,,I,,B,,C,24.7,C,,,,C,,T,,M,,N,,M*05
$AADPT,1.02,0.00*43
$GLGSV,3,1,09,66,14,150,43,67,66,130,39,68,51,346,35,69,03,335,*65
$GLGSV,3,2,09,73,05,261,,74,05,213,29,81,20,065,21,82,62,110,39*6B
$GLGSV,3,3,09,83,42,207,29*5F
$GNGLL,3651.88880,S,17443.42333,E,040740.00,A,A*6C
$GNZDA,040740.00,31,01,2018,00,00*77
$AADPT,1.02,0.00*43
$AADBT,3.3,f,1.02,M,0.5,F*27
$AADBS,3.3,f,1.02,M,0.5,F*20
$AAMTW,24.7,C*12
$AAXDR,C,24.7,C,ENV_SEA_T*0F
$AAMDA,,I,,B,,C,24.7,C,,,,C,,T,,M,,N,,M*05
$GNRMC,040741.00,A,3651.88864,S,17443.42333,E,0.454,,310118,,,A*71
$AADPT,1.02,0.00*43
$GNVTG,,T,,M,0.454,N,0.840,K,A*34
$GNGGA,040741.00,3651.88864,S,17443.42333,E,1,12,0.89,16.3,M,28.1,M,,*6F
$GNGSA,A,3,02,05,26,29,13,20,,,,,,,1.44,0.89,1.13*17
$GNGSA,A,3,66,82,67,68,83,81,,,,,,,1.44,0.89,1.13*18
$GPGSV,3,1,09,02,29,098,36,04,,,38,05,59,136,39,13,33,050,33*40
$GPGSV,3,2,09,20,60,298,31,21,,,33,25,,,24,26,06,218,31*7D
$GPGSV,3,3,09,29,67,226,41*49
$AADPT,1.08,0.00*49
$AADBT,3.5,f,1.08,M,0.5,F*2B
$AADBS,3.5,f,1.08,M,0.5,F*2C
$AAMTW,24.7,C*12
$AAXDR,C,24.7,C,ENV_SEA_T*0F
$AAMDA,,I,,B,,C,24.7,C,,,,C,,T,,M,,N,,M*05
$AADPT,1.08,0.00*49
$GLGSV,3,1,09,66,14,150,44,67,66,130,39,68,51,346,36,69,03,335,*61
$GLGSV,3,2,09,73,05,261,,74,05,213,33,81,20,065,21,82,62,110,39*60
$GLGSV,3,3,09,83,42,207,29*5F
$GNGLL,3651.88864,S,17443.42333,E,040741.00,A,A*67
$GNZDA,040741.00,31,01,2018,00,00*76
$AADPT,1.08,0.00*49
$AADBT,3.5,f,1.08,M,0.5,F*2B
$AADBS,3.5,f,1.08,M,0.5,F*2C
$AAMTW,24.7,C*12
$AAXDR,C,24.7,C,ENV_SEA_T*0F
$AAMDA,,I,,B,,C,24.7,C,,,,C,,T,,M,,N,,M*05
$AADPT,1.08,0.00*49
$GNRMC,040742.00,A,3651.88859,S,17443.42336,E,0.254,,310118,,,A*7F
$GNVTG,,T,,M,0.254,N,0.471,K,A*3C
$GNGGA,040742.00,3651.88859,S,17443.42336,E,1,12,0.89,16.4,M,28.1,M,,*60
$GNGSA,A,3,02,05,26,29,13,20,,,,,,,1.44,0.89,1.13*17
$GNGSA,A,3,66,82,67,68,83,81,,,,,,,1.44,0.89,1.13*18
$GPGSV,3,1,09,02,29,098,40,04,,,42,05,59,136,44,13,33,050,29*4D
$GPGSV,3,2,09,20,60,298,31,21,,,35,25,,,20,26,06,218,30*7E
$GPGSV,3,3,09,29,67,226,44*4C
$AADPT,1.05,0.00*44
$AADBT,3.4,f,1.05,M,0.5,F*27
$AADBS,3.4,f,1.05,M,0.5,F*20
$AAMTW,24.7,C*12
$AAXDR,C,24.7,C,ENV_SEA_T*0F
$AAMDA,,I,,B,,C,24.7,C,,,,C,,T,,M,,N,,M*05
$AADPT,1.05,0.00*44
$GLGSV,3,1,09,66,14,150,36,67,66,130,32,68,51,346,36,69,03,335,*6F
$GLGSV,3,2,09,73,05,261,,74,05,213,34,81,20,065,21,82,62,110,37*69
$GLGSV,3,3,09,83,42,207,39*5E
$GNGLL,3651.88859,S,17443.42336,E,040742.00,A,A*6F
$GNZDA,040742.00,31,01,2018,00,00*75
$AADPT,1.05,0.00*44
$AADBT,3.4,f,1.05,M,0.5,F*27
$AADBS,3.4,f,1.05,M,0.5,F*20
$AAMTW,24.7,C*12
$AAXDR,C,24.7,C,ENV_SEA_T*0F
$AAMDA,,I,,B,,C,24.7,C,,,,C,,T,,M,,N,,M*05
$AADPT,1.05,0.00*44
$GNRMC,040743.00,A,3651.88845,S,17443.42341,E,0.609,5.46,310118,,,A*66
$GNVTG,5.46,T,,M,0.609,N,1.128,K,A*21
$GNGGA,040743.00,3651.88845,S,17443.42341,E,1,12,0.89,16.5,M,28.1,M,,*6D
$GNGSA,A,3,02,05,26,29,13,20,,,,,,,1.44,0.89,1.13*17
$GNGSA,A,3,66,82,67,68,83,81,,,,,,,1.44,0.89,1.13*18
$GPGSV,3,1,09,02,29,098,38,04,,,37,05,59,136,40,13,33,050,35*49
$GPGSV,3,2,09,20,60,298,30,21,,,30,25,,,22,26,06,218,36*7E
$GPGSV,3,3,09,29,67,226,41*49
$AADPT,1.02,0.00*43
$AADBT,3.3,f,1.02,M,0.5,F*27
$AADBS,3.3,f,1.02,M,0.5,F*20
$AAMTW,24.7,C*12
$AAXDR,C,24.7,C,ENV_SEA_T*0F
$AAMDA,,I,,B,,C,24.7,C,,,,C,,T,,M,,N,,M*05
$AADPT,1.02,0.00*43
$GLGSV,3,1,09,66,14,150,34,67,66,130,30,68,51,346,36,69,03,335,*6F
$GLGSV,3,2,09,73,05,261,,74,05,213,34,81,20,065,26,82,62,110,36*6F
$GLGSV,3,3,09,83,42,207,35*52
$GNGLL,3651.88845,S,17443.42341,E,040743.00,A,A*63
$GNZDA,040743.00,31,01,2018,00,00*74
$AADPT,1.02,0.00*43
$AADBT,3.3,f,1.02,M,0.5,F*27
$AADBS,3.3,f,1.02,M,0.5,F*20
$AAMTW,24.7,C*12
$AAXDR,C,24.7,C,ENV_SEA_T*0F
$AAMDA,,I,,B,,C,24.7,C,,,,C,,T,,M,,N,,M*05
$AADPT,1.02,0.00*43
$GNRMC,040744.00,A,3651.88820,S,17443.42338,E,0.868,353.69,310118,,,A*68
$GNVTG,353.69,T,,M,0.868,N,1.608,K,A*20
$GNGGA,040744.00,3651.88820,S,17443.42338,E,1,12,0.89,16.5,M,28.1,M,,*67
$GNGSA,A,3,02,05,26,29,13,20,,,,,,,1.44,0.89,1.13*17
$GNGSA,A,3,66,82,67,68,83,81,,,,,,,1.44,0.89,1.13*18
$GPGSV,3,1,09,02,29,098,37,04,,,38,05,59,136,43,13,33,050,36*49
$GPGSV,3,2,09,20,60,298,33,21,,,29,25,,,19,26,06,218,35*7E
$AADPT,1.02,0.00*43
$GPGSV,3,3,09,29,67,226,40*48
$AADBT,3.3,f,1.02,M,0.5,F*27
$AADBS,3.3,f,1.02,M,0.5,F*20
$AAMTW,24.7,C*12
$AAXDR,C,24.7,C,ENV_SEA_T*0F
$AAMDA,,I,,B,,C,24.7,C,,,,C,,T,,M,,N,,M*05
$AADPT,1.02,0.00*43
$GLGSV,3,1,09,66,14,150,34,67,66,131,25,68,51,346,32,69,03,335,*6E
$GLGSV,3,2,09,73,05,261,,74,05,213,34,81,20,065,27,82,62,110,34*6C
$GLGSV,3,3,09,83,42,207,34*53
$GNGLL,3651.88820,S,17443.42338,E,040744.00,A,A*69
$GNZDA,040744.00,31,01,2018,00,00*73
$AADPT,1.02,0.00*43
$AADBT,3.3,f,1.02,M,0.5,F*27
$AADBS,3.3,f,1.02,M,0.5,F*20
$AAMTW,24.7,C*12
$AAXDR,C,24.7,C,ENV_SEA_T*0F
$AAMDA,,I,,B,,C,24.7,C,,,,C,,T,,M,,N,,M*05
$AADPT,1.02,0.00*43
$GNRMC,040745.00,A,3651.88797,S,17443.42335,E,0.947,352.97,310118,,,A*6B
$GNVTG,352.97,T,,M,0.947,N,1.753,K,A*23
$GNGGA,040745.00,3651.88797,S,17443.42335,E,1,12,0.89,16.7,M,28.1,M,,*6A
$GNGSA,A,3,02,05,26,29,13,20,,,,,,,1.44,0.89,1.13*17
$GNGSA,A,3,66,82,67,68,83,81,,,,,,,1.44,0.89,1.13*18
$GPGSV,3,1,09,02,29,098,38,04,,,37,05,59,136,38,13,33,050,29*4B
$GPGSV,3,2,09,20,60,298,33,21,,,29,25,,,18,26,06,218,38*72
$GPGSV,3,3,09,29,67,226,42*4A
$AADPT,0.99,0.00*40
$AADBT,3.2,f,0.99,M,0.5,F*25
$AADBS,3.2,f,0.99,M,0.5,F*22
$AAMTW,24.7,C*12
$AAXDR,C,24.7,C,ENV_SEA_T*0F
$AAMDA,,I,,B,,C,24.7,C,,,,C,,T,,M,,N,,M*05
$AADPT,0.99,0.00*40
$GLGSV,3,1,09,66,14,150,39,67,66,131,25,68,51,346,38,69,03,335,*69
$GLGSV,3,2,09,73,05,261,,74,05,213,34,81,20,065,30,82,62,110,33*6D
$GLGSV,3,3,09,83,42,207,37*50
$GNGLL,3651.88797,S,17443.42335,E,040745.00,A,A*66
$GNZDA,040745.00,31,01,2018,00,00*72
$AADPT,0.99,0.00*40
$AADBT,3.2,f,0.99,M,0.5,F*25
$AADBS,3.2,f,0.99,M,0.5,F*22
$AAMTW,24.7,C*12
$AAXDR,C,24.7,C,ENV_SEA_T*0F
$AAMDA,,I,,B,,C,24.7,C,,,,C,,T,,M,,N,,M*05
$AADPT,0.99,0.00*40
$GNRMC,040746.00,A,3651.88773,S,17443.42331,E,0.947,355.02,310118,,,A*6D
$GNVTG,355.02,T,,M,0.947,N,1.754,K,A*2F
$GNGGA,040746.00,3651.88773,S,17443.42331,E,1,12,0.89,16.7,M,28.1,M,,*67
$GNGSA,A,3,02,05,26,29,13,20,,,,,,,1.44,0.89,1.13*17
$GNGSA,A,3,66,82,67,68,83,81,,,,,,,1.44,0.89,1.13*18
$GPGSV,3,1,09,02,29,098,33,04,,,39,05,59,136,41,13,33,050,30*48
$AADPT,0.99,0.00*40
$GPGSV,3,2,09,20,60,298,33,21,,,29,25,,,19,26,06,218,38*73
$GPGSV,3,3,09,29,67,226,40*48
$AADBT,3.2,f,0.99,M,0.5,F*25
$AADBS,3.2,f,0.99,M,0.5,F*22
$AAMTW,24.7,C*12
$AAXDR,C,24.7,C,ENV_SEA_T*0F
$AAMDA,,I,,B,,C,24.7,C,,,,C,,T,,M,,N,,M*05
$AADPT,0.99,0.00*40
$GLGSV,3,1,09,66,14,150,39,67,66,131,26,68,51,346,38,69,03,335,*6A
$GLGSV,3,2,09,73,05,261,,74,05,213,32,81,20,065,30,82,62,110,36*6E
$GLGSV,3,3,09,83,42,207,39*5E
$GNGLL,3651.88773,S,17443.42331,E,040746.00,A,A*6B
$GNZDA,040746.00,31,01,2018,00,00*71
$AADPT,0.99,0.00*40
$AADBT,3.2,f,0.99,M,0.5,F*25
$AADBS,3.2,f,0.99,M,0.5,F*22
$AAMTW,24.7,C*12
$AAXDR,C,24.7,C,ENV_SEA_T*0F
$AAMDA,,I,,B,,C,24.7,C,,,,C,,T,,M,,N,,M*05
$AADPT,0.99,0.00*40
$GNRMC,040747.00,A,3651.88750,S,17443.42331,E,0.982,0.94,310118,,,A*68
$GNVTG,0.94,T,,M,0.982,N,1.818,K,A*2D
$GNGGA,040747.00,3651.88750,S,17443.42331,E,1,12,0.89,16.7,M,28.1,M,,*67
$GNGSA,A,3,02,05,26,29,13,20,,,,,,,1.44,0.89,1.13*17
$GNGSA,A,3,66,82,67,68,83,81,,,,,,,1.44,0.89,1.13*18
$GPGSV,3,1,09,02,29,098,38,04,,,39,05,59,136,36,13,33,050,34*47
$GPGSV,3,2,09,20,60,298,33,21,,,27,25,,,28,26,06,218,38*7F
$GPGSV,3,3,09,29,67,226,39*46
$AADPT,0.93,0.00*4A
$AADBT,3.0,f,0.93,M,0.5,F*2D
$AADBS,3.0,f,0.93,M,0.5,F*2A
$AAMTW,24.7,C*12
$AAXDR,C,24.7,C,ENV_SEA_T*0F
$AAMDA,,I,,B,,C,24.7,C,,,,C,,T,,M,,N,,M*05
$AADPT,0.93,0.00*4A
$GLGSV,3,1,09,66,14,150,40,67,66,131,30,68,51,346,38,69,03,335,*63
$GLGSV,3,2,09,73,05,261,,74,05,213,32,81,20,065,29,82,62,110,35*65
$GLGSV,3,3,09,83,42,207,37*50
$GNGLL,3651.88750,S,17443.42331,E,040747.00,A,A*6B
$GNZDA,040747.00,31,01,2018,00,00*70
$AADPT,0.93,0.00*4A
$AADBT,3.0,f,0.93,M,0.5,F*2D
$AADBS,3.0,f,0.93,M,0.5,F*2A
$AAMTW,24.7,C*12
$AAXDR,C,24.7,C,ENV_SEA_T*0F
$AAMDA,,I,,B,,C,24.7,C,,,,C,,T,,M,,N,,M*05
$AADPT,0.93,0.00*4A
$GNRMC,040748.00,A,3651.88727,S,17443.42332,E,0.867,3.96,310118,,,A*6F
$GNVTG,3.96,T,,M,0.867,N,1.606,K,A*27
$GNGGA,040748.00,3651.88727,S,17443.42332,E,1,12,0.89,16.9,M,28.1,M,,*65
$GNGSA,A,3,02,05,26,29,13,20,,,,,,,1.44,0.89,1.13*17
$GNGSA,A,3,66,82,67,68,83,81,,,,,,,1.44,0.89,1.13*18
$GPGSV,3,1,09,02,29,098,40,04,,,37,05,59,136,38,13,33,050,36*4A
$AADPT,0.96,0.00*4F
$GPGSV,3,2,09,20,60,298,33,21,,,26,25,,,28,26,06,218,38*7E
$AADBT,3.1,f,0.96,M,0.5,F*29
$GPGSV,3,3,09,29,67,226,38*47
$AADBS,3.1,f,0.96,M,0.5,F*2E
$AAMTW,24.7,C*12
$AAXDR,C,24.7,C,ENV_SEA_T*0F
$AAMDA,,I,,B,,C,24.7,C,,,,C,,T,,M,,N,,M*05
$AADPT,0.96,0.00*4F
$GLGSV,3,1,09,66,14,150,39,67,66,131,24,68,51,346,36,69,03,335,*66
$GLGSV,3,2,09,73,05,261,,74,05,213,32,81,20,065,30,82,62,110,34*6C
$GLGSV,3,3,09,83,42,207,36*51
$GNGLL,3651.88727,S,17443.42332,E,040748.00,A,A*67
$GNZDA,040748.00,31,01,2018,00,00*7F
$AADPT,0.96,0.00*4F
$AADBT,3.1,f,0.96,M,0.5,F*29
$AADBS,3.1,f,0.96,M,0.5,F*2E
$AAMTW,24.7,C*12
$AAXDR,C,24.7,C,ENV_SEA_T*0F
$AAMDA,,I,,B,,C,24.7,C,,,,C,,T,,M,,N,,M*05
$AADPT,0.96,0.00*4F
$GNRMC,040749.00,A,3651.88701,S,17443.42335,E,0.936,5.58,310118,,,A*6C
$GNVTG,5.58,T,,M,0.936,N,1.733,K,A*21
$GNGGA,040749.00,3651.88701,S,17443.42335,E,1,12,0.89,17.0,M,28.1,M,,*6F
$GNGSA,A,3,02,05,26,29,13,20,,,,,,,1.44,0.89,1.13*17
$GNGSA,A,3,66,82,67,68,83,81,,,,,,,1.44,0.89,1.13*18
$GPGSV,3,1,09,02,29,098,38,04,,,38,05,59,136,38,13,33,050,34*48
$AADPT,0.87,0.00*4F
$GPGSV,3,2,09,20,60,298,33,21,,,26,25,,,29,26,06,218,38*7F
$GPGSV,3,3,09,29,67,226,38*47
$AADBT,2.8,f,0.87,M,0.4,F*20
$AADBS,2.8,f,0.87,M,0.4,F*27
$AAMTW,24.7,C*12
$AAXDR,C,24.7,C,ENV_SEA_T*0F
$AAMDA,,I,,B,,C,24.7,C,,,,C,,T,,M,,N,,M*05
$AADPT,0.87,0.00*4F
