$GNRMC,042811.00,A,3651.89140,S,17443.42311,E,0.470,,310118,,,A*71
$AADBS,2.9,f,0.90,M,0.4,F*20
$AAMTW,25.4,C*10
$AAXDR,C,25.4,C,ENV_SEA_T*0D
$AAMDA,,I,,B,,C,25.4,C,,,,C,,T,,M,,N,,M*07
$AADPT,0.90,0.00*49
$GNVTG,,T,,M,0.470,N,0.870,K,A*31
$GNGGA,042811.00,3651.89140,S,17443.42311,E,1,04,2.76,21.4,M,28.1,M,,*6F
$GNGSA,A,3,26,29,,,,,,,,,,,4.14,2.76,3.08*1A
$GNGSA,A,3,82,68,,,,,,,,,,,4.14,2.76,3.08*11
$GPGSV,2,1,08,02,,,36,04,,,26,05,,,38,13,,,29*72
$GPGSV,2,2,08,21,,,26,25,23,313,30,26,10,225,26,29,75,242,37*4F
$GLGSV,2,1,06,66,,,27,67,56,143,38,68,63,340,30,69,13,332,*5A
$GLGSV,2,2,06,82,59,086,36,,,,39*54
$AADPT,0.93,0.00*4A
$AADBT,3.0,f,0.93,M,0.5,F*2D
$AADBS,3.0,f,0.93,M,0.5,F*2A
$AAMTW,25.4,C*10
$AAXDR,C,25.4,C,ENV_SEA_T*0D
$AAMDA,,I,,B,,C,25.4,C,,,,C,,T,,M,,N,,M*07
$AADPT,0.93,0.00*4A
$GNGLL,3651.89140,S,17443.42311,E,042811.00,A,A*61
$GNZDA,042811.00,31,01,2018,00,00*7E
$AADPT,0.93,0.00*4A
$AADBT,3.0,f,0.93,M,0.5,F*2D
$AADBS,3.0,f,0.93,M,0.5,F*2A
$GNRMC,042812.00,A,3651.89454,S,17443.42483,E,0.412,,310118,,,A*7A
$AAMTW,25.4,C*10
$AAXDR,C,25.4,C,ENV_SEA_T*0D
$AAMDA,,I,,B,,C,25.4,C,,,,C,,T,,M,,N,,M*07
$AADPT,0.93,0.00*4A
$GNVTG,,T,,M,0.412,N,0.763,K,A*38
$GNGGA,042812.00,3651.89454,S,17443.42483,E,1,04,2.76,25.8,M,28.1,M,,*68
$GNGSA,A,3,26,29,,,,,,,,,,,4.14,2.76,3.08*1A
$GNGSA,A,3,82,68,,,,,,,,,,,4.14,2.76,3.08*11
$GPGSV,2,1,08,02,,,33,04,,,26,05,,,38,13,,,32*7D
$GPGSV,2,2,08,21,,,23,25,23,313,32,26,10,225,25,29,75,242,39*45
$GLGSV,2,1,06,66,,,29,67,56,143,41,68,63,340,34,69,13,332,*5E
$GLGSV,2,2,06,82,59,086,31,,,,41*5C
$AADPT,0.87,0.00*4F
$AADBT,2.8,f,0.87,M,0.4,F*20
$AADBS,2.8,f,0.87,M,0.4,F*27
$AAMTW,25.4,C*10
$AAXDR,C,25.4,C,ENV_SEA_T*0D
$AAMDA,,I,,B,,C,25.4,C,,,,C,,T,,M,,N,,M*07
$AADPT,0.87,0.00*4F
$GNGLL,3651.89454,S,17443.42483,E,042812.00,A,A*6E
$GNZDA,042812.00,31,01,2018,00,00*7D
$AADPT,0.87,0.00*4F
$AADBT,2.8,f,0.87,M,0.4,F*20
$AADBS,2.8,f,0.87,M,0.4,F*27
$GNRMC,042813.00,A,3651.89355,S,17443.42504,E,0.090,,310118,,,A*7D
$AAMTW,25.4,C*10
$AAXDR,C,25.4,C,ENV_SEA_T*0D
$AAMDA,,I,,B,,C,25.4,C,,,,C,,T,,M,,N,,M*07
$AADPT,0.87,0.00*4F
$GNVTG,,T,,M,0.090,N,0.167,K,A*34
$GNGGA,042813.00,3651.89355,S,17443.42504,E,1,04,2.76,26.4,M,28.1,M,,*6E
$GNGSA,A,3,26,29,,,,,,,,,,,4.14,2.76,3.08*1A
$GNGSA,A,3,82,68,,,,,,,,,,,4.14,2.76,3.08*11
$GPGSV,2,1,08,02,23,091,37,04,,,31,05,,,31,13,,,36*4B
$GPGSV,2,2,08,21,,,31,25,23,313,24,26,10,225,30,29,76,243,40*49
$GLGSV,2,1,06,66,,,28,67,56,143,35,68,63,340,30,69,13,332,*58
$GLGSV,2,2,06,82,59,086,30,,,,39*52
$AADPT,0.87,0.00*4F
$AADBT,2.8,f,0.87,M,0.4,F*20
$AADBS,2.8,f,0.87,M,0.4,F*27
$AAMTW,25.4,C*10
$AAXDR,C,25.4,C,ENV_SEA_T*0D
$AAMDA,,I,,B,,C,25.4,C,,,,C,,T,,M,,N,,M*07
$AADPT,0.87,0.00*4F
$GNGLL,3651.89355,S,17443.42504,E,042813.00,A,A*67
$GNZDA,042813.00,31,01,2018,00,00*7C
$AADPT,0.87,0.00*4F
$AADBT,2.8,f,0.87,M,0.4,F*20
$AADBS,2.8,f,0.87,M,0.4,F*27
$AAMTW,25.4,C*10
$GNRMC,042814.00,A,3651.89148,S,17443.42267,E,0.032,,310118,,,A*7E
$AAXDR,C,25.4,C,ENV_SEA_T*0D
$AAMDA,,I,,B,,C,25.4,C,,,,C,,T,,M,,N,,M*07
$AADPT,0.87,0.00*4F
$GNVTG,,T,,M,0.032,N,0.059,K,A*30
$GNGGA,042814.00,3651.89148,S,17443.42267,E,1,04,2.76,24.7,M,28.1,M,,*64
$GNGSA,A,3,26,29,,,,,,,,,,,4.14,2.76,3.08*1A
$GNGSA,A,3,82,68,,,,,,,,,,,4.14,2.76,3.08*11
$GPGSV,2,1,08,02,23,091,35,04,,,30,05,,,35,13,,,26*4D
$GPGSV,2,2,08,21,,,26,25,23,313,24,26,10,225,32,29,76,243,39*43
$GLGSV,2,1,06,66,,,29,67,56,143,31,68,63,340,34,69,13,332,*59
$GLGSV,2,2,06,82,59,086,34,,,,39*56
$AADPT,0.90,0.00*49
$AADBT,2.9,f,0.90,M,0.4,F*27
$AADBS,2.9,f,0.90,M,0.4,F*20
$AAMTW,25.4,C*10
$AAXDR,C,25.4,C,ENV_SEA_T*0D
$AAMDA,,I,,B,,C,25.4,C,,,,C,,T,,M,,N,,M*07
$AADPT,0.90,0.00*49
$GNGLL,3651.89148,S,17443.42267,E,042814.00,A,A*6C
$GNZDA,042814.00,31,01,2018,00,00*7B
$AADPT,0.90,0.00*49
$AADBT,2.9,f,0.90,M,0.4,F*27
$AADBS,2.9,f,0.90,M,0.4,F*20
$GNRMC,042815.00,A,3651.89159,S,17443.42236,E,0.169,,310118,,,A*74
$AAMTW,25.4,C*10
$AAXDR,C,25.4,C,ENV_SEA_T*0D
$AAMDA,,I,,B,,C,25.4,C,,,,C,,T,,M,,N,,M*07
$AADPT,0.90,0.00*49
$GNVTG,,T,,M,0.169,N,0.313,K,A*32
$GNGGA,042815.00,3651.89159,S,17443.42236,E,1,04,2.77,24.0,M,28.1,M,,*67
$GNGSA,A,3,26,29,,,,,,,,,,,4.14,2.77,3.08*1B
$GNGSA,A,3,82,68,,,,,,,,,,,4.14,2.77,3.08*10
$GPGSV,2,1,08,02,23,091,35,04,,,29,05,,,37,13,,,24*45
$GPGSV,2,2,08,21,,,32,25,23,313,22,26,10,225,30,29,76,243,39*42
$GLGSV,2,1,06,66,,,28,67,56,143,25,68,63,340,35,69,13,332,*5C
$GLGSV,2,2,06,82,59,086,36,,,,40*5A
$AADPT,0.87,0.00*4F
$AADBT,2.8,f,0.87,M,0.4,F*20
$AADBS,2.8,f,0.87,M,0.4,F*27
$AAMTW,25.4,C*10
$AAXDR,C,25.4,C,ENV_SEA_T*0D
$AAMDA,,I,,B,,C,25.4,C,,,,C,,T,,M,,N,,M*07
$AADPT,0.87,0.00*4F
$GNGLL,3651.89159,S,17443.42236,E,042815.00,A,A*69
$GNZDA,042815.00,31,01,2018,00,00*7A
$AADPT,0.87,0.00*4F
$AADBT,2.8,f,0.87,M,0.4,F*20
$AADBS,2.8,f,0.87,M,0.4,F*27
$AAMTW,25.4,C*10
$GNRMC,042816.00,A,3651.89075,S,17443.42355,E,0.102,,310118,,,A*71
$AAXDR,C,25.4,C,ENV_SEA_T*0D
$AAMDA,,I,,B,,C,25.4,C,,,,C,,T,,M,,N,,M*07
$AADPT,0.87,0.00*4F
$GNVTG,,T,,M,0.102,N,0.189,K,A*3E
$GNGGA,042816.00,3651.89075,S,17443.42355,E,1,04,2.77,21.7,M,28.1,M,,*6D
$GNGSA,A,3,26,29,,,,,,,,,,,4.14,2.77,3.08*1B
$GNGSA,A,3,82,68,,,,,,,,,,,4.14,2.77,3.08*10
$GPGSV,2,1,08,02,23,091,34,04,,,23,05,,,39,13,,,21*45
$GPGSV,2,2,08,21,,,27,25,23,313,19,26,10,225,31,29,76,243,39*4F
$GLGSV,2,1,06,66,,,32,67,56,143,24,68,63,340,35,69,13,332,*56
$GLGSV,2,2,06,82,59,086,38,,,,37*54
$AADPT,0.90,0.00*49
$AADBT,2.9,f,0.90,M,0.4,F*27
$AADBS,2.9,f,0.90,M,0.4,F*20
$AAMTW,25.4,C*10
$AAXDR,C,25.4,C,ENV_SEA_T*0D
$AAMDA,,I,,B,,C,25.4,C,,,,C,,T,,M,,N,,M*07
$AADPT,0.90,0.00*49
$GNGLL,3651.89075,S,17443.42355,E,042816.00,A,A*61
$GNZDA,042816.00,31,01,2018,00,00*79
$AADPT,0.90,0.00*49
$AADBT,2.9,f,0.90,M,0.4,F*27
$AADBS,2.9,f,0.90,M,0.4,F*20
$AAMTW,25.4,C*10
$GNRMC,042817.00,A,3651.89003,S,17443.42330,E,0.636,,310118,,,A*72
$AAXDR,C,25.4,C,ENV_SEA_T*0D
$AAMDA,,I,,B,,C,25.4,C,,,,C,,T,,M,,N,,M*07
$AADPT,0.90,0.00*49
$GNVTG,,T,,M,0.636,N,1.179,K,A*30
$GNGGA,042817.00,3651.89003,S,17443.42330,E,1,04,2.77,20.3,M,28.1,M,,*6B
$GNGSA,A,3,26,29,,,,,,,,,,,4.14,2.77,3.08*1B
$GNGSA,A,3,82,68,,,,,,,,,,,4.14,2.77,3.08*10
$GPGSV,2,1,08,02,23,091,34,04,,,37,05,,,31,13,,,24*4D
$GPGSV,2,2,08,21,,,36,25,23,313,23,26,10,225,35,29,76,243,39*42
$GLGSV,2,1,06,66,,,28,67,56,143,25,68,63,340,37,69,13,332,*5E
$GLGSV,2,2,06,82,59,086,35,,,,24*5B
$AADPT,0.93,0.00*4A
$AADBT,3.0,f,0.93,M,0.5,F*2D
$AADBS,3.0,f,0.93,M,0.5,F*2A
$AAMTW,25.4,C*10
$AAXDR,C,25.4,C,ENV_SEA_T*0D
$AAMDA,,I,,B,,C,25.4,C,,,,C,,T,,M,,N,,M*07
$AADPT,0.93,0.00*4A
$GNGLL,3651.89003,S,17443.42330,E,042817.00,A,A*62
$GNZDA,042817.00,31,01,2018,00,00*78
$AADPT,0.93,0.00*4A
$AADBT,3.0,f,0.93,M,0.5,F*2D
$AADBS,3.0,f,0.93,M,0.5,F*2A
$AAMTW,25.4,C*10
$AAXDR,C,25.4,C,ENV_SEA_T*0D
$AAMDA,,I,,B,,C,25.4,C,,,,C,,T,,M,,N,,M*07
$GNRMC,042818.00,A,3651.89012,S,17443.42375,E,0.577,,310118,,,A*7A
$AADPT,0.93,0.00*4A
$GNVTG,,T,,M,0.577,N,1.068,K,A*37
$GNGGA,042818.00,3651.89012,S,17443.42375,E,1,04,2.77,20.0,M,28.1,M,,*66
$GNGSA,A,3,26,29,,,,,,,,,,,4.14,2.77,3.08*1B
$GNGSA,A,3,82,68,,,,,,,,,,,4.14,2.77,3.08*10
$GPGSV,2,1,08,02,23,091,27,04,,,35,05,,,26,13,,,37*49
$GPGSV,2,2,08,21,,,34,25,23,313,24,26,10,225,26,29,76,243,34*48
$GLGSV,2,1,06,66,,,32,67,56,143,31,68,63,340,38,69,13,332,*5F
$GLGSV,2,2,06,82,59,086,40,,,,34*58
$AADPT,0.90,0.00*49
$AADBT,2.9,f,0.90,M,0.4,F*27
$AADBS,2.9,f,0.90,M,0.4,F*20
$AAMTW,25.4,C*10
$AAXDR,C,25.4,C,ENV_SEA_T*0D
$AAMDA,,I,,B,,C,25.4,C,,,,C,,T,,M,,N,,M*07
$AADPT,0.90,0.00*49
$GNGLL,3651.89012,S,17443.42375,E,042818.00,A,A*6C
$GNZDA,042818.00,31,01,2018,00,00*77
$AADPT,0.90,0.00*49
$AADBT,2.9,f,0.90,M,0.4,F*27
$AADBS,2.9,f,0.90,M,0.4,F*20
$AAMTW,25.4,C*10
$AAXDR,C,25.4,C,ENV_SEA_T*0D
$GNRMC,042819.00,A,3651.89018,S,17443.42427,E,0.526,,310118,,,A*75
$AAMDA,,I,,B,,C,25.4,C,,,,C,,T,,M,,N,,M*07
$AADPT,0.90,0.00*49
$GNVTG,,T,,M,0.526,N,0.974,K,A*36
$GNGGA,042819.00,3651.89018,S,17443.42427,E,1,04,2.77,19.1,M,28.1,M,,*66
$GNGSA,A,3,26,29,,,,,,,,,,,4.15,2.77,3.08*1A
$GNGSA,A,3,82,68,,,,,,,,,,,4.15,2.77,3.08*11
$GPGSV,2,1,08,02,23,091,25,04,,,35,05,,,32,13,,,24*4C
$GPGSV,2,2,08,21,,,33,25,23,313,31,26,10,225,34,29,76,243,34*48
$GLGSV,2,1,06,66,,,30,67,56,143,41,68,63,340,27,69,13,332,*54
$GLGSV,2,2,06,82,59,086,39,,,,31*53
$AADPT,0.93,0.00*4A
$AADBT,3.0,f,0.93,M,0.5,F*2D
$AADBS,3.0,f,0.93,M,0.5,F*2A
$AAMTW,25.4,C*10
$AAXDR,C,25.4,C,ENV_SEA_T*0D
$AAMDA,,I,,B,,C,25.4,C,,,,C,,T,,M,,N,,M*07
$AADPT,0.93,0.00*4A
$GNGLL,3651.89018,S,17443.42427,E,042819.00,A,A*67
$GNZDA,042819.00,31,01,2018,00,00*76
$AADPT,0.93,0.00*4A
$AADBT,3.0,f,0.93,M,0.5,F*2D
$AADBS,3.0,f,0.93,M,0.5,F*2A
$AAMTW,25.4,C*10
$AAXDR,C,25.4,C,ENV_SEA_T*0D
$GNRMC,042820.00,A,3651.89038,S,17443.42442,E,0.282,,310118,,,A*77
$AAMDA,,I,,B,,C,25.4,C,,,,C,,T,,M,,N,,M*07
$AADPT,0.93,0.00*4A
$GNVTG,,T,,M,0.282,N,0.523,K,A*31
$GNGGA,042820.00,3651.89038,S,17443.42442,E,1,04,2.77,19.2,M,28.1,M,,*6E
$GNGSA,A,3,26,29,,,,,,,,,,,4.15,2.77,3.09*1B
$GNGSA,A,3,82,68,,,,,,,,,,,4.15,2.77,3.09*10
$GPGSV,2,1,08,02,23,091,32,04,,,24,05,,,40,13,,,26*4D
$GPGSV,2,2,08,21,,,28,25,23,313,31,26,10,225,24,29,76,243,37*40
$GLGSV,2,1,06,66,,,29,67,56,143,40,68,63,340,32,69,13,332,*59
$GLGSV,2,2,06,82,59,086,36,,,,39*54
$AADPT,0.84,0.00*4C
$AADBT,2.7,f,0.84,M,0.4,F*2C
$AADBS,2.7,f,0.84,M,0.4,F*2B
$AAMTW,25.4,C*10
$AAXDR,C,25.4,C,ENV_SEA_T*0D
$AAMDA,,I,,B,,C,25.4,C,,,,C,,T,,M,,N,,M*07
$AADPT,0.84,0.00*4C
$GNGLL,3651.89038,S,17443.42442,E,042820.00,A,A*6C
$GNZDA,042820.00,31,01,2018,00,00*7C
$AADPT,0.84,0.00*4C
$AADBT,2.7,f,0.84,M,0.4,F*2C
$AADBS,2.7,f,0.84,M,0.4,F*2B
$AAMTW,25.4,C*10
$AAXDR,C,25.4,C,ENV_SEA_T*0D
$AAMDA,,I,,B,,C,25.4,C,,,,C,,T,,M,,N,,M*07
$GNRMC,042821.00,A,3651.89105,S,17443.42458,E,0.311,,310118,,,A*79
$AADPT,0.84,0.00*4C
$GNVTG,,T,,M,0.311,N,0.577,K,A*3B
$GNGGA,042821.00,3651.89105,S,17443.42458,E,1,04,2.77,19.6,M,28.1,M,,*6F
$GNGSA,A,3,26,29,,,,,,,,,,,4.15,2.77,3.09*1B
$GNGSA,A,3,82,68,,,,,,,,,,,4.15,2.77,3.09*10
$GPGSV,2,1,08,02,23,091,34,04,,,30,05,,,34,13,,,36*4C
$GPGSV,2,2,08,21,,,21,25,23,313,28,26,10,225,23,29,76,243,39*48
$GLGSV,2,1,06,66,,,30,67,56,143,39,68,63,340,34,69,13,332,*59
$GLGSV,2,2,06,82,59,086,27,,,,41*5B
$AADPT,0.84,0.00*4C
$AADBT,2.7,f,0.84,M,0.4,F*2C
$AADBS,2.7,f,0.84,M,0.4,F*2B
$AAMTW,25.4,C*10
$AAXDR,C,25.4,C,ENV_SEA_T*0D
$AAMDA,,I,,B,,C,25.4,C,,,,C,,T,,M,,N,,M*07
$AADPT,0.84,0.00*4C
$GNGLL,3651.89105,S,17443.42458,E,042821.00,A,A*69
$GNZDA,042821.00,31,01,2018,00,00*7D
$AADPT,0.84,0.00*4C
$AADBT,2.7,f,0.84,M,0.4,F*2C
$AADBS,2.7,f,0.84,M,0.4,F*2B
$AAMTW,25.4,C*10
$AAXDR,C,25.4,C,ENV_SEA_T*0D
$AAMDA,,I,,B,,C,25.4,C,,,,C,,T,,M,,N,,M*07
$AADPT,0.84,0.00*4C
$GNRMC,042822.00,A,3651.89148,S,17443.42476,E,0.265,,310118,,,A*7D
$GNVTG,,T,,M,0.265,N,0.490,K,A*31
$GNGGA,042822.00,3651.89148,S,17443.42476,E,1,04,2.77,19.9,M,28.1,M,,*66
$GNGSA,A,3,26,29,,,,,,,,,,,4.15,2.77,3.09*1B
$GNGSA,A,3,82,68,,,,,,,,,,,4.15,2.77,3.09*10
$GPGSV,2,1,08,02,23,091,33,04,,,29,05,,,35,13,,,28*4D
$GPGSV,2,2,08,21,,,28,25,23,313,25,26,10,225,29,29,76,243,38*47
$GLGSV,2,1,06,66,,,30,67,56,143,25,68,63,340,34,69,13,332,*54
$GLGSV,2,2,06,82,59,086,32,,,,39*50
$AADPT,0.84,0.00*4C
$AADBT,2.7,f,0.84,M,0.4,F*2C
$AADBS,2.7,f,0.84,M,0.4,F*2B
$AAMTW,25.4,C*10
$AAXDR,C,25.4,C,ENV_SEA_T*0D
$AAMDA,,I,,B,,C,25.4,C,,,,C,,T,,M,,N,,M*07
$AADPT,0.84,0.00*4C
$GNGLL,3651.89148,S,17443.42476,E,042822.00,A,A*6F
$GNZDA,042822.00,31,01,2018,00,00*7E
$AADPT,0.84,0.00*4C
$AADBT,2.7,f,0.84,M,0.4,F*2C
$AADBS,2.7,f,0.84,M,0.4,F*2B
$AAMTW,25.4,C*10
$AAXDR,C,25.4,C,ENV_SEA_T*0D
$AAMDA,,I,,B,,C,25.4,C,,,,C,,T,,M,,N,,M*07
$AADPT,0.84,0.00*4C
$GNRMC,042823.00,A,3651.89132,S,17443.42462,E,0.334,,310118,,,A*71
$GNVTG,,T,,M,0.334,N,0.619,K,A*37
$GNGGA,042823.00,3651.89132,S,17443.42462,E,1,04,2.77,19.9,M,28.1,M,,*6F
$GNGSA,A,3,26,29,,,,,,,,,,,4.15,2.77,3.09*1B
$GNGSA,A,3,82,68,,,,,,,,,,,4.15,2.77,3.09*10
$GPGSV,2,1,08,02,23,091,27,04,,,31,05,,,34,13,,,18*43
$GPGSV,2,2,08,21,,,27,25,23,313,21,26,10,225,32,29,76,243,38*46
$GLGSV,2,1,06,66,,,31,67,56,143,24,68,63,340,37,69,13,332,*57
$GLGSV,2,2,06,82,59,086,37,,,,36*5A
$AADPT,0.84,0.00*4C
$AADBT,2.7,f,0.84,M,0.4,F*2C
$AADBS,2.7,f,0.84,M,0.4,F*2B
$AAMTW,25.4,C*10
$AAXDR,C,25.4,C,ENV_SEA_T*0D
$AAMDA,,I,,B,,C,25.4,C,,,,C,,T,,M,,N,,M*07
$AADPT,0.84,0.00*4C
$GNGLL,3651.89132,S,17443.42462,E,042823.00,A,A*66
$GNZDA,042823.00,31,01,2018,00,00*7F
$AADPT,0.84,0.00*4C
$AADBT,2.7,f,0.84,M,0.4,F*2C
$AADBS,2.7,f,0.84,M,0.4,F*2B
$AAMTW,25.4,C*10
$AAXDR,C,25.4,C,ENV_SEA_T*0D
$AAMDA,,I,,B,,C,25.4,C,,,,C,,T,,M,,N,,M*07
$AADPT,0.84,0.00*4C
$GNRMC,042824.00,A,3651.89153,S,17443.42445,E,0.691,,310118,,,A*7E
$GNVTG,,T,,M,0.691,N,1.280,K,A*38
$GNGGA,042824.00,3651.89153,S,17443.42445,E,1,04,2.78,19.7,M,28.1,M,,*6B
$GNGSA,A,3,26,29,,,,,,,,,,,4.15,2.78,3.09*14
$GNGSA,A,3,82,68,,,,,,,,,,,4.15,2.78,3.09*1F
$GPGSV,2,1,08,02,23,091,32,04,,,37,05,,,24,13,,,27*4C
$GPGSV,2,2,08,21,,,36,25,23,313,18,26,10,225,32,29,76,243,38*4C
$GLGSV,2,1,06,66,,,31,67,56,143,37,68,63,340,37,69,13,332,*55
$AADPT,0.93,0.00*4A
$GLGSV,2,2,06,82,59,086,38,,,,28*5A
$AADBT,3.0,f,0.93,M,0.5,F*2D
$AADBS,3.0,f,0.93,M,0.5,F*2A
$AAMTW,25.4,C*10
$AAXDR,C,25.4,C,ENV_SEA_T*0D
$AAMDA,,I,,B,,C,25.4,C,,,,C,,T,,M,,N,,M*07
$AADPT,0.93,0.00*4A
$GNGLL,3651.89153,S,17443.42445,E,042824.00,A,A*63
$GNZDA,042824.00,31,01,2018,00,00*78
$AADPT,0.93,0.00*4A
$AADBT,3.0,f,0.93,M,0.5,F*2D
$AADBS,3.0,f,0.93,M,0.5,F*2A
$AAMTW,25.4,C*10
$AAXDR,C,25.4,C,ENV_SEA_T*0D
$AAMDA,,I,,B,,C,25.4,C,,,,C,,T,,M,,N,,M*07
$AADPT,0.93,0.00*4A
$GNRMC,042825.00,A,3651.89181,S,17443.42476,E,0.531,,310118,,,A*79
$GNVTG,,T,,M,0.531,N,0.983,K,A*38
$GNGGA,042825.00,3651.89181,S,17443.42476,E,1,04,2.78,20.0,M,28.1,M,,*68
$GNGSA,A,3,26,29,,,,,,,,,,,4.15,2.78,3.09*14
$GNGSA,A,3,82,68,,,,,,,,,,,4.15,2.78,3.09*1F
$GPGSV,2,1,08,02,23,091,25,04,,,32,05,,,34,13,,,24*4D
$GPGSV,2,2,08,21,,,28,25,23,313,29,26,10,225,26,29,76,243,38*44
$GLGSV,2,1,06,66,,,31,67,56,143,34,68,63,340,37,69,13,331,*55
$AADPT,0.87,0.00*4F
$GLGSV,2,2,06,82,59,086,42,,,,28*57
$AADBT,2.8,f,0.87,M,0.4,F*20
$AADBS,2.8,f,0.87,M,0.4,F*27
$AAMTW,25.4,C*10
$AAXDR,C,25.4,C,ENV_SEA_T*0D
$AAMDA,,I,,B,,C,25.4,C,,,,C,,T,,M,,N,,M*07
$AADPT,0.87,0.00*4F
$GNGLL,3651.89181,S,17443.42476,E,042825.00,A,A*6D
$GNZDA,042825.00,31,01,2018,00,00*79
$AADPT,0.87,0.00*4F
$AADBT,2.8,f,0.87,M,0.4,F*20
$AADBS,2.8,f,0.87,M,0.4,F*27
$AAMTW,25.4,C*10
$AAXDR,C,25.4,C,ENV_SEA_T*0D
$AAMDA,,I,,B,,C,25.4,C,,,,C,,T,,M,,N,,M*07
$AADPT,0.87,0.00*4F
$GNRMC,042826.00,A,3651.89172,S,17443.42501,E,0.669,,310118,,,A*79
$GNVTG,,T,,M,0.669,N,1.238,K,A*3C
$GNGGA,042826.00,3651.89172,S,17443.42501,E,1,04,2.78,19.5,M,28.1,M,,*69
$GNGSA,A,3,26,29,,,,,,,,,,,4.15,2.78,3.09*14
$GNGSA,A,3,82,68,,,,,,,,,,,4.15,2.78,3.09*1F
$GPGSV,2,1,08,02,23,091,25,04,,,30,05,,,26,13,,,22*4A
$GPGSV,2,2,08,21,,,32,25,23,313,28,26,10,225,31,29,76,243,35*45
$GLGSV,2,1,06,66,,,28,67,56,143,40,68,63,340,26,69,13,331,25*59
$AADPT,0.87,0.00*4F
$GLGSV,2,2,06,82,59,086,39,,,,38*5A
$AADBT,2.8,f,0.87,M,0.4,F*20
$AADBS,2.8,f,0.87,M,0.4,F*27
$AAMTW,25.4,C*10
$AAXDR,C,25.4,C,ENV_SEA_T*0D
$AAMDA,,I,,B,,C,25.4,C,,,,C,,T,,M,,N,,M*07
$AADPT,0.87,0.00*4F
$GNGLL,3651.89172,S,17443.42501,E,042826.00,A,A*63
$GNZDA,042826.00,31,01,2018,00,00*7A
$AADPT,0.87,0.00*4F
$AADBT,2.8,f,0.87,M,0.4,F*20
$AADBS,2.8,f,0.87,M,0.4,F*27
$AAMTW,25.4,C*10
$AAXDR,C,25.4,C,ENV_SEA_T*0D
$AAMDA,,I,,B,,C,25.4,C,,,,C,,T,,M,,N,,M*07
$AADPT,0.87,0.00*4F
$GNRMC,042827.00,A,3651.89157,S,17443.42496,E,0.428,,310118,,,A*77
$GNVTG,,T,,M,0.428,N,0.793,K,A*3E
$GNGGA,042827.00,3651.89157,S,17443.42496,E,1,04,2.78,19.1,M,28.1,M,,*64
$GNGSA,A,3,26,29,,,,,,,,,,,4.16,2.78,3.09*17
$GNGSA,A,3,82,68,,,,,,,,,,,4.16,2.78,3.09*1C
$GPGSV,2,1,08,02,23,091,35,04,,,21,05,,,39,13,,,22*45
$GPGSV,2,2,08,21,,,32,25,23,313,19,26,10,225,25,29,76,243,37*40
$AADPT,0.84,0.00*4C
$GLGSV,2,1,06,66,,,28,67,56,143,40,68,63,340,35,69,13,331,22*5C
$AADBT,2.7,f,0.84,M,0.4,F*2C
$GLGSV,2,2,06,82,59,086,33,,,,41*5E
$AADBS,2.7,f,0.84,M,0.4,F*2B
$AAMTW,25.4,C*10
$AAXDR,C,25.4,C,ENV_SEA_T*0D
$AAMDA,,I,,B,,C,25.4,C,,,,C,,T,,M,,N,,M*07
$AADPT,0.84,0.00*4C
$GNGLL,3651.89157,S,17443.42496,E,042827.00,A,A*6A
$GNZDA,042827.00,31,01,2018,00,00*7B
$AADPT,0.84,0.00*4C
$AADBT,2.7,f,0.84,M,0.4,F*2C
$AADBS,2.7,f,0.84,M,0.4,F*2B
$AAMTW,25.4,C*10
$AAXDR,C,25.4,C,ENV_SEA_T*0D
$AAMDA,,I,,B,,C,25.4,C,,,,C,,T,,M,,N,,M*07
$AADPT,0.84,0.00*4C
$GNRMC,042828.00,A,3651.89148,S,17443.42485,E,0.239,,310118,,,A*72
$GNVTG,,T,,M,0.239,N,0.443,K,A*36
$GNGGA,042828.00,3651.89148,S,17443.42485,E,1,04,2.78,18.8,M,28.1,M,,*6F
$GNGSA,A,3,26,29,,,,,,,,,,,4.16,2.78,3.09*17
$GNGSA,A,3,82,68,,,,,,,,,,,4.16,2.78,3.09*1C
$GPGSV,2,1,08,02,23,091,36,04,,,21,05,,,38,13,,,26*43
$GPGSV,2,2,08,21,,,24,25,23,313,24,26,10,225,23,29,76,243,35*4D
$AADPT,0.84,0.00*4C
$AADBT,2.7,f,0.84,M,0.4,F*2C
$AADBS,2.7,f,0.84,M,0.4,F*2B
$GLGSV,2,1,06,66,,,33,67,56,143,40,68,63,340,33,69,13,331,21*53
$GLGSV,2,2,06,82,59,086,35,,,,39*57
$AAMTW,25.4,C*10
$AAXDR,C,25.4,C,ENV_SEA_T*0D
$AAMDA,,I,,B,,C,25.4,C,,,,C,,T,,M,,N,,M*07
$AADPT,0.84,0.00*4C
$GNGLL,3651.89148,S,17443.42485,E,042828.00,A,A*69
$GNZDA,042828.00,31,01,2018,00,00*74
$AADPT,0.84,0.00*4C
$AADBT,2.7,f,0.84,M,0.4,F*2C
$AADBS,2.7,f,0.84,M,0.4,F*2B
$AAMTW,25.4,C*10
$AAXDR,C,25.4,C,ENV_SEA_T*0D
$AAMDA,,I,,B,,C,25.4,C,,,,C,,T,,M,,N,,M*07
$AADPT,0.84,0.00*4C
$GNRMC,042829.00,A,3651.89159,S,17443.42505,E,0.134,,310118,,,A*74
$GNVTG,,T,,M,0.134,N,0.247,K,A*3A
$GNGGA,042829.00,3651.89159,S,17443.42505,E,1,04,2.78,18.3,M,28.1,M,,*6C
$GNGSA,A,3,26,29,,,,,,,,,,,4.16,2.78,3.09*17
$GNGSA,A,3,82,68,,,,,,,,,,,4.16,2.78,3.09*1C
$GPGSV,2,1,08,02,23,091,32,04,,,19,05,,,38,13,,,26*4C
$GPGSV,2,2,08,21,,,20,25,23,313,26,26,10,225,23,29,76,243,38*46
$AADPT,0.78,0.00*4F
$AADBT,2.5,f,0.78,M,0.4,F*2D
$GLGSV,2,1,06,66,,,29,67,56,143,40,68,63,340,34,69,13,331,19*54
$AADBS,2.5,f,0.78,M,0.4,F*2A
$GLGSV,2,2,06,82,59,086,27,,,,41*5B
$AAMTW,25.4,C*10
$AAXDR,C,25.4,C,ENV_SEA_T*0D
$AAMDA,,I,,B,,C,25.4,C,,,,C,,T,,M,,N,,M*07
$AADPT,0.78,0.00*4F
$GNGLL,3651.89159,S,17443.42505,E,042829.00,A,A*61
$GNZDA,042829.00,31,01,2018,00,00*75
$AADPT,0.78,0.00*4F
$AADBT,2.5,f,0.78,M,0.4,F*2D
$AADBS,2.5,f,0.78,M,0.4,F*2A
$AAMTW,25.4,C*10
$AAXDR,C,25.4,C,ENV_SEA_T*0D
$AAMDA,,I,,B,,C,25.4,C,,,,C,,T,,M,,N,,M*07
$AADPT,0.78,0.00*4F
$GNRMC,042830.00,A,3651.89175,S,17443.42540,E,0.836,,310118,,,A*78
$GNVTG,,T,,M,0.836,N,1.549,K,A*39
$GNGGA,042830.00,3651.89175,S,17443.42540,E,1,04,2.78,18.2,M,28.1,M,,*6A
$GNGSA,A,3,26,29,,,,,,,,,,,4.16,2.78,3.09*17
$GNGSA,A,3,82,68,,,,,,,,,,,4.16,2.78,3.09*1C
$GPGSV,2,1,07,02,23,091,32,04,,,21,05,,,36,13,,,26*46
$GPGSV,2,2,07,25,23,313,26,26,10,225,20,29,76,243,38*4B
$AADPT,0.81,0.00*49
$AADBT,2.6,f,0.81,M,0.4,F*28
$AADBS,2.6,f,0.81,M,0.4,F*2F
$GLGSV,2,1,06,66,,,30,67,56,143,40,68,63,340,33,69,13,331,17*55
$AAMTW,25.4,C*10
$GLGSV,2,2,06,82,58,086,25,,,,40*59
$AAXDR,C,25.4,C,ENV_SEA_T*0D
$AAMDA,,I,,B,,C,25.4,C,,,,C,,T,,M,,N,,M*07
$AADPT,0.81,0.00*49
$GNGLL,3651.89175,S,17443.42540,E,042830.00,A,A*66
$GNZDA,042830.00,31,01,2018,00,00*7D
$AADPT,0.81,0.00*49
$AADBT,2.6,f,0.81,M,0.4,F*28
$AADBS,2.6,f,0.81,M,0.4,F*2F
$AAMTW,25.4,C*10
$AAXDR,C,25.4,C,ENV_SEA_T*0D
$AAMDA,,I,,B,,C,25.4,C,,,,C,,T,,M,,N,,M*07
$AADPT,0.81,0.00*49
$GNRMC,042831.00,A,3651.89166,S,17443.42566,E,0.439,,310118,,,A*7C
$GNVTG,,T,,M,0.439,N,0.814,K,A*3E
$GNGGA,042831.00,3651.89166,S,17443.42566,E,1,04,2.78,17.0,M,28.1,M,,*60
$GNGSA,A,3,26,29,,,,,,,,,,,4.16,2.78,3.09*17
$GNGSA,A,3,82,68,,,,,,,,,,,4.16,2.78,3.09*1C
$GPGSV,2,1,07,02,23,091,31,04,,,23,05,,,34,13,,,32*40
$GPGSV,2,2,07,25,23,313,23,26,10,225,20,29,76,243,40*41
$AADPT,0.69,0.00*4F
$AADBT,2.2,f,0.69,M,0.3,F*2D
$AADBS,2.2,f,0.69,M,0.3,F*2A
$AAMTW,25.4,C*10
$AAXDR,C,25.4,C,ENV_SEA_T*0D
$GLGSV,2,1,07,66,,,29,67,56,143,39,68,63,340,32,69,13,331,16*52
$GLGSV,2,2,07,74,03,223,,82,58,086,25,,,,40*6B
$AAMDA,,I,,B,,C,25.4,C,,,,C,,T,,M,,N,,M*07
$AADPT,0.69,0.00*4F
$GNGLL,3651.89166,S,17443.42566,E,042831.00,A,A*61
$GNZDA,042831.00,31,01,2018,00,00*7C
$AADPT,0.69,0.00*4F
$AADBT,2.2,f,0.69,M,0.3,F*2D
$AADBS,2.2,f,0.69,M,0.3,F*2A
$AAMTW,25.4,C*10
$AAXDR,C,25.4,C,ENV_SEA_T*0D
$AAMDA,,I,,B,,C,25.4,C,,,,C,,T,,M,,N,,M*07
$AADPT,0.69,0.00*4F
$GNRMC,042832.00,A,3651.89171,S,17443.42572,E,0.110,,310118,,,A*72
$GNVTG,,T,,M,0.110,N,0.204,K,A*3B
$GNGGA,042832.00,3651.89171,S,17443.42572,E,1,04,2.78,16.6,M,28.1,M,,*67
$GNGSA,A,3,26,29,,,,,,,,,,,4.16,2.78,3.09*17
$GNGSA,A,3,82,68,,,,,,,,,,,4.16,2.78,3.09*1C
$GPGSV,2,1,07,02,23,090,33,04,,,24,05,,,31,13,,,34*47
$GPGSV,2,2,07,25,23,313,21,26,10,225,17,29,76,243,40*47
$AADPT,0.78,0.00*4F
$AADBT,2.5,f,0.78,M,0.4,F*2D
$AADBS,2.5,f,0.78,M,0.4,F*2A
$AAMTW,25.4,C*10
$AAXDR,C,25.4,C,ENV_SEA_T*0D
$GLGSV,2,1,07,66,,,29,67,56,143,35,68,63,340,31,69,13,331,14*5F
$GLGSV,2,2,07,74,03,223,,82,58,086,26,,,,38*67
$AAMDA,,I,,B,,C,25.4,C,,,,C,,T,,M,,N,,M*07
$AADPT,0.78,0.00*4F
$GNGLL,3651.89171,S,17443.42572,E,042832.00,A,A*61
$GNZDA,042832.00,31,01,2018,00,00*7F
$AADPT,0.78,0.00*4F
$AADBT,2.5,f,0.78,M,0.4,F*2D
$AADBS,2.5,f,0.78,M,0.4,F*2A
$AAMTW,25.4,C*10
$AAXDR,C,25.4,C,ENV_SEA_T*0D
$AAMDA,,I,,B,,C,25.4,C,,,,C,,T,,M,,N,,M*07
$AADPT,0.78,0.00*4F
$GNRMC,042833.00,A,3651.89176,S,17443.42568,E,0.249,,310118,,,A*70
$GNVTG,,T,,M,0.249,N,0.461,K,A*31
$GNGGA,042833.00,3651.89176,S,17443.42568,E,1,04,2.79,16.3,M,28.1,M,,*6E
$GNGSA,A,3,26,29,,,,,,,,,,,4.16,2.79,3.10*1E
$GNGSA,A,3,82,68,,,,,,,,,,,4.16,2.79,3.10*15
$GPGSV,2,1,07,02,23,090,33,04,,,22,05,,,33,13,,,35*42
$GPGSV,2,2,07,25,23,313,22,26,10,225,19,29,76,243,38*45
$AADPT,0.73,0.00*44
$AADBT,2.3,f,0.73,M,0.3,F*27
$AADBS,2.3,f,0.73,M,0.3,F*20
$AAMTW,25.4,C*10
$AAXDR,C,25.4,C,ENV_SEA_T*0D
$AAMDA,,I,,B,,C,25.4,C,,,,C,,T,,M,,N,,M*07
$AADPT,0.73,0.00*44
$GLGSV,2,1,07,66,,,31,67,56,143,38,68,63,340,32,69,13,331,12*5E
$GLGSV,2,2,07,74,03,223,,82,58,086,31,,,,39*60
$GNGLL,3651.89176,S,17443.42568,E,042833.00,A,A*6C
$GNZDA,042833.00,31,01,2018,00,00*7E
$AADPT,0.73,0.00*44
$AADBT,2.3,f,0.73,M,0.3,F*27
$AADBS,2.3,f,0.73,M,0.3,F*20
$AAMTW,25.4,C*10
$AAXDR,C,25.4,C,ENV_SEA_T*0D
$AAMDA,,I,,B,,C,25.4,C,,,,C,,T,,M,,N,,M*07
$AADPT,0.73,0.00*44
$GNRMC,042834.00,A,3651.89170,S,17443.42564,E,0.093,,310118,,,A*78
$GNVTG,,T,,M,0.093,N,0.173,K,A*32
$GNGGA,042834.00,3651.89170,S,17443.42564,E,1,04,2.79,15.7,M,28.1,M,,*64
$GNGSA,A,3,26,29,,,,,,,,,,,4.17,2.79,3.10*1F
$GNGSA,A,3,82,68,,,,,,,,,,,4.17,2.79,3.10*14
$GPGSV,2,1,07,02,23,090,31,04,,,22,05,,,31,13,,,32*45
$GPGSV,2,2,07,25,23,313,22,26,10,225,21,29,76,243,38*4E
$AADPT,0.67,0.00*41
$AADBT,2.1,f,0.67,M,0.3,F*20
$AADBS,2.1,f,0.67,M,0.3,F*27
$AAMTW,25.4,C*10
$AAXDR,C,25.4,C,ENV_SEA_T*0D
$AAMDA,,I,,B,,C,25.4,C,,,,C,,T,,M,,N,,M*07
$AADPT,0.67,0.00*41
$GLGSV,2,1,07,66,,,31,67,56,143,36,68,63,340,32,69,13,331,15*57
$GLGSV,2,2,07,74,03,223,,82,58,086,22,,,,40*6C
$GNGLL,3651.89170,S,17443.42564,E,042834.00,A,A*61
$GNZDA,042834.00,31,01,2018,00,00*79
$AADPT,0.67,0.00*41
$AADBT,2.1,f,0.67,M,0.3,F*20
$AADBS,2.1,f,0.67,M,0.3,F*27
$AAMTW,25.4,C*10
$AAXDR,C,25.4,C,ENV_SEA_T*0D
$AAMDA,,I,,B,,C,25.4,C,,,,C,,T,,M,,N,,M*07
$AADPT,0.67,0.00*41
$GNRMC,042835.00,A,3651.89145,S,17443.42547,E,0.392,,310118,,,A*7C
$GNVTG,,T,,M,0.392,N,0.726,K,A*36
$GNGGA,042835.00,3651.89145,S,17443.42547,E,1,04,2.79,15.6,M,28.1,M,,*63
$GNGSA,A,3,26,29,,,,,,,,,,,4.17,2.79,3.10*1F
$GNGSA,A,3,82,68,,,,,,,,,,,4.17,2.79,3.10*14
$GPGSV,2,1,07,02,23,090,33,04,,,20,05,,,32,13,,,36*42
$GPGSV,2,2,07,25,23,313,21,26,10,225,25,29,76,243,38*49
$AADPT,0.67,0.00*41
$AADBT,2.1,f,0.67,M,0.3,F*20
$AADBS,2.1,f,0.67,M,0.3,F*27
$AAMTW,25.4,C*10
$AAXDR,C,25.4,C,ENV_SEA_T*0D
$AAMDA,,I,,B,,C,25.4,C,,,,C,,T,,M,,N,,M*07
$GLGSV,2,1,07,66,,,25,67,56,143,33,68,63,340,31,69,13,331,17*56
$AADPT,0.67,0.00*41
$GLGSV,2,2,07,74,03,223,,82,58,086,33,,,,38*63
$GNGLL,3651.89145,S,17443.42547,E,042835.00,A,A*67
$GNZDA,042835.00,31,01,2018,00,00*78
$AADPT,0.67,0.00*41
$AADBT,2.1,f,0.67,M,0.3,F*20
$AADBS,2.1,f,0.67,M,0.3,F*27
$AAMTW,25.4,C*10
$AAXDR,C,25.4,C,ENV_SEA_T*0D
$AAMDA,,I,,B,,C,25.4,C,,,,C,,T,,M,,N,,M*07
$AADPT,0.67,0.00*41
$GNRMC,042836.00,A,3651.89118,S,17443.42527,E,0.355,,310118,,,A*7A
$GNVTG,,T,,M,0.355,N,0.658,K,A*35
$GNGGA,042836.00,3651.89118,S,17443.42527,E,1,04,2.79,15.7,M,28.1,M,,*6F
$GNGSA,A,3,26,29,,,,,,,,,,,4.17,2.79,3.10*1F
$GNGSA,A,3,82,68,,,,,,,,,,,4.17,2.79,3.10*14
$GPGSV,2,1,07,02,23,090,31,04,,,23,05,,,31,13,,,34*42
$GPGSV,2,2,07,25,23,313,,26,10,225,27,29,76,243,37*47
$AADPT,0.67,0.00*41
$AADBT,2.1,f,0.67,M,0.3,F*20
$AADBS,2.1,f,0.67,M,0.3,F*27
$AAMTW,25.4,C*10
$AAXDR,C,25.4,C,ENV_SEA_T*0D
$AAMDA,,I,,B,,C,25.4,C,,,,C,,T,,M,,N,,M*07
$AADPT,0.67,0.00*41
$GLGSV,2,1,07,66,,,26,67,56,143,36,68,63,340,33,69,13,331,18*5D
$GLGSV,2,2,07,74,03,223,,82,58,086,28,,,,38*69
$GNGLL,3651.89118,S,17443.42527,E,042836.00,A,A*6A
$GNZDA,042836.00,31,01,2018,00,00*7B
$AADPT,0.67,0.00*41
$AADBT,2.1,f,0.67,M,0.3,F*20
$AADBS,2.1,f,0.67,M,0.3,F*27
$AAMTW,25.4,C*10
$AAXDR,C,25.4,C,ENV_SEA_T*0D
$AAMDA,,I,,B,,C,25.4,C,,,,C,,T,,M,,N,,M*07
$AADPT,0.67,0.00*41
$GNRMC,042837.00,A,3651.89098,S,17443.42526,E,0.190,,310118,,,A*78
$GNVTG,,T,,M,0.190,N,0.353,K,A*30
$GNGGA,042837.00,3651.89098,S,17443.42526,E,1,04,2.79,16.0,M,28.1,M,,*62
$GNGSA,A,3,26,29,,,,,,,,,,,4.17,2.79,3.10*1F
$GNGSA,A,3,82,68,,,,,,,,,,,4.17,2.79,3.10*14
$GPGSV,2,1,07,02,23,090,32,04,,,22,05,,,31,13,,,33*47
$GPGSV,2,2,07,25,23,313,23,26,10,225,29,29,76,243,35*4A
$AADPT,0.49,0.00*4D
$AADBT,1.6,f,0.49,M,0.2,F*29
$AADBS,1.6,f,0.49,M,0.2,F*2E
$AAMTW,25.4,C*10
$AAXDR,C,25.4,C,ENV_SEA_T*0D
$AAMDA,,I,,B,,C,25.4,C,,,,C,,T,,M,,N,,M*07
$AADPT,0.49,0.00*4D
$GLGSV,2,1,07,66,04,150,27,67,56,143,38,68,63,340,31,69,13,331,18*60
$GLGSV,2,2,07,74,03,223,,82,58,086,15,,,,40*68
$GNGLL,3651.89098,S,17443.42526,E,042837.00,A,A*63
$GNZDA,042837.00,31,01,2018,00,00*7A
$AADPT,0.49,0.00*4D
$AADBT,1.6,f,0.49,M,0.2,F*29
$AADBS,1.6,f,0.49,M,0.2,F*2E
$AAMTW,25.4,C*10
$AAXDR,C,25.4,C,ENV_SEA_T*0D
$AAMDA,,I,,B,,C,25.4,C,,,,C,,T,,M,,N,,M*07
$AADPT,0.49,0.00*4D
$GNRMC,042838.00,A,3651.89076,S,17443.42513,E,0.192,,310118,,,A*73
$GNVTG,,T,,M,0.192,N,0.355,K,A*34
$GNGGA,042838.00,3651.89076,S,17443.42513,E,1,04,2.79,16.3,M,28.1,M,,*68
$GNGSA,A,3,26,29,,,,,,,,,,,4.17,2.79,3.10*1F
$GNGSA,A,3,82,68,,,,,,,,,,,4.17,2.79,3.10*14
$GPGSV,2,1,07,02,23,090,32,04,,,21,05,,,32,13,,,34*40
$GPGSV,2,2,07,25,23,313,23,26,10,225,29,29,76,243,38*47
$AADPT,0.49,0.00*4D
$AADBT,1.6,f,0.49,M,0.2,F*29
$AADBS,1.6,f,0.49,M,0.2,F*2E
$AAMTW,25.4,C*10
$AAXDR,C,25.4,C,ENV_SEA_T*0D
$AAMDA,,I,,B,,C,25.4,C,,,,C,,T,,M,,N,,M*07
$AADPT,0.49,0.00*4D
$GLGSV,2,1,07,66,04,150,25,67,56,143,37,68,63,340,31,69,13,331,18*6D
$GLGSV,2,2,07,74,03,223,,82,58,086,27,,,,40*69
$GNGLL,3651.89076,S,17443.42513,E,042838.00,A,A*6A
$GNZDA,042838.00,31,01,2018,00,00*75
$AADPT,0.49,0.00*4D
$AADBT,1.6,f,0.49,M,0.2,F*29
$AADBS,1.6,f,0.49,M,0.2,F*2E
$AAMTW,25.4,C*10
$AAXDR,C,25.4,C,ENV_SEA_T*0D
$AAMDA,,I,,B,,C,25.4,C,,,,C,,T,,M,,N,,M*07
$AADPT,0.49,0.00*4D
$GNRMC,042839.00,A,3651.88975,S,17443.42431,E,0.242,,310118,,,A*76
$GNVTG,,T,,M,0.242,N,0.448,K,A*31
$GNGGA,042839.00,3651.88975,S,17443.42431,E,1,06,1.90,16.7,M,28.1,M,,*61
$GNGSA,A,3,26,29,,,,,,,,,,,3.05,1.90,2.39*15
$GNGSA,A,3,82,67,68,83,,,,,,,,,3.05,1.90,2.39*14
$AADPT,0.49,0.00*4D
$AADBT,1.6,f,0.49,M,0.2,F*29
$AADBS,1.6,f,0.49,M,0.2,F*2E
$GPGSV,2,1,07,02,23,090,33,04,,,23,05,,,31,13,,,33*47
$GPGSV,2,2,07,25,23,313,21,26,10,225,30,29,76,243,40*42
$AAMTW,25.4,C*10
$AAXDR,C,25.4,C,ENV_SEA_T*0D
$AAMDA,,I,,B,,C,25.4,C,,,,C,,T,,M,,N,,M*07
$AADPT,0.49,0.00*4D
$GLGSV,2,1,07,66,04,150,27,67,55,143,35,68,63,340,33,69,13,331,16*62
$GLGSV,2,2,07,74,03,223,,82,58,086,27,83,52,198,39*5B
$GNGLL,3651.88975,S,17443.42431,E,042839.00,A,A*61
$GNZDA,042839.00,31,01,2018,00,00*74
$AADPT,0.49,0.00*4D
$AADBT,1.6,f,0.49,M,0.2,F*29
$AADBS,1.6,f,0.49,M,0.2,F*2E
$AAMTW,25.4,C*10
$AAXDR,C,25.4,C,ENV_SEA_T*0D
$AAMDA,,I,,B,,C,25.4,C,,,,C,,T,,M,,N,,M*07
$AADPT,0.49,0.00*4D
$GNRMC,042840.00,A,3651.88924,S,17443.42370,E,0.239,,310118,,,A*72
$GNVTG,,T,,M,0.239,N,0.442,K,A*37
$GNGGA,042840.00,3651.88924,S,17443.42370,E,1,06,1.90,17.2,M,28.1,M,,*6D
$GNGSA,A,3,26,29,,,,,,,,,,,3.05,1.90,2.39*15
$GNGSA,A,3,82,67,68,83,,,,,,,,,3.05,1.90,2.39*14
$GPGSV,2,1,08,02,23,090,34,04,,,25,05,,,32,13,,,33*4A
$GPGSV,2,2,08,20,,,33,25,23,313,20,26,10,225,31,29,76,243,39*41
$AADPT,0.52,0.00*47
$AADBT,1.7,f,0.52,M,0.2,F*22
$AADBS,1.7,f,0.52,M,0.2,F*25
$AAMTW,25.4,C*10
$AAXDR,C,25.4,C,ENV_SEA_T*0D
$AAMDA,,I,,B,,C,25.4,C,,,,C,,T,,M,,N,,M*07
$AADPT,0.52,0.00*47
$GLGSV,2,1,07,66,04,150,29,67,55,143,35,68,63,340,32,69,13,331,*6A
$GLGSV,2,2,07,74,03,223,,82,58,086,27,83,52,198,38*5A
$GNGLL,3651.88924,S,17443.42370,E,042840.00,A,A*69
$GNZDA,042840.00,31,01,2018,00,00*7A
$AADPT,0.52,0.00*47
$AADBT,1.7,f,0.52,M,0.2,F*22
$AADBS,1.7,f,0.52,M,0.2,F*25
$AAMTW,25.4,C*10
$AAXDR,C,25.4,C,ENV_SEA_T*0D
$AAMDA,,I,,B,,C,25.4,C,,,,C,,T,,M,,N,,M*07
$AADPT,0.52,0.00*47
$GNRMC,042841.00,A,3651.88880,S,17443.42307,E,0.158,,310118,,,A*78
$GNVTG,,T,,M,0.158,N,0.293,K,A*39
$GNGGA,042841.00,3651.88880,S,17443.42307,E,1,06,1.90,17.6,M,28.1,M,,*67
$GNGSA,A,3,26,29,,,,,,,,,,,3.05,1.90,2.39*15
$GNGSA,A,3,82,67,68,83,,,,,,,,,3.05,1.90,2.39*14
$GPGSV,2,1,08,02,23,090,35,04,,,22,05,,,29,13,,,35*40
$GPGSV,2,2,08,20,,,36,25,23,313,20,26,10,225,29,29,76,243,39*4D
$AADPT,0.55,0.00*40
$AADBT,1.8,f,0.55,M,0.3,F*2B
$AADBS,1.8,f,0.55,M,0.3,F*2C
$AAMTW,25.4,C*10
$AAXDR,C,25.4,C,ENV_SEA_T*0D
$AAMDA,,I,,B,,C,25.4,C,,,,C,,T,,M,,N,,M*07
$AADPT,0.55,0.00*40
$GLGSV,2,1,07,66,04,150,31,67,55,143,39,68,63,340,31,69,13,331,*6C
$GLGSV,2,2,07,74,03,223,,82,58,086,26,83,52,198,41*55
$GNGLL,3651.88880,S,17443.42307,E,042841.00,A,A*67
$GNZDA,042841.00,31,01,2018,00,00*7B
$AADPT,0.55,0.00*40
$AADBT,1.8,f,0.55,M,0.3,F*2B
$AADBS,1.8,f,0.55,M,0.3,F*2C
$AAMTW,25.4,C*10
$AAXDR,C,25.4,C,ENV_SEA_T*0D
$AAMDA,,I,,B,,C,25.4,C,,,,C,,T,,M,,N,,M*07
$AADPT,0.55,0.00*40
$GNRMC,042842.00,A,3651.88852,S,17443.42248,E,0.229,,310118,,,A*7B
$GNVTG,,T,,M,0.229,N,0.424,K,A*36
$GNGGA,042842.00,3651.88852,S,17443.42248,E,1,06,1.90,17.9,M,28.1,M,,*6E
$GNGSA,A,3,26,29,,,,,,,,,,,3.05,1.90,2.39*15
$GNGSA,A,3,82,67,68,83,,,,,,,,,3.05,1.90,2.39*14
$GPGSV,2,1,08,02,23,090,31,04,,,23,05,,,36,13,,,27*48
$GPGSV,2,2,08,20,,,35,25,23,313,18,26,10,225,19,29,76,243,41*49
$AADPT,0.55,0.00*40
$AADBT,1.8,f,0.55,M,0.3,F*2B
$AADBS,1.8,f,0.55,M,0.3,F*2C
$AAMTW,25.4,C*10
$AAXDR,C,25.4,C,ENV_SEA_T*0D
$AAMDA,,I,,B,,C,25.4,C,,,,C,,T,,M,,N,,M*07
$AADPT,0.55,0.00*40
$GLGSV,2,1,07,66,04,150,25,67,55,143,40,68,63,340,34,69,13,331,*62
$GLGSV,2,2,07,74,03,223,,82,58,086,32,83,52,198,42*53
$GNGLL,3651.88852,S,17443.42248,E,042842.00,A,A*61
$GNZDA,042842.00,31,01,2018,00,00*78
$AADPT,0.55,0.00*40
$AADBT,1.8,f,0.55,M,0.3,F*2B
$AADBS,1.8,f,0.55,M,0.3,F*2C
$AAMTW,25.4,C*10
$AAXDR,C,25.4,C,ENV_SEA_T*0D
$AAMDA,,I,,B,,C,25.4,C,,,,C,,T,,M,,N,,M*07
$AADPT,0.55,0.00*40
$GNRMC,042843.00,A,3651.88839,S,17443.42227,E,0.337,,310118,,,A*70
$GNVTG,,T,,M,0.337,N,0.624,K,A*3A
$GNGGA,042843.00,3651.88839,S,17443.42227,E,1,06,1.90,17.8,M,28.1,M,,*6A
$GNGSA,A,3,26,29,,,,,,,,,,,3.05,1.90,2.39*15
$GNGSA,A,3,82,67,68,83,,,,,,,,,3.05,1.90,2.39*14
$GPGSV,2,1,08,02,23,090,31,04,,,23,05,,,37,13,,,27*49
$AADPT,0.55,0.00*40
$GPGSV,2,2,08,20,,,33,25,23,313,18,26,10,225,20,29,76,243,39*4A
$AADBT,1.8,f,0.55,M,0.3,F*2B
$AADBS,1.8,f,0.55,M,0.3,F*2C
$AAMTW,25.4,C*10
$AAXDR,C,25.4,C,ENV_SEA_T*0D
$AAMDA,,I,,B,,C,25.4,C,,,,C,,T,,M,,N,,M*07
$AADPT,0.55,0.00*40
$GLGSV,2,1,07,66,04,150,26,67,55,143,40,68,63,340,33,69,13,331,*66
$GLGSV,2,2,07,74,03,223,,82,58,086,24,83,52,198,42*54
$GNGLL,3651.88839,S,17443.42227,E,042843.00,A,A*64
$GNZDA,042843.00,31,01,2018,00,00*79
$AADPT,0.55,0.00*40
$AADBT,1.8,f,0.55,M,0.3,F*2B
$AADBS,1.8,f,0.55,M,0.3,F*2C
$AAMTW,25.4,C*10
$AAXDR,C,25.4,C,ENV_SEA_T*0D
$AAMDA,,I,,B,,C,25.4,C,,,,C,,T,,M,,N,,M*07
$AADPT,0.55,0.00*40
$GNRMC,042844.00,A,3651.88837,S,17443.42212,E,0.141,,310118,,,A*7C
$GNVTG,,T,,M,0.141,N,0.262,K,A*3F
$GNGGA,042844.00,3651.88837,S,17443.42212,E,1,06,1.90,17.7,M,28.1,M,,*6A
$GNGSA,A,3,26,29,,,,,,,,,,,3.05,1.90,2.39*15
$GNGSA,A,3,82,67,68,83,,,,,,,,,3.05,1.90,2.39*14
$GPGSV,2,1,08,02,23,090,36,04,,,22,05,,,37,13,,,33*4A
$GPGSV,2,2,08,20,,,32,25,23,313,19,26,10,225,21,29,76,243,39*4B
$AADPT,0.55,0.00*40
$AADBT,1.8,f,0.55,M,0.3,F*2B
$AADBS,1.8,f,0.55,M,0.3,F*2C
$AAMTW,25.4,C*10
$AAXDR,C,25.4,C,ENV_SEA_T*0D
$AAMDA,,I,,B,,C,25.4,C,,,,C,,T,,M,,N,,M*07
$AADPT,0.55,0.00*40
$GLGSV,2,1,07,66,04,150,32,67,55,143,42,68,63,340,32,69,13,331,*60
$GLGSV,2,2,07,74,03,223,,82,58,086,32,83,52,198,41*50
$GNGLL,3651.88837,S,17443.42212,E,042844.00,A,A*6B
$GNZDA,042844.00,31,01,2018,00,00*7E
$AADPT,0.55,0.00*40
$AADBT,1.8,f,0.55,M,0.3,F*2B
$AADBS,1.8,f,0.55,M,0.3,F*2C
$AAMTW,25.4,C*10
$AAXDR,C,25.4,C,ENV_SEA_T*0D
$AAMDA,,I,,B,,C,25.4,C,,,,C,,T,,M,,N,,M*07
$AADPT,0.55,0.00*40
$GNRMC,042845.00,A,3651.88822,S,17443.42199,E,0.237,,310118,,,A*7B
$GNVTG,,T,,M,0.237,N,0.440,K,A*3B
$GNGGA,042845.00,3651.88822,S,17443.42199,E,1,06,1.90,17.5,M,28.1,M,,*6D
$GNGSA,A,3,26,29,,,,,,,,,,,3.05,1.90,2.39*15
$GNGSA,A,3,82,67,68,83,,,,,,,,,3.05,1.90,2.39*14
$GPGSV,2,1,08,02,23,090,37,04,,,18,05,,,38,13,,,32*4C
$GPGSV,2,2,08,20,,,31,25,23,313,20,26,10,225,18,29,76,243,36*47
$AAMTW,25.4,C*10
$AAXDR,C,25.4,C,ENV_SEA_T*0D
$AAMDA,,I,,B,,C,25.4,C,,,,C,,T,,M,,N,,M*07
$GLGSV,2,1,07,66,04,150,25,67,55,143,42,68,63,340,33,69,13,331,*67
$GLGSV,2,2,07,74,03,223,,82,58,086,31,83,52,198,37*52
$GNGLL,3651.88822,S,17443.42199,E,042845.00,A,A*6E
$GNZDA,042845.00,31,01,2018,00,00*7F
$AAMTW,25.4,C*10
$AAXDR,C,25.4,C,ENV_SEA_T*0D
$AAMDA,,I,,B,,C,25.4,C,,,,C,,T,,M,,N,,M*07
$GNRMC,042846.00,A,3651.88802,S,17443.42216,E,0.205,,310118,,,A*7F
$GNVTG,,T,,M,0.205,N,0.380,K,A*31
$GNGGA,042846.00,3651.88802,S,17443.42216,E,1,06,1.90,17.0,M,28.1,M,,*6D
$GNGSA,A,3,26,29,,,,,,,,,,,3.05,1.90,2.39*15
$GNGSA,A,3,82,67,68,83,,,,,,,,,3.05,1.90,2.39*14
$GPGSV,2,1,07,02,23,090,38,05,,,39,13,,,31,20,,,25*46
$GPGSV,2,2,07,25,23,313,20,26,10,225,19,29,76,243,39*46
$AAMTW,25.4,C*10
$AAXDR,C,25.4,C,ENV_SEA_T*0D
$AAMDA,,I,,B,,C,25.4,C,,,,C,,T,,M,,N,,M*07
$GLGSV,2,1,07,66,04,149,25,67,55,143,41,68,63,340,34,69,13,331,*6B
$GLGSV,2,2,07,74,03,223,,82,58,086,35,83,52,198,39*58
$GNGLL,3651.88802,S,17443.42216,E,042846.00,A,A*6B
$GNZDA,042846.00,31,01,2018,00,00*7C
$AAMTW,25.4,C*10
$AAXDR,C,25.4,C,ENV_SEA_T*0D
$AAMDA,,I,,B,,C,25.4,C,,,,C,,T,,M,,N,,M*07
$GNRMC,042847.00,A,3651.88774,S,17443.42251,E,0.187,,310118,,,A*7A
$GNVTG,,T,,M,0.187,N,0.346,K,A*32
$GNGGA,042847.00,3651.88774,S,17443.42251,E,1,06,1.90,16.4,M,28.1,M,,*64
$GNGSA,A,3,26,29,,,,,,,,,,,3.05,1.90,2.39*15
$GNGSA,A,3,82,67,68,83,,,,,,,,,3.05,1.90,2.39*14
$GPGSV,2,1,07,02,23,090,38,05,,,38,13,,,31,20,,,26*44
$GPGSV,2,2,07,25,23,313,21,26,10,225,28,29,76,243,37*4B
$AAMTW,25.4,C*10
$AAXDR,C,25.4,C,ENV_SEA_T*0D
$AAMDA,,I,,B,,C,25.4,C,,,,C,,T,,M,,N,,M*07
$GLGSV,2,1,07,66,04,149,23,67,55,143,39,68,63,340,33,69,13,331,*65
$GLGSV,2,2,07,74,03,223,,82,58,086,38,83,52,198,39*55
$GNGLL,3651.88774,S,17443.42251,E,042847.00,A,A*67
$GNZDA,042847.00,31,01,2018,00,00*7D
$AAMTW,25.4,C*10
$AAXDR,C,25.4,C,ENV_SEA_T*0D
$AAMDA,,I,,B,,C,25.4,C,,,,C,,T,,M,,N,,M*07
$GNRMC,042848.00,A,3651.88755,S,17443.42267,E,0.222,,310118,,,A*7F
$GNVTG,,T,,M,0.222,N,0.412,K,A*38
$GNGGA,042848.00,3651.88755,S,17443.42267,E,1,06,1.90,15.9,M,28.1,M,,*63
$GNGSA,A,3,26,29,,,,,,,,,,,3.05,1.90,2.39*15
$GNGSA,A,3,82,67,68,83,,,,,,,,,3.05,1.90,2.39*14
$GPGSV,2,1,07,02,23,090,37,05,,,36,13,,,30,20,,,27*45
$GPGSV,2,2,07,25,23,313,21,26,10,225,26,29,76,243,35*47
$AAMTW,25.4,C*10
$AAXDR,C,25.4,C,ENV_SEA_T*0D
$AAMDA,,I,,B,,C,25.4,C,,,,C,,T,,M,,N,,M*07
$GLGSV,2,1,07,66,04,149,22,67,55,143,43,68,64,340,37,69,13,331,*6A
$GLGSV,2,2,07,74,03,223,,82,58,086,40,83,52,198,41*55
$GNGLL,3651.88755,S,17443.42267,E,042848.00,A,A*6E
$GNZDA,042848.00,31,01,2018,00,00*72
$AAMTW,25.4,C*10
$AAXDR,C,25.4,C,ENV_SEA_T*0D
$AAMDA,,I,,B,,C,25.4,C,,,,C,,T,,M,,N,,M*07
$GNRMC,042849.00,A,3651.88738,S,17443.42279,E,0.055,,310118,,,A*78
$GNVTG,,T,,M,0.055,N,0.102,K,A*3E
$GNGGA,042849.00,3651.88738,S,17443.42279,E,1,06,1.90,15.7,M,28.1,M,,*68
$GNGSA,A,3,26,29,,,,,,,,,,,3.05,1.90,2.39*15
$GNGSA,A,3,82,67,68,83,,,,,,,,,3.05,1.90,2.39*14
$GPGSV,2,1,07,02,23,090,39,05,,,35,13,,,32,20,,,32*4E
$AAMTW,25.4,C*10
$GPGSV,2,2,07,25,23,313,20,26,10,225,27,29,76,243,38*4A
$AAXDR,C,25.4,C,ENV_SEA_T*0D
$AAMDA,,I,,B,,C,25.4,C,,,,C,,T,,M,,N,,M*07
$GLGSV,2,1,07,66,04,149,19,67,55,143,43,68,64,340,37,69,13,331,*62
$GLGSV,2,2,07,74,03,223,,82,58,086,41,83,52,198,41*54
$GNGLL,3651.88738,S,17443.42279,E,042849.00,A,A*6B
$GNZDA,042849.00,31,01,2018,00,00*73
$AAMTW,25.4,C*10
$AAXDR,C,25.4,C,ENV_SEA_T*0D
$AAMDA,,I,,B,,C,25.4,C,,,,C,,T,,M,,N,,M*07
$GNRMC,042850.00,A,3651.88705,S,17443.42311,E,0.112,,310118,,,A*73
$GNVTG,,T,,M,0.112,N,0.208,K,A*35
$GNGGA,042850.00,3651.88705,S,17443.42311,E,1,06,1.90,15.2,M,28.1,M,,*64
$GNGSA,A,3,26,29,,,,,,,,,,,3.05,1.90,2.39*15
$GNGSA,A,3,82,67,68,83,,,,,,,,,3.05,1.90,2.39*14
$GPGSV,2,1,07,02,23,090,39,05,,,35,13,,,34,20,,,33*49
$AAMTW,25.4,C*10
$GPGSV,2,2,07,25,23,313,18,26,10,225,30,29,76,243,38*47
$AAXDR,C,25.4,C,ENV_SEA_T*0D
$AAMDA,,I,,B,,C,25.4,C,,,,C,,T,,M,,N,,M*07
$GLGSV,2,1,07,66,04,149,20,67,55,143,41,68,64,340,33,69,13,331,*6E
$GLGSV,2,2,07,74,03,223,,82,58,086,40,83,52,198,41*55
$GNGLL,3651.88705,S,17443.42311,E,042850.00,A,A*62
$GNZDA,042850.00,31,01,2018,00,00*7B
$AAMTW,25.4,C*10
$AAXDR,C,25.4,C,ENV_SEA_T*0D
$AAMDA,,I,,B,,C,25.4,C,,,,C,,T,,M,,N,,M*07
$GNRMC,042851.00,A,3651.88681,S,17443.42337,E,0.121,,310118,,,A*7B
$GNVTG,,T,,M,0.121,N,0.224,K,A*3B
$GNGGA,042851.00,3651.88681,S,17443.42337,E,1,06,1.90,15.1,M,28.1,M,,*6F
$GNGSA,A,3,26,29,,,,,,,,,,,3.05,1.90,2.39*15
$GNGSA,A,3,82,67,68,83,,,,,,,,,3.05,1.90,2.39*14
$AAMTW,25.4,C*10
$GPGSV,2,1,07,02,23,090,37,05,,,37,13,,,36,20,,,34*40
$AAXDR,C,25.4,C,ENV_SEA_T*0D
$GPGSV,2,2,07,25,23,313,,26,10,225,32,29,76,243,38*4C
$AAMDA,,I,,B,,C,25.4,C,,,,C,,T,,M,,N,,M*07
$GLGSV,2,1,07,66,04,149,21,67,55,143,40,68,64,340,31,69,13,331,*6C
$GLGSV,2,2,07,74,03,223,,82,58,086,40,83,52,198,39*5A
$GNGLL,3651.88681,S,17443.42337,E,042851.00,A,A*6A
$GNZDA,042851.00,31,01,2018,00,00*7A
$AAMTW,25.4,C*10
$AAXDR,C,25.4,C,ENV_SEA_T*0D
$AAMDA,,I,,B,,C,25.4,C,,,,C,,T,,M,,N,,M*07
$GNRMC,042852.00,A,3651.88655,S,17443.42362,E,0.086,,310118,,,A*7D
$GNVTG,,T,,M,0.086,N,0.159,K,A*3E
$GNGGA,042852.00,3651.88655,S,17443.42362,E,1,06,1.90,14.4,M,28.1,M,,*61
$GNGSA,A,3,26,29,,,,,,,,,,,3.05,1.90,2.39*15
$GNGSA,A,3,82,67,68,83,,,,,,,,,3.05,1.90,2.39*14
$AAMTW,25.4,C*10
$AAXDR,C,25.4,C,ENV_SEA_T*0D
$AAMDA,,I,,B,,C,25.4,C,,,,C,,T,,M,,N,,M*07
$GPGSV,2,1,07,02,23,090,34,05,,,33,13,,,32,20,,,34*43
$GPGSV,2,2,07,25,23,313,,26,10,225,32,29,76,243,35*41
$GLGSV,2,1,07,66,04,149,19,67,55,143,39,68,64,340,30,69,13,331,*68
$GLGSV,2,2,07,74,03,223,,82,58,086,42,83,52,198,39*58
$GNGLL,3651.88655,S,17443.42362,E,042852.00,A,A*60
$GNZDA,042852.00,31,01,2018,00,00*79
$AAMTW,25.4,C*10
$AAXDR,C,25.4,C,ENV_SEA_T*0D
$AAMDA,,I,,B,,C,25.4,C,,,,C,,T,,M,,N,,M*07
$GNRMC,042853.00,A,3651.88628,S,17443.42375,E,0.054,,310118,,,A*7F
$GNVTG,,T,,M,0.054,N,0.100,K,A*3D
$GNGGA,042853.00,3651.88628,S,17443.42375,E,1,06,1.90,14.0,M,28.1,M,,*68
$GNGSA,A,3,26,29,,,,,,,,,,,3.05,1.90,2.39*15
$GNGSA,A,3,82,67,68,83,,,,,,,,,3.05,1.90,2.39*14
$AAMTW,25.4,C*10
$AAXDR,C,25.4,C,ENV_SEA_T*0D
$GPGSV,2,1,07,02,23,090,33,05,,,27,13,,,32,20,,,33*46
$GPGSV,2,2,07,25,23,313,,26,10,225,32,29,76,243,34*40
$AAMDA,,I,,B,,C,25.4,C,,,,C,,T,,M,,N,,M*07
$GLGSV,2,1,07,66,04,149,21,67,55,143,41,68,64,340,30,69,13,331,*6C
$GLGSV,2,2,07,74,03,223,,82,58,086,42,83,52,198,36*57
$GNGLL,3651.88628,S,17443.42375,E,042853.00,A,A*6D
$GNZDA,042853.00,31,01,2018,00,00*78
$AAMTW,25.4,C*10
$AAXDR,C,25.4,C,ENV_SEA_T*0D
$AAMDA,,I,,B,,C,25.4,C,,,,C,,T,,M,,N,,M*07
$GNRMC,042854.00,A,3651.88601,S,17443.42383,E,0.073,,310118,,,A*7F
$GNVTG,,T,,M,0.073,N,0.134,K,A*3F
$GNGGA,042854.00,3651.88601,S,17443.42383,E,1,06,1.90,13.5,M,28.1,M,,*6F
$GNGSA,A,3,26,29,,,,,,,,,,,3.05,1.90,2.39*15
$GNGSA,A,3,82,67,68,83,,,,,,,,,3.05,1.90,2.39*14
$AAMTW,25.4,C*10
$AAXDR,C,25.4,C,ENV_SEA_T*0D
$AAMDA,,I,,B,,C,25.4,C,,,,C,,T,,M,,N,,M*07
$GPGSV,2,1,07,02,23,090,30,05,,,33,13,,,31,20,,,33*43
$GPGSV,2,2,07,25,23,313,24,26,10,225,30,29,76,243,34*44
$GLGSV,2,1,07,66,04,149,21,67,55,143,41,68,64,340,30,69,13,331,*6C
$GLGSV,2,2,07,74,03,223,,82,58,086,42,83,52,198,32*53
$GNGLL,3651.88601,S,17443.42383,E,042854.00,A,A*68
$GNZDA,042854.00,31,01,2018,00,00*7F
$AAMTW,25.4,C*10
$AAXDR,C,25.4,C,ENV_SEA_T*0D
$AAMDA,,I,,B,,C,25.4,C,,,,C,,T,,M,,N,,M*07
$GNRMC,042855.00,A,3651.88576,S,17443.42384,E,0.200,,310118,,,A*7C
$GNVTG,,T,,M,0.200,N,0.370,K,A*3B
$GNGGA,042855.00,3651.88576,S,17443.42384,E,1,08,1.37,12.6,M,28.1,M,,*6B
$GNGSA,A,3,26,29,02,05,,,,,,,,,2.02,1.37,1.49*1D
$GNGSA,A,3,82,67,68,83,,,,,,,,,2.02,1.37,1.49*1B
$AAMTW,25.4,C*10
$AAXDR,C,25.4,C,ENV_SEA_T*0D
$AAMDA,,I,,B,,C,25.4,C,,,,C,,T,,M,,N,,M*07
$GPGSV,2,1,07,02,22,090,29,05,50,135,32,13,,,30,20,,,33*78
$GPGSV,2,2,07,25,23,313,23,26,10,225,30,29,76,243,34*43
$GLGSV,2,1,07,66,04,149,22,67,55,143,41,68,64,340,29,69,13,331,*67
$GLGSV,2,2,07,74,03,223,,82,58,086,41,83,52,198,30*52
$GNGLL,3651.88576,S,17443.42384,E,042855.00,A,A*6D
$GNZDA,042855.00,31,01,2018,00,00*7E
$AAMTW,25.4,C*10
$AAXDR,C,25.4,C,ENV_SEA_T*0D
$AAMDA,,I,,B,,C,25.4,C,,,,C,,T,,M,,N,,M*07
$GNRMC,042856.00,A,3651.88548,S,17443.42381,E,0.060,,310118,,,A*73
$GNVTG,,T,,M,0.060,N,0.110,K,A*3B
$GNGGA,042856.00,3651.88548,S,17443.42381,E,1,08,1.37,11.7,M,28.1,M,,*62
$GNGSA,A,3,26,29,02,05,,,,,,,,,2.02,1.37,1.49*1D
$GNGSA,A,3,82,67,68,83,,,,,,,,,2.02,1.37,1.49*1B
$AAMTW,25.4,C*10
$AAXDR,C,25.4,C,ENV_SEA_T*0D
$AAMDA,,I,,B,,C,25.4,C,,,,C,,T,,M,,N,,M*07
$GPGSV,2,1,07,02,22,090,27,05,50,135,25,13,,,28,20,,,32*78
$GPGSV,2,2,07,25,23,313,22,26,10,225,29,29,76,243,34*4A
$GLGSV,2,1,07,66,04,149,25,67,55,143,41,68,64,340,28,69,13,331,*61
$GLGSV,2,2,07,74,03,223,,82,58,086,40,83,52,198,30*53
$GNGLL,3651.88548,S,17443.42381,E,042856.00,A,A*66
$GNZDA,042856.00,31,01,2018,00,00*7D
$AAMTW,25.4,C*10
$AAXDR,C,25.4,C,ENV_SEA_T*0D
$AAMDA,,I,,B,,C,25.4,C,,,,C,,T,,M,,N,,M*07
$GNRMC,042857.00,A,3651.88522,S,17443.42379,E,0.100,,310118,,,A*7E
$GNVTG,,T,,M,0.100,N,0.185,K,A*30
$GNGGA,042857.00,3651.88522,S,17443.42379,E,1,08,1.37,11.2,M,28.1,M,,*6D
$GNGSA,A,3,26,29,02,05,,,,,,,,,2.02,1.37,1.49*1D
$GNGSA,A,3,82,67,68,83,,,,,,,,,2.02,1.37,1.49*1B
$AAMTW,25.4,C*10
$AAXDR,C,25.4,C,ENV_SEA_T*0D
$AAMDA,,I,,B,,C,25.4,C,,,,C,,T,,M,,N,,M*07
$GPGSV,2,1,07,02,22,090,27,05,50,135,24,13,,,26,20,,,33*76
$GPGSV,2,2,07,25,23,313,21,26,10,225,28,29,76,243,35*49
$GLGSV,2,1,07,66,04,149,25,67,55,143,42,68,64,340,27,69,13,331,*6D
$GLGSV,2,2,07,74,03,223,,82,58,086,39,83,52,198,32*5F
$GNGLL,3651.88522,S,17443.42379,E,042857.00,A,A*6C
$GNZDA,042857.00,31,01,2018,00,00*7C
$AAMTW,25.4,C*10
$AAXDR,C,25.4,C,ENV_SEA_T*0D
$AAMDA,,I,,B,,C,25.4,C,,,,C,,T,,M,,N,,M*07
$GNRMC,042858.00,A,3651.88501,S,17443.42370,E,0.189,,310118,,,A*78
$GNVTG,,T,,M,0.189,N,0.349,K,A*33
$GNGGA,042858.00,3651.88501,S,17443.42370,E,1,08,1.37,11.4,M,28.1,M,,*6C
$GNGSA,A,3,26,29,02,05,,,,,,,,,2.02,1.37,1.49*1D
$GNGSA,A,3,82,67,68,83,,,,,,,,,2.02,1.37,1.49*1B
$AAMTW,25.4,C*10
$AAXDR,C,25.4,C,ENV_SEA_T*0D
$AAMDA,,I,,B,,C,25.4,C,,,,C,,T,,M,,N,,M*07
$GPGSV,2,1,07,02,22,090,32,05,50,135,31,13,,,24,20,,,34*73
$GPGSV,2,2,07,25,23,313,22,26,10,225,28,29,76,243,37*48
$GLGSV,2,1,07,66,04,149,24,67,55,143,42,68,64,340,27,69,13,331,*6C
$GLGSV,2,2,07,74,03,223,21,82,58,086,39,83,52,198,34*5A
$GNGLL,3651.88501,S,17443.42370,E,042858.00,A,A*6B
$AAMTW,25.4,C*10
$AAXDR,C,25.4,C,ENV_SEA_T*0D
$GNZDA,042858.00,31,01,2018,00,00*73
$AAMDA,,I,,B,,C,25.4,C,,,,C,,T,,M,,N,,M*07
$GNRMC,042859.00,A,3651.88484,S,17443.42364,E,0.028,,310118,,,A*7A
$GNVTG,,T,,M,0.028,N,0.052,K,A*30
$GNGGA,042859.00,3651.88484,S,17443.42364,E,1,08,1.37,11.4,M,28.1,M,,*64
$GNGSA,A,3,26,29,02,05,,,,,,,,,2.02,1.37,1.49*1D
$GNGSA,A,3,82,67,68,83,,,,,,,,,2.02,1.37,1.49*1B
$AAMTW,25.4,C*10
$AAXDR,C,25.4,C,ENV_SEA_T*0D
$AAMDA,,I,,B,,C,25.4,C,,,,C,,T,,M,,N,,M*07
$GPGSV,2,1,07,02,22,090,31,05,50,135,36,13,,,25,20,,,35*77
$GPGSV,2,2,07,25,23,313,22,26,10,225,29,29,76,243,38*46
$GLGSV,2,1,07,66,04,149,22,67,55,143,40,68,64,340,26,69,13,331,*69
$GLGSV,2,2,07,74,03,223,20,82,58,085,40,83,52,198,33*51
$GNGLL,3651.88484,S,17443.42364,E,042859.00,A,A*63
$GNZDA,042859.00,31,01,2018,00,00*72
$AAMTW,25.4,C*10
$AAXDR,C,25.4,C,ENV_SEA_T*0D
$AAMDA,,I,,B,,C,25.4,C,,,,C,,T,,M,,N,,M*07
$GNRMC,042900.00,A,3651.88467,S,17443.42360,E,0.032,,310118,,,A*75
$GNVTG,,T,,M,0.032,N,0.060,K,A*3A
$GNGGA,042900.00,3651.88467,S,17443.42360,E,1,08,1.37,11.4,M,28.1,M,,*60
$AAMTW,25.4,C*10
$GNGSA,A,3,26,29,02,05,,,,,,,,,2.02,1.37,1.49*1D
$GNGSA,A,3,82,67,68,83,,,,,,,,,2.02,1.37,1.49*1B
$AAXDR,C,25.4,C,ENV_SEA_T*0D
$AAMDA,,I,,B,,C,25.4,C,,,,C,,T,,M,,N,,M*07
$GPGSV,2,1,07,02,22,090,30,05,50,135,37,13,40,060,25,20,68,282,35*73
$GPGSV,2,2,07,25,23,313,23,26,10,225,28,29,76,243,38*46
$GLGSV,2,1,07,66,04,149,25,67,55,143,40,68,64,340,27,69,13,331,*6F
$GLGSV,2,2,07,74,03,223,21,82,58,085,42,83,52,198,30*51
$GNGLL,3651.88467,S,17443.42360,E,042900.00,A,A*67
$AAMTW,25.4,C*10
$AAXDR,C,25.4,C,ENV_SEA_T*0D
$AAMDA,,I,,B,,C,25.4,C,,,,C,,T,,M,,N,,M*07
$GNZDA,042900.00,31,01,2018,00,00*7F
$GNRMC,042901.00,A,3651.88456,S,17443.42357,E,0.063,,310118,,,A*76
$GNVTG,,T,,M,0.063,N,0.117,K,A*3F
$GNGGA,042901.00,3651.88456,S,17443.42357,E,1,10,1.18,11.3,M,28.1,M,,*64
$GNGSA,A,3,26,29,02,05,13,20,,,,,,,1.84,1.18,1.40*14
$GNGSA,A,3,82,67,68,83,,,,,,,,,1.84,1.18,1.40*12
$AAMTW,25.4,C*10
$AAXDR,C,25.4,C,ENV_SEA_T*0D
$AAMDA,,I,,B,,C,25.4,C,,,,C,,T,,M,,N,,M*07
$GPGSV,2,1,07,02,22,090,28,05,50,135,37,13,40,060,26,20,68,282,36*7A
$GPGSV,2,2,07,25,23,313,22,26,10,225,29,29,76,243,38*46
$GLGSV,2,1,07,66,04,149,27,67,55,143,40,68,64,340,27,69,13,331,*6D
$GLGSV,2,2,07,74,03,223,21,82,58,085,41,83,52,198,29*5A
$GNGLL,3651.88456,S,17443.42357,E,042901.00,A,A*60
$AAMTW,25.4,C*10
$AAXDR,C,25.4,C,ENV_SEA_T*0D
$GNZDA,042901.00,31,01,2018,00,00*7E
$AAMDA,,I,,B,,C,25.4,C,,,,C,,T,,M,,N,,M*07
$GNRMC,042902.00,A,3651.88445,S,17443.42355,E,0.041,,310118,,,A*75
$GNVTG,,T,,M,0.041,N,0.075,K,A*3A
$GNGGA,042902.00,3651.88445,S,17443.42355,E,1,10,1.18,11.0,M,28.1,M,,*64
$AAMTW,25.4,C*10
$GNGSA,A,3,26,29,02,05,13,20,,,,,,,1.84,1.18,1.40*14
$GNGSA,A,3,82,67,68,83,,,,,,,,,1.84,1.18,1.40*12
$AAXDR,C,25.4,C,ENV_SEA_T*0D
$AAMDA,,I,,B,,C,25.4,C,,,,C,,T,,M,,N,,M*07
$GPGSV,2,1,07,02,22,090,25,05,50,135,36,13,40,060,25,20,68,282,36*75
$GPGSV,2,2,07,25,23,313,21,26,10,225,30,29,76,243,37*42
$GLGSV,2,1,07,66,04,149,27,67,55,143,39,68,64,340,28,69,13,331,*6C
$GLGSV,2,2,07,74,03,223,19,82,58,085,41,83,52,198,29*51
$GNGLL,3651.88445,S,17443.42355,E,042902.00,A,A*63
$AAMTW,25.4,C*10
$AAXDR,C,25.4,C,ENV_SEA_T*0D
$AAMDA,,I,,B,,C,25.4,C,,,,C,,T,,M,,N,,M*07
$GNZDA,042902.00,31,01,2018,00,00*7D
$GNRMC,042903.00,A,3651.88434,S,17443.42354,E,0.115,,310118,,,A*73
$GNVTG,,T,,M,0.115,N,0.214,K,A*3F
$GNGGA,042903.00,3651.88434,S,17443.42354,E,1,10,1.18,10.5,M,28.1,M,,*66
$GNGSA,A,3,26,29,02,05,13,20,,,,,,,1.84,1.18,1.40*14
$GNGSA,A,3,82,67,68,83,,,,,,,,,1.84,1.18,1.40*12
$AAMTW,25.4,C*10
$AAXDR,C,25.4,C,ENV_SEA_T*0D
$AAMDA,,I,,B,,C,25.4,C,,,,C,,T,,M,,N,,M*07
$GPGSV,2,1,07,02,22,090,22,05,50,135,34,13,40,060,25,20,68,282,36*70
$GPGSV,2,2,07,25,23,313,21,26,10,225,30,29,76,243,36*43
$GLGSV,2,1,07,66,04,149,26,67,55,143,39,68,64,340,27,69,13,331,*62
$GLGSV,2,2,07,74,03,223,16,82,58,085,41,83,52,198,31*57
$GNGLL,3651.88434,S,17443.42354,E,042903.00,A,A*65
$AAMTW,25.4,C*10
$GNZDA,042903.00,31,01,2018,00,00*7C
$AAXDR,C,25.4,C,ENV_SEA_T*0D
$AAMDA,,I,,B,,C,25.4,C,,,,C,,T,,M,,N,,M*07
$GNRMC,042904.00,A,3651.88418,S,17443.42359,E,0.148,,310118,,,A*7F
$GNVTG,,T,,M,0.148,N,0.274,K,A*31
$GNGGA,042904.00,3651.88418,S,17443.42359,E,1,10,1.18,10.3,M,28.1,M,,*64
$AAMTW,25.4,C*10
$AAXDR,C,25.4,C,ENV_SEA_T*0D
$GNGSA,A,3,26,29,02,05,13,20,,,,,,,1.84,1.18,1.40*14
$GNGSA,A,3,82,67,68,83,,,,,,,,,1.84,1.18,1.40*12
$AAMDA,,I,,B,,C,25.4,C,,,,C,,T,,M,,N,,M*07
$GPGSV,2,1,07,02,22,090,20,05,50,135,30,13,40,060,25,20,68,282,36*76
$GPGSV,2,2,07,25,23,313,20,26,10,225,31,29,76,243,36*43
$GLGSV,2,1,07,66,04,149,25,67,55,143,40,68,64,340,26,69,13,331,*6E
$GLGSV,2,2,07,74,03,223,17,82,58,085,40,83,52,198,32*54
$GNGLL,3651.88418,S,17443.42359,E,042904.00,A,A*61
$AAMTW,25.4,C*10
$AAXDR,C,25.4,C,ENV_SEA_T*0D
$AAMDA,,I,,B,,C,25.4,C,,,,C,,T,,M,,N,,M*07
$GNZDA,042904.00,31,01,2018,00,00*7B
$GNRMC,042905.00,A,3651.88402,S,17443.42362,E,0.169,,310118,,,A*7E
$GNVTG,,T,,M,0.169,N,0.313,K,A*32
$GNGGA,042905.00,3651.88402,S,17443.42362,E,1,10,1.18,10.0,M,28.1,M,,*65
$GNGSA,A,3,26,29,02,05,13,20,,,,,,,1.84,1.18,1.40*14
$GNGSA,A,3,82,67,68,83,,,,,,,,,1.84,1.18,1.40*12
$AAMTW,25.4,C*10
$AAXDR,C,25.4,C,ENV_SEA_T*0D
$AAMDA,,I,,B,,C,25.4,C,,,,C,,T,,M,,N,,M*07
$GPGSV,2,1,07,02,22,090,18,05,50,135,30,13,40,060,25,20,68,282,35*7E
$GPGSV,2,2,07,25,23,313,18,26,10,225,31,29,76,243,36*48
$GLGSV,2,1,07,66,04,149,26,67,55,143,40,68,64,340,25,69,13,331,*6E
$GLGSV,2,2,07,74,03,223,20,82,58,085,41,83,52,198,32*51
$GNGLL,3651.88402,S,17443.42362,E,042905.00,A,A*63
$AAMTW,25.4,C*10
$AAXDR,C,25.4,C,ENV_SEA_T*0D
$AAMDA,,I,,B,,C,25.4,C,,,,C,,T,,M,,N,,M*07
$GNZDA,042905.00,31,01,2018,00,00*7A
$GNRMC,042906.00,A,3651.88386,S,17443.42363,E,0.144,,310118,,,A*78
$GNVTG,,T,,M,0.144,N,0.267,K,A*3F
$GNGGA,042906.00,3651.88386,S,17443.42363,E,1,10,1.18,9.8,M,28.1,M,,*5C
$AAMTW,25.4,C*10
$GNGSA,A,3,26,29,02,05,13,20,,,,,,,1.84,1.18,1.40*14
$GNGSA,A,3,82,67,68,83,,,,,,,,,1.84,1.18,1.40*12
$AAXDR,C,25.4,C,ENV_SEA_T*0D
$AAMDA,,I,,B,,C,25.4,C,,,,C,,T,,M,,N,,M*07
$GPGSV,2,1,07,02,22,090,20,05,50,135,31,13,40,060,25,20,68,282,34*75
$GPGSV,2,2,07,25,23,313,17,26,10,225,31,29,76,243,36*47
$GLGSV,2,1,07,66,04,149,24,67,55,143,41,68,64,340,24,69,13,331,*6C
$GLGSV,2,2,07,74,03,223,20,82,58,085,41,83,52,198,32*51
$GNGLL,3651.88386,S,17443.42363,E,042906.00,A,A*6A
$AAMTW,25.4,C*10
$AAXDR,C,25.4,C,ENV_SEA_T*0D
$AAMDA,,I,,B,,C,25.4,C,,,,C,,T,,M,,N,,M*07
$GNZDA,042906.00,31,01,2018,00,00*79
$GNRMC,042907.00,A,3651.88366,S,17443.42374,E,0.487,,310118,,,A*7B
$GNVTG,,T,,M,0.487,N,0.901,K,A*3E
$GNGGA,042907.00,3651.88366,S,17443.42374,E,1,10,1.18,9.6,M,28.1,M,,*5B
$GNGSA,A,3,26,29,02,05,13,20,,,,,,,1.84,1.18,1.40*14
$GNGSA,A,3,82,67,68,83,,,,,,,,,1.84,1.18,1.40*12
$AAMTW,25.4,C*10
$AAXDR,C,25.4,C,ENV_SEA_T*0D
$AAMDA,,I,,B,,C,25.4,C,,,,C,,T,,M,,N,,M*07
$GPGSV,2,1,07,02,22,090,33,05,50,135,31,13,40,060,31,20,68,282,31*77
$GPGSV,2,2,07,25,22,313,21,26,10,225,31,29,76,243,33*46
$GLGSV,2,1,07,66,04,149,22,67,55,143,41,68,64,340,30,69,13,331,*6F
$GLGSV,2,2,07,74,03,223,20,82,58,085,41,83,52,198,33*50
$GNGLL,3651.88366,S,17443.42374,E,042907.00,A,A*63
$AAMTW,25.4,C*10
$AAXDR,C,25.4,C,ENV_SEA_T*0D
$AAMDA,,I,,B,,C,25.4,C,,,,C,,T,,M,,N,,M*07
$GNZDA,042907.00,31,01,2018,00,00*78
$GNRMC,042908.00,A,3651.88356,S,17443.42372,E,0.253,,310118,,,A*7E
$GNVTG,,T,,M,0.253,N,0.469,K,A*32
$GNGGA,042908.00,3651.88356,S,17443.42372,E,1,10,1.19,10.2,M,28.1,M,,*6C
$GNGSA,A,3,26,29,02,05,13,20,,,,,,,1.84,1.19,1.40*15
$AAMTW,25.4,C*10
$GNGSA,A,3,82,67,68,83,,,,,,,,,1.84,1.19,1.40*13
$AAXDR,C,25.4,C,ENV_SEA_T*0D
$AAMDA,,I,,B,,C,25.4,C,,,,C,,T,,M,,N,,M*07
$GPGSV,2,1,07,02,22,090,34,05,50,135,25,13,40,060,32,20,68,282,23*75
$GPGSV,2,2,07,25,22,313,18,26,10,225,31,29,76,243,37*48
$GLGSV,2,1,07,66,04,149,22,67,55,143,41,68,64,340,29,69,13,331,*67
$GLGSV,2,2,07,74,03,223,19,82,58,085,42,83,52,198,35*5F
$GNGLL,3651.88356,S,17443.42372,E,042908.00,A,A*69
$AAMTW,25.4,C*10
$AAXDR,C,25.4,C,ENV_SEA_T*0D
$AAMDA,,I,,B,,C,25.4,C,,,,C,,T,,M,,N,,M*07
$GNZDA,042908.00,31,01,2018,00,00*77
$GNRMC,042909.00,A,3651.88363,S,17443.42352,E,0.180,,310118,,,A*76
$GNVTG,,T,,M,0.180,N,0.333,K,A*37
$GNGGA,042909.00,3651.88363,S,17443.42352,E,1,10,1.19,10.4,M,28.1,M,,*6F
$GNGSA,A,3,26,29,02,05,13,20,,,,,,,1.84,1.19,1.40*15
$AAMTW,25.4,C*10
$GNGSA,A,3,82,67,68,83,,,,,,,,,1.84,1.19,1.40*13
$AAXDR,C,25.4,C,ENV_SEA_T*0D
$AAMDA,,I,,B,,C,25.4,C,,,,C,,T,,M,,N,,M*07
$GPGSV,2,1,07,02,22,090,36,05,50,135,23,13,40,060,32,20,68,282,27*75
$GPGSV,2,2,07,25,22,313,,26,10,225,23,29,76,243,37*42
$GLGSV,2,1,07,66,04,149,20,67,55,143,41,68,64,340,32,69,13,331,*6F
$GLGSV,2,2,07,74,03,223,20,82,58,085,41,83,52,198,39*5A
$GNGLL,3651.88363,S,17443.42352,E,042909.00,A,A*6C
$AAMTW,25.4,C*10
$AAXDR,C,25.4,C,ENV_SEA_T*0D
$AAMDA,,I,,B,,C,25.4,C,,,,C,,T,,M,,N,,M*07
$GNZDA,042909.00,31,01,2018,00,00*76
$GNRMC,042910.00,A,3651.88370,S,17443.42341,E,0.156,,310118,,,A*75
$GNVTG,,T,,M,0.156,N,0.290,K,A*34
$GNGGA,042910.00,3651.88370,S,17443.42341,E,1,10,1.19,10.2,M,28.1,M,,*61
$AAMTW,25.4,C*10
$GNGSA,A,3,26,29,02,05,13,20,,,,,,,1.84,1.19,1.40*15
$GNGSA,A,3,82,67,68,83,,,,,,,,,1.84,1.19,1.40*13
$AAXDR,C,25.4,C,ENV_SEA_T*0D
$AAMDA,,I,,B,,C,25.4,C,,,,C,,T,,M,,N,,M*07
$GPGSV,2,1,07,02,22,090,35,05,50,135,32,13,40,060,30,20,68,282,30*72
$GPGSV,2,2,07,25,22,313,,26,10,225,22,29,76,244,35*46
$GLGSV,2,1,07,66,04,149,20,67,55,143,40,68,64,340,33,69,13,331,*6F
$GLGSV,2,2,07,74,03,223,20,82,58,085,42,83,52,198,41*56
$GNGLL,3651.88370,S,17443.42341,E,042910.00,A,A*64
$AAMTW,25.4,C*10
$AAXDR,C,25.4,C,ENV_SEA_T*0D
$AAMDA,,I,,B,,C,25.4,C,,,,C,,T,,M,,N,,M*07
$GNZDA,042910.00,31,01,2018,00,00*7E
$GNRMC,042911.00,A,3651.88386,S,17443.42321,E,0.164,,310118,,,A*7A
$GNVTG,,T,,M,0.164,N,0.303,K,A*3E
$GNGGA,042911.00,3651.88386,S,17443.42321,E,1,10,1.19,10.1,M,28.1,M,,*6C
$AAMTW,25.4,C*10
$AAXDR,C,25.4,C,ENV_SEA_T*0D
$GNGSA,A,3,26,29,02,05,13,20,,,,,,,1.84,1.19,1.40*15
$GNGSA,A,3,82,67,68,83,,,,,,,,,1.84,1.19,1.40*13
$AAMDA,,I,,B,,C,25.4,C,,,,C,,T,,M,,N,,M*07
$GPGSV,2,1,07,02,22,090,35,05,50,135,36,13,40,060,29,20,68,282,29*76
$GPGSV,2,2,07,25,22,313,23,26,10,225,22,29,76,244,35*47
$GLGSV,2,1,07,66,04,149,22,67,55,143,41,68,64,340,34,69,13,331,*6B
$GLGSV,2,2,07,74,03,223,20,82,58,085,37,83,52,198,40*55
$GNGLL,3651.88386,S,17443.42321,E,042911.00,A,A*6A
$AAMTW,25.4,C*10
$AAXDR,C,25.4,C,ENV_SEA_T*0D
$AAMDA,,I,,B,,C,25.4,C,,,,C,,T,,M,,N,,M*07
$GNZDA,042911.00,31,01,2018,00,00*7F
$GNRMC,042912.00,A,3651.88392,S,17443.42292,E,0.174,,310118,,,A*74
$GNVTG,,T,,M,0.174,N,0.322,K,A*3C
$GNGGA,042912.00,3651.88392,S,17443.42292,E,1,10,1.19,9.9,M,28.1,M,,*53
$AAMTW,25.4,C*10
$AAXDR,C,25.4,C,ENV_SEA_T*0D
$GNGSA,A,3,26,29,02,05,13,20,,,,,,,1.84,1.19,1.40*15
$GNGSA,A,3,82,67,68,83,,,,,,,,,1.84,1.19,1.40*13
$AAMDA,,I,,B,,C,25.4,C,,,,C,,T,,M,,N,,M*07
$GPGSV,2,1,07,02,22,090,36,05,50,135,39,13,40,060,29,20,68,282,28*7B
$GPGSV,2,2,07,25,22,313,23,26,10,225,22,29,76,244,37*45
$GLGSV,2,1,07,66,04,149,22,67,55,143,42,68,64,340,33,69,13,331,*6F
$GLGSV,2,2,07,74,03,223,19,82,58,085,35,83,52,198,40*5D
$GNGLL,3651.88392,S,17443.42292,E,042912.00,A,A*65
$AAMTW,25.4,C*10
$AAXDR,C,25.4,C,ENV_SEA_T*0D
$AAMDA,,I,,B,,C,25.4,C,,,,C,,T,,M,,N,,M*07
$GNZDA,042912.00,31,01,2018,00,00*7C
$GNRMC,042913.00,A,3651.88389,S,17443.42275,E,0.247,,310118,,,A*75
$GNVTG,,T,,M,0.247,N,0.458,K,A*35
$GNGGA,042913.00,3651.88389,S,17443.42275,E,1,10,1.19,9.9,M,28.1,M,,*51
$AAMTW,25.4,C*10
$AAXDR,C,25.4,C,ENV_SEA_T*0D
$GNGSA,A,3,26,29,02,05,13,20,,,,,,,1.84,1.19,1.40*15
$GNGSA,A,3,82,67,68,83,,,,,,,,,1.84,1.19,1.40*13
$AAMDA,,I,,B,,C,25.4,C,,,,C,,T,,M,,N,,M*07
$GPGSV,2,1,07,02,22,090,36,05,50,135,39,13,40,060,28,20,68,282,28*7A
$GPGSV,2,2,07,25,22,313,23,26,10,225,24,29,76,244,38*4C
$GLGSV,2,1,07,66,04,149,20,67,55,143,41,68,64,340,33,69,13,331,*6E
$GLGSV,2,2,07,74,03,223,20,82,58,085,34,83,52,198,39*58
$GNGLL,3651.88389,S,17443.42275,E,042913.00,A,A*67
$AAMTW,25.4,C*10
$AAXDR,C,25.4,C,ENV_SEA_T*0D
$AAMDA,,I,,B,,C,25.4,C,,,,C,,T,,M,,N,,M*07
$GNZDA,042913.00,31,01,2018,00,00*7D
$GNRMC,042914.00,A,3651.88380,S,17443.42259,E,0.439,,310118,,,A*7A
$GNVTG,,T,,M,0.439,N,0.813,K,A*39
$GNGGA,042914.00,3651.88380,S,17443.42259,E,1,10,1.19,9.9,M,28.1,M,,*51
$AAMTW,25.4,C*10
$AAXDR,C,25.4,C,ENV_SEA_T*0D
$AAMDA,,I,,B,,C,25.4,C,,,,C,,T,,M,,N,,M*07
$GNGSA,A,3,26,29,02,05,13,20,,,,,,,1.84,1.19,1.40*15
$GNGSA,A,3,82,67,68,83,,,,,,,,,1.84,1.19,1.40*13
$GPGSV,2,1,07,02,22,090,36,05,50,135,37,13,40,060,17,20,68,282,28*78
$GPGSV,2,2,07,25,22,313,22,26,10,225,25,29,76,244,40*43
$GLGSV,2,1,07,66,04,149,21,67,55,143,40,68,64,340,33,69,13,331,*6E
$GLGSV,2,2,07,74,03,223,20,82,58,085,38,83,52,198,39*54
$GNGLL,3651.88380,S,17443.42259,E,042914.00,A,A*67
$AAMTW,25.4,C*10
$AAXDR,C,25.4,C,ENV_SEA_T*0D
$AAMDA,,I,,B,,C,25.4,C,,,,C,,T,,M,,N,,M*07
$GNZDA,042914.00,31,01,2018,00,00*7A
$GNRMC,042915.00,A,3651.88381,S,17443.42252,E,0.276,,310118,,,A*7C
$GNVTG,,T,,M,0.276,N,0.512,K,A*38
$GNGGA,042915.00,3651.88381,S,17443.42252,E,1,10,1.19,9.9,M,28.1,M,,*5A
$AAMTW,25.4,C*10
$AAXDR,C,25.4,C,ENV_SEA_T*0D
$AAMDA,,I,,B,,C,25.4,C,,,,C,,T,,M,,N,,M*07
$GNGSA,A,3,26,29,02,05,13,20,,,,,,,1.84,1.19,1.40*15
$GNGSA,A,3,82,67,68,83,,,,,,,,,1.84,1.19,1.40*13
$GPGSV,2,1,07,02,22,090,37,05,50,135,29,13,40,060,29,20,68,282,27*74
$GPGSV,2,2,07,25,22,313,21,26,10,225,23,29,76,244,35*44
$GLGSV,2,1,07,66,04,149,23,67,55,143,43,68,64,340,36,69,13,331,*6A
$GLGSV,2,2,07,74,03,223,20,82,58,085,37,83,52,198,40*55
$GNGLL,3651.88381,S,17443.42252,E,042915.00,A,A*6C
$AAMTW,25.4,C*10
$AAXDR,C,25.4,C,ENV_SEA_T*0D
$AAMDA,,I,,B,,C,25.4,C,,,,C,,T,,M,,N,,M*07
$GNZDA,042915.00,31,01,2018,00,00*7B
$GNRMC,042916.00,A,3651.88388,S,17443.42246,E,0.021,,310118,,,A*73
$GNVTG,,T,,M,0.021,N,0.038,K,A*35
$GNGGA,042916.00,3651.88388,S,17443.42246,E,1,10,1.19,9.8,M,28.1,M,,*54
$AAMTW,25.4,C*10
$AAXDR,C,25.4,C,ENV_SEA_T*0D
$AAMDA,,I,,B,,C,25.4,C,,,,C,,T,,M,,N,,M*07
$GNGSA,A,3,26,29,02,05,13,20,,,,,,,1.84,1.19,1.40*15
$GNGSA,A,3,82,67,68,83,,,,,,,,,1.84,1.19,1.40*13
$GPGSV,2,1,07,02,22,090,37,05,50,135,30,13,40,060,30,20,68,282,29*7A
$GPGSV,2,2,07,25,22,313,20,26,10,225,25,29,76,244,33*45
$GLGSV,2,1,07,66,04,149,22,67,55,143,42,68,64,340,36,69,13,331,*6A
$GLGSV,2,2,07,74,03,223,18,82,58,085,37,83,52,198,40*5E
$GNGLL,3651.88388,S,17443.42246,E,042916.00,A,A*63
$AAMTW,25.4,C*10
$AAXDR,C,25.4,C,ENV_SEA_T*0D
$AAMDA,,I,,B,,C,25.4,C,,,,C,,T,,M,,N,,M*07
$GNZDA,042916.00,31,01,2018,00,00*78
$GNRMC,042917.00,A,3651.88394,S,17443.42243,E,0.054,,310118,,,A*78
$GNVTG,,T,,M,0.054,N,0.099,K,A*3C
$GNGGA,042917.00,3651.88394,S,17443.42243,E,1,10,1.19,9.9,M,28.1,M,,*5C
$AAMTW,25.4,C*10
$AAXDR,C,25.4,C,ENV_SEA_T*0D
$AAMDA,,I,,B,,C,25.4,C,,,,C,,T,,M,,N,,M*07
$GNGSA,A,3,26,29,02,05,13,20,,,,,,,1.84,1.19,1.40*15
$GNGSA,A,3,82,67,68,83,,,,,,,,,1.84,1.19,1.40*13
$GPGSV,2,1,07,02,22,090,36,05,50,135,35,13,40,060,29,20,68,282,30*7E
$GPGSV,2,2,07,25,22,313,18,26,10,225,27,29,76,244,33*4C
$GLGSV,2,1,07,66,04,149,19,67,55,143,43,68,64,340,35,69,13,331,*60
$GLGSV,2,2,07,74,03,223,,82,58,085,37,83,52,198,40*57
$GNGLL,3651.88394,S,17443.42243,E,042917.00,A,A*6A
$AAMTW,25.4,C*10
$AAXDR,C,25.4,C,ENV_SEA_T*0D
$AAMDA,,I,,B,,C,25.4,C,,,,C,,T,,M,,N,,M*07
$GNZDA,042917.00,31,01,2018,00,00*79
$GNRMC,042918.00,A,3651.88395,S,17443.42238,E,0.044,,310118,,,A*7B
$GNVTG,,T,,M,0.044,N,0.082,K,A*37
$GNGGA,042918.00,3651.88395,S,17443.42238,E,1,10,1.19,9.9,M,28.1,M,,*5E
$AAMTW,25.4,C*10
$AAXDR,C,25.4,C,ENV_SEA_T*0D
$AAMDA,,I,,B,,C,25.4,C,,,,C,,T,,M,,N,,M*07
$GNGSA,A,3,26,29,02,05,13,20,,,,,,,1.84,1.19,1.40*15
$GNGSA,A,3,82,67,68,83,,,,,,,,,1.84,1.19,1.40*13
$GPGSV,2,1,07,02,22,090,36,05,50,135,32,13,40,060,31,20,68,282,31*71
$GPGSV,2,2,07,25,22,313,,26,10,225,27,29,76,244,35*43
$GLGSV,2,1,07,66,04,149,16,67,55,143,42,68,64,340,31,69,13,331,*6A
$GLGSV,2,2,07,74,03,223,,82,58,085,36,83,52,198,39*58
$GNGLL,3651.88395,S,17443.42238,E,042918.00,A,A*68
$AAMTW,25.4,C*10
$AAXDR,C,25.4,C,ENV_SEA_T*0D
$AAMDA,,I,,B,,C,25.4,C,,,,C,,T,,M,,N,,M*07
$GNZDA,042918.00,31,01,2018,00,00*76
$GNRMC,042919.00,A,3651.88385,S,17443.42246,E,0.096,,310118,,,A*7D
$GNVTG,,T,,M,0.096,N,0.177,K,A*33
$GNGGA,042919.00,3651.88385,S,17443.42246,E,1,10,1.19,10.3,M,28.1,M,,*65
$AAMTW,25.4,C*10
$AAXDR,C,25.4,C,ENV_SEA_T*0D
$AAMDA,,I,,B,,C,25.4,C,,,,C,,T,,M,,N,,M*07
$GNGSA,A,3,26,29,02,05,13,20,,,,,,,1.84,1.19,1.40*15
$GNGSA,A,3,82,67,68,83,,,,,,,,,1.84,1.19,1.40*13
$GPGSV,2,1,07,02,22,090,38,05,50,135,32,13,40,060,28,20,68,282,30*76
$GPGSV,2,2,07,25,22,313,,26,10,225,28,29,76,244,35*4C
$GLGSV,2,1,08,66,04,149,17,67,55,143,43,68,64,340,33,69,13,331,*67
$GLGSV,2,2,08,74,03,223,,81,12,056,,82,58,085,41,83,52,198,38*6F
$GNGLL,3651.88385,S,17443.42246,E,042919.00,A,A*61
$AAMTW,25.4,C*10
$AAXDR,C,25.4,C,ENV_SEA_T*0D
$AAMDA,,I,,B,,C,25.4,C,,,,C,,T,,M,,N,,M*07
$GNZDA,042919.00,31,01,2018,00,00*77
$GNRMC,042920.00,A,3651.88373,S,17443.42243,E,0.072,,310118,,,A*71
$GNVTG,,T,,M,0.072,N,0.134,K,A*3E
$GNGGA,042920.00,3651.88373,S,17443.42243,E,1,10,1.19,10.6,M,28.1,M,,*66
$AAMTW,25.4,C*10
$AAXDR,C,25.4,C,ENV_SEA_T*0D
$AAMDA,,I,,B,,C,25.4,C,,,,C,,T,,M,,N,,M*07
$GNGSA,A,3,26,29,02,05,13,20,,,,,,,1.84,1.19,1.40*15
